time,px,py,pz,vx,vy,vz,roll,pitch,yaw
0,0,0,0,0,0,0,0,0,0
0.0025,0,0,0,0,0,0,0,0,0
0.005,0,0,0,0,0,0,0,0,0
0.0075,0,0,0,0,0,0,0,0,0.00357207494514057
0.01,0,0,0,0,0,0,0,0,0.00357207494514057
0.0125,0,0,0,0,0,0,0,0,0.00357207494514057
0.015,0,0,0,0,0,0,0,0,0.00357207494514057
0.0175,0,0,0,0,0,0,0,0,0.0108741678643003
0.02,0,0,0,0,0,0,0,0,0.0108741678643003
0.0225,0,0,0,0,0,0,0,0,0.0108741678643003
0.025,0,0,0,0,0,0,0,0,0.0108741678643003
0.0275,0,0,0,0,0,0,0,0,0.0210155398391775
0.03,0,0,0,0,0,0,0,0,0.0210155398391775
0.0325,0,0,0,0,0,0,0,0,0.0210155398391775
0.035,0,0,0,0,0,0,0,0,0.0210155398391775
0.0375,0,0,0,0,0,0,0,0,0.0333710420834035
0.04,0,0,0,0,0,0,0,0,0.0333710420834035
0.0425,0,0,0,0,0,0,0,0,0.0333710420834035
0.045,0,0,0,0,0,0,0,0,0.0333710420834035
0.0475,0,0,0,0,0,0,0,0,0.0474895456899925
0.05,0,0,0,0,0,0,0,0,0.0474895456899925
0.0525,0,0,0,0,0,0,0,0,0.0474895456899925
0.055,0,0,0,0,0,0,0,0,0.0474895456899925
0.0575,0,0,0,0,0,0,0,0,0.0630378492955938
0.06,0,0,0,0,0,0,0,0,0.0630378492955938
0.0625,0,0,0,0,0,0,0,0,0.0630378492955938
0.065,0,0,0,0,0,0,0,0,0.0630378492955938
0.0675,0,0,0,0,0,0,0,0,0.0797649997481767
0.07,0,0,0,0,0,0,0,0,0.0797649997481767
0.0725,0,0,0,0,0,0,0,0,0.0797649997481767
0.075,0,0,0,0,0,0,0,0,0.0797649997481767
0.0775,0,0,0,0,0,0,0,0,0.0974788534070594
0.08,0,0,0,0,0,0,0,0,0.0974788534070594
0.0825,0,0,0,0,0,0,0,0,0.0974788534070594
0.085,0,0,0,0,0,0,0,0,0.0974788534070594
0.0875,0,0,0,0,0,0,0,0,0.11603024247278
0.09,0,0,0,0,0,0,0,0,0.11603024247278
0.0925,0,0,0,0,0,0,0,0,0.11603024247278
0.095,0,0,0,0,0,0,0,0,0.11603024247278
0.0975,0.00018058836573131,-7.68123483479809e-07,0,1.87458408371226e-05,-7.97344842788854e-08,0,0,0,0.135302013938342
0.1,0.000180635230333627,-7.68322822002774e-07,0,1.87458409269742e-05,-7.9735409185802e-08,0,0,0,0.135302013938342
0.1025,0.00018068209493617,-7.68522162838053e-07,0,1.87458410168277e-05,-7.97363341115309e-08,0,0,0,0.135302013938342
0.105,0.000180728959538936,-7.6872150598556e-07,0,1.87458411066779e-05,-7.97372590029156e-08,0,0,0,0.135302013938342
0.1075,0.000180775824141928,-7.68920851445107e-07,0,1.87458411965207e-05,-7.97381838187713e-08,0,0,0,0.155201275806355
0.11,0.000180822688745144,-7.69120199216347e-07,0,1.87458412866742e-05,-7.97391084961398e-08,0,0,0,0.155201275806355
0.1125,0.000180869553348586,-7.6931954929939e-07,0,1.8745841376832e-05,-7.97400332169349e-08,0,0,0,0.155201275806355
0.115,0.000180916417952254,-7.69518901694208e-07,0,1.87458414669887e-05,-7.97409579274323e-08,0,0,0,0.155201275806355
0.1175,0.000180963282556147,-7.69718256400673e-07,0,1.87458415571404e-05,-7.97418825857785e-08,0,0,0,0.175653805295539
0.12,0.000181010147160266,-7.69917613418491e-07,0,1.87458416476139e-05,-7.9742807127303e-08,0,0,0,0.175653805295539
0.1225,0.000181057011764611,-7.70116972747822e-07,0,1.87458417380936e-05,-7.97437317324745e-08,0,0,0,0.175653805295539
0.125,0.000181103876369182,-7.7031633438869e-07,0,1.87458418285742e-05,-7.97446563471849e-08,0,0,0,0.175653805295539
0.1275,0.00018115074097398,-7.70515698341013e-07,0,1.87458419190516e-05,-7.97455809291067e-08,0,0,0,0.196599945649237
0.13,0.000181197605579005,-7.70715064604543e-07,0,1.87458420098606e-05,-7.9746505412139e-08,0,0,0,0.196599945649237
0.1325,0.000181244470184256,-7.70914433179483e-07,0,1.87458421006775e-05,-7.97474299756802e-08,0,0,0,0.196599945649237
0.135,0.000181291334789735,-7.71113804065896e-07,0,1.87458421914969e-05,-7.97483545653662e-08,0,0,0,0.196599945649237
0.1375,0.000181338199395441,-7.71313177263742e-07,0,1.87458422823147e-05,-7.97492791385335e-08,0,0,0,0.217991547536331
0.14,0.000181385064001374,-7.71512552772812e-07,0,1.87458423734728e-05,-7.97502036278585e-08,0,0,0,0.217991547536331
0.1425,0.000181431928607536,-7.71711930593342e-07,0,1.87458424646403e-05,-7.97511282119454e-08,0,0,0,0.217991547536331
0.145,0.000181478793213926,-7.71911310725432e-07,0,1.87458425558117e-05,-7.9752052836264e-08,0,0,0,0.217991547536331
0.1475,0.000181525657820543,-7.72110693169077e-07,0,1.87458426469828e-05,-7.97529774579127e-08,0,0,0,0.239789656104025
0.15,0.000181572522427389,-7.72310077924098e-07,0,1.87458427385021e-05,-7.97539020084984e-08,0,0,0,0.239789656104025
0.1525,0.000181619387034464,-7.72509464990764e-07,0,1.8745842830032e-05,-7.97548266660403e-08,0,0,0,0.239789656104025
0.155,0.000181666251641768,-7.72708854369203e-07,0,1.87458429215671e-05,-7.97557513759049e-08,0,0,0,0.239789656104025
0.1575,0.000181713116249301,-7.72908246059441e-07,0,1.87458430131031e-05,-7.97566760950222e-08,0,0,0,0.261962738583726
0.16,0.000181759980857064,-7.73107640061326e-07,0,1.87458431049945e-05,-7.97576007540445e-08,0,0,0,0.261962738583726
0.1625,0.000181806845465056,-7.73307036375152e-07,0,1.87458431968975e-05,-7.97585255305674e-08,0,0,0,0.261962738583726
0.165,0.000181853710073278,-7.73506435001077e-07,0,1.87458432888069e-05,-7.97594503698984e-08,0,0,0,0.261962738583726
0.1675,0.00018190057468173,-7.73705835939149e-07,0,1.87458433807181e-05,-7.97603752288497e-08,0,0,0,0.284485309307422
0.17,0.000181947439290412,-7.73905239189242e-07,0,1.87458434729915e-05,-7.97613000372054e-08,0,0,0,0.284485309307422
0.1725,0.000181994303899325,-7.74104644751673e-07,0,1.87458435652775e-05,-7.9762224972265e-08,0,0,0,0.284485309307422
0.175,0.000182041168508469,-7.74304052626621e-07,0,1.87458436575707e-05,-7.97631499793085e-08,0,0,0,0.284485309307422
0.1775,0.000182088033117844,-7.74503462814159e-07,0,1.87458437498668e-05,-7.97640750150676e-08,0,0,0,0.307336850663636
0.18,0.00018213489772745,-7.7470287531418e-07,0,1.87458438425312e-05,-7.97650000085232e-08,0,0,0,0.307336850663636
0.1825,0.000182181762337288,-7.74902290127022e-07,0,1.87458439352092e-05,-7.9765925136782e-08,0,0,0,0.307336850663636
0.185,0.000182228626947358,-7.75101707252885e-07,0,1.87458440278952e-05,-7.97668503451193e-08,0,0,0,0.307336850663636
0.1875,0.000182275491557659,-7.7530112669186e-07,0,1.87458441205849e-05,-7.97677755902135e-08,0,0,0,0.330500957030301
0.19,0.000182322356168194,-7.75500548443861e-07,0,1.87458442136488e-05,-7.97687008002915e-08,0,0,0,0.330500957030301
0.1925,0.00018236922077896,-7.75699972509242e-07,0,1.87458443067271e-05,-7.97696261523526e-08,0,0,0,0.330500957030301
0.195,0.00018241608538996,-7.75899398888221e-07,0,1.87458443998141e-05,-7.97705515916838e-08,0,0,0,0.330500957030301
0.1975,0.00055865830368096,-4.01999164968389e-06,1.63575513585854e-21,9.81220532360433e-05,-7.64224088536298e-07,3.46479744740285e-20,0,0,0.35396464853114
0.2,0.00055890360881527,-4.02190227098478e-06,1.72237507204361e-21,9.81220537239625e-05,-7.64248520354279e-07,3.46479744740285e-20,0,0,0.35396464853114
0.2025,0.0005591489139508,-4.023812953375e-06,1.80899500822868e-21,9.812205421196e-05,-7.64272956089716e-07,3.46479744740285e-20,0,0,0.35396464853114
0.205,0.00055939421908755,-4.02572369686075e-06,1.89561494441375e-21,9.81220547000068e-05,-7.6429739429881e-07,3.46479744740285e-20,0,0,0.35396464853114
0.2075,0.00055963952422552,-4.02763450144534e-06,1.98223488059882e-21,9.81220551880803e-05,-7.64321833836557e-07,3.46479744740285e-20,0,0,0.377717815425933
0.21,0.000559884829364736,-4.02954536712932e-06,2.06885481678389e-21,9.81220556862941e-05,-7.64346273592016e-07,3.46479744740285e-20,0,0,0.377717815425933
0.2125,0.000560130134505198,-4.03145629392286e-06,2.15547475296897e-21,9.8122056184591e-05,-7.64370717416855e-07,3.46479744740285e-20,0,0,0.377717815425933
0.215,0.000560375439646905,-4.03336728183253e-06,2.24209468915404e-21,9.81220566829414e-05,-7.64395163868071e-07,3.46479744740285e-20,0,0,0.377717815425933
0.2175,0.000560620744789858,-4.03527833086203e-06,2.30570203592179e-21,9.8122057181322e-05,-7.64419611800473e-07,3.46479744740285e-20,0,0,0.401752763919895
0.22,0.000560866049934083,-4.03718944101227e-06,2.39232197210686e-21,9.81220576899701e-05,-7.64444060095425e-07,3.46479744740285e-20,0,0,0.401752763919895
0.2225,0.00056111135507958,-4.03910061229376e-06,2.47894190829193e-21,9.81220581987057e-05,-7.64468512596841e-07,3.46479744740285e-20,0,0,0.401752763919895
0.225,0.000561356660226349,-4.04101184471342e-06,2.565561844477e-21,9.81220587074988e-05,-7.64492967862677e-07,3.46479744740285e-20,0,0,0.401752763919895
0.2275,0.000561601965374389,-4.04292313827529e-06,2.65218178066207e-21,9.81220592163257e-05,-7.64517424747795e-07,3.46479744740285e-20,0,0,0.426063841391226
0.23,0.000561847270523728,-4.0448344929806e-06,2.73880171684714e-21,9.81220597355448e-05,-7.64541882126039e-07,3.46479744740285e-20,0,0,0.426063841391226
0.2325,0.000562092575674365,-4.04674590884019e-06,2.82542165303222e-21,9.81220602548559e-05,-7.64566343835031e-07,3.46479744740285e-20,0,0,0.426063841391226
0.235,0.000562337880826301,-4.04865738586128e-06,2.91204158921729e-21,9.81220607742283e-05,-7.64590808433798e-07,3.46479744740285e-20,0,0,0.426063841391226
0.2375,0.000562583185979535,-4.05056892404822e-06,2.96901920754124e-21,9.81220612936378e-05,-7.64615274777437e-07,3.46479744740285e-20,0,0,0.450647124313105
0.24,0.000562828491134094,-4.05248052340255e-06,3.05563914372631e-21,9.81220618235629e-05,-7.64639741732379e-07,3.46479744740285e-20,0,0,0.450647124313105
0.2425,0.000563073796289978,-4.05439218393538e-06,3.14225907991138e-21,9.81220623535841e-05,-7.64664213131232e-07,3.46479744740285e-20,0,0,0.450647124313105
0.245,0.000563319101447187,-4.05630390565421e-06,3.22887901609646e-21,9.81220628836705e-05,-7.64688687534175e-07,3.46479744740285e-20,0,0,0.450647124313105
0.2475,0.000563564406605722,-4.05821568856371e-06,3.31549895228153e-21,9.81220634137972e-05,-7.6471316379668e-07,3.46479744740285e-20,0,0,0.47550015604854
0.25,0.000563809711765608,-4.06012753266565e-06,3.4021188884666e-21,9.81220639545618e-05,-7.64737640777812e-07,3.46479744740285e-20,0,0,0.47550015604854
0.2525,0.000564055016926846,-4.06203943797142e-06,3.48873882465167e-21,9.81220644954268e-05,-7.64762122306294e-07,3.46479744740285e-20,0,0,0.47550015604854
0.255,0.000564300322089437,-4.06395140448878e-06,3.57535876083674e-21,9.81220650363606e-05,-7.64786606943516e-07,3.46479744740285e-20,0,0,0.47550015604854
0.2575,0.000564545627253381,-4.06586343222264e-06,3.62573472740231e-21,9.81220655773377e-05,-7.64811093545431e-07,3.46479744740285e-20,0,0,0.500621724610881
0.26,0.000564790932418703,-4.06777552117505e-06,3.71235466358738e-21,9.81220661290749e-05,-7.64835580963736e-07,3.46479744740285e-20,0,0,0.500621724610881
0.2625,0.000565036237585406,-4.06968767135761e-06,3.79897459977245e-21,9.81220666809166e-05,-7.64860073024284e-07,3.46479744740285e-20,0,0,0.500621724610881
0.265,0.000565281542753488,-4.07159988277833e-06,3.88559453595752e-21,9.81220672328305e-05,-7.6488456828971e-07,3.46479744740285e-20,0,0,0.500621724610881
0.2675,0.00056552684792295,-4.07351215544237e-06,3.97221447214259e-21,9.81220677847909e-05,-7.64909065616534e-07,3.46479744740285e-20,0,0,0.526011672679995
0.27,0.000565772153093819,-4.075424489352e-06,4.05883440832766e-21,9.81220683476335e-05,-7.64933563849038e-07,3.46479744740285e-20,0,0,0.526011672679995
0.2725,0.000566017458266095,-4.07733688451902e-06,4.14545434451273e-21,9.81220689105846e-05,-7.64958066811126e-07,3.46479744740285e-20,0,0,0.526011672679995
0.275,0.000566262763439779,-4.07924934095169e-06,4.2320742806978e-21,9.81220694736115e-05,-7.64982573066699e-07,3.46479744740285e-20,0,0,0.526011672679995
0.2775,0.000566508068614871,-4.08116185865537e-06,4.27585900557072e-21,9.81220700366878e-05,-7.65007081472905e-07,3.46479744740285e-20,0,0,0.551670733835299
0.28,0.000566753373791398,-4.08307443763254e-06,4.36247894175579e-21,9.81220706107688e-05,-7.6503159086654e-07,3.46479744740285e-20,0,0,0.551670733835299
0.2825,0.00056699867896936,-4.08498707789522e-06,4.44909887794086e-21,9.81220711849625e-05,-7.65056105070391e-07,3.46479744740285e-20,0,0,0.551670733835299
0.285,0.000567243984148759,-4.08689977945184e-06,4.53571881412593e-21,9.81220717592352e-05,-7.65080622649635e-07,3.46479744740285e-20,0,0,0.551670733835299
0.2875,0.000567489289329592,-4.088812542308e-06,4.622338750311e-21,9.81220723335603e-05,-7.65105142462099e-07,3.46479744740285e-20,0,0,0.577600390248428
0.29,0.00056773459451189,-4.09072536646634e-06,4.70895868649607e-21,9.81220729190136e-05,-7.65129663336988e-07,3.46479744740285e-20,0,0,0.577600390248428
0.2925,0.000567979899695651,-4.09263825193908e-06,4.79557862268115e-21,9.81220735045834e-05,-7.6515418909674e-07,3.46479744740285e-20,0,0,0.577600390248428
0.295,0.000568225204880877,-4.09455119873485e-06,4.88219855886622e-21,9.81220740902357e-05,-7.65178718307814e-07,3.46479744740285e-20,0,0,0.577600390248428
0.2975,0.00116346723312171,-1.18318365950715e-05,3.09761105828687e-19,0.000285118675463728,-3.19628940215815e-06,6.01898281848801e-18,0,0,0.603802748068775
0.3,0.00116418002981345,-1.18398277420926e-05,3.24808562874907e-19,0.000285118676693897,-3.19645880845904e-06,6.01898281848801e-18,0,0,0.603802748068775
0.3025,0.00116489282650826,-1.1847819312715e-05,3.39856019921127e-19,0.000285118677924315,-3.19662824897004e-06,6.01898281848801e-18,0,0,0.603802748068775
0.305,0.00116560562320615,-1.18558113069995e-05,3.54903476967347e-19,0.000285118679154909,-3.19679771380086e-06,6.01898281848801e-18,0,0,0.603802748068775
0.3075,0.00116631841990711,-1.18638037249872e-05,3.69950934013567e-19,0.000285118680385623,-3.19696719507444e-06,6.01898281848801e-18,0,0,0.630280427506118
0.31,0.00116703121661135,-1.18717965667021e-05,3.84998391059787e-19,0.000285118681694736,-3.19713668593555e-06,6.01898281848801e-18,0,0,0.630280427506118
0.3125,0.00116774401331886,-1.18797898322307e-05,4.00045848106007e-19,0.000285118683004117,-3.19730621145223e-06,6.01898281848801e-18,0,0,0.630280427506118
0.315,0.00116845681002964,-1.1887783521635e-05,4.15093305152227e-19,0.000285118684313689,-3.19747576174286e-06,6.01898281848801e-18,0,0,0.630280427506118
0.3175,0.0011691696067437,-1.18957776349574e-05,4.2585320068723e-19,0.000285118685623392,-3.19764532893555e-06,6.01898281848801e-18,0,0,0.657036465218666
0.32,0.00116988240346123,-1.19037721722227e-05,4.4090065773345e-19,0.000285118687012366,-3.19781490613431e-06,6.01898281848801e-18,0,0,0.657036465218666
0.3225,0.00117059520018224,-1.19117671335187e-05,4.5594811477967e-19,0.000285118688401628,-3.19798451840407e-06,6.01898281848801e-18,0,0,0.657036465218666
0.325,0.00117130799690671,-1.19197625189084e-05,4.7099557182589e-19,0.000285118689791096,-3.1981541558718e-06,6.01898281848801e-18,0,0,0.657036465218666
0.3275,0.00117202079363467,-1.19277583284351e-05,4.8604302887211e-19,0.000285118691180706,-3.1983238106709e-06,6.01898281848801e-18,0,0,0.684074227091148
0.33,0.00117273359036629,-1.19357545621247e-05,5.0109048591833e-19,0.000285118692650472,-3.19849347586351e-06,6.01898281848801e-18,0,0,0.684074227091148
0.3325,0.00117344638710159,-1.1943751220066e-05,5.1613794296455e-19,0.000285118694120544,-3.19866317651537e-06,6.01898281848801e-18,0,0,0.684074227091148
0.335,0.00117415918384057,-1.19517483023229e-05,5.3118540001077e-19,0.000285118695590839,-3.19883290276193e-06,6.01898281848801e-18,0,0,0.684074227091148
0.3375,0.00117487198058322,-1.19597458089398e-05,5.40762116569275e-19,0.000285118697061287,-3.19900264674194e-06,6.01898281848801e-18,0,0,0.711397329865123
0.34,0.00117558477732976,-1.19677437399435e-05,5.55809573615495e-19,0.000285118698612787,-3.19917240147452e-06,6.01898281848801e-18,0,0,0.711397329865123
0.3425,0.00117629757408017,-1.19757420954236e-05,5.70857030661715e-19,0.000285118700164614,-3.19934219202992e-06,6.01898281848801e-18,0,0,0.711397329865123
0.345,0.00117701037083446,-1.19837408754449e-05,5.85904487707935e-19,0.000285118701716679,-3.19951200855196e-06,6.01898281848801e-18,0,0,0.711397329865123
0.3475,0.00117772316759263,-1.19917400800529e-05,6.00951944754155e-19,0.000285118703268909,-3.19968184318473e-06,6.01898281848801e-18,0,0,0.739009570384411
0.35,0.00117843596435489,-1.19997397092752e-05,6.15999401800375e-19,0.0002851187049031,-3.19985168890315e-06,6.01898281848801e-18,0,0,0.739009570384411
0.3525,0.00117914876112123,-1.20077397632021e-05,6.31046858846595e-19,0.00028511870653764,-3.20002157078547e-06,6.01898281848801e-18,0,0,0.739009570384411
0.355,0.00117986155789166,-1.20157402418996e-05,6.46094315892815e-19,0.000285118708172432,-3.20019147898373e-06,6.01898281848801e-18,0,0,0.739009570384411
0.3575,0.00118057435466618,-1.20237411454137e-05,6.54483080739933e-19,0.000285118709807403,-3.20036140564744e-06,6.01898281848801e-18,0,0,0.766914861459066
0.36,0.00118128715144499,-1.2031742473773e-05,6.69530537786153e-19,0.000285118711525257,-3.20053134370595e-06,6.01898281848801e-18,0,0,0.766914861459066
0.3625,0.0011819999482281,-1.20397442270686e-05,6.84577994832373e-19,0.000285118713243481,-3.20070131824889e-06,6.01898281848801e-18,0,0,0.766914861459066
0.365,0.00118271274501551,-1.20477464053672e-05,6.99625451878593e-19,0.000285118714961973,-3.20087131943641e-06,6.01898281848801e-18,0,0,0.766914861459066
0.3675,0.00118342554180721,-1.20557490087157e-05,7.14672908924813e-19,0.000285118716680656,-3.2010413394234e-06,6.01898281848801e-18,0,0,0.795117173544308
0.37,0.00118413833860342,-1.20637520371435e-05,7.29720365971033e-19,0.000285118718483159,-3.20121137109231e-06,6.01898281848801e-18,0,0,0.795117173544308
0.3725,0.00118485113540413,-1.20717554907423e-05,7.44767823017253e-19,0.000285118720286053,-3.20138143954736e-06,6.01898281848801e-18,0,0,0.795117173544308
0.375,0.00118556393220936,-1.20797593695797e-05,7.59815280063473e-19,0.000285118722089232,-3.20155153495669e-06,6.01898281848801e-18,0,0,0.795117173544308
0.3775,0.00118627672901909,-1.20877636737034e-05,7.67008733353605e-19,0.000285118723892613,-3.20172164948052e-06,6.01898281848801e-18,0,0,0.823620481586036
0.38,0.00118698952583354,-1.20957684031433e-05,7.82056190399825e-19,0.000285118725780765,-3.20189177595302e-06,6.01898281848801e-18,0,0,0.823620481586036
0.3825,0.00118770232265271,-1.2103773557992e-05,7.97103647446045e-19,0.000285118727669329,-3.20206193949607e-06,6.01898281848801e-18,0,0,0.823620481586036
0.385,0.00118841511947661,-1.21117791383178e-05,8.12151104492265e-19,0.000285118729558195,-3.2022321302857e-06,6.01898281848801e-18,0,0,0.823620481586036
0.3875,0.00118912791630523,-1.2119785144169e-05,8.27198561538485e-19,0.000285118731447277,-3.20240234048744e-06,6.01898281848801e-18,0,0,0.852428716509467
0.39,0.00118984071313878,-1.21277915755762e-05,8.42246018584705e-19,0.000285118733422092,-3.20257256288564e-06,6.01898281848801e-18,0,0,0.852428716509467
0.3925,0.00119055350997728,-1.21357984326328e-05,8.57293475630925e-19,0.000285118735397341,-3.20274282262294e-06,6.01898281848801e-18,0,0,0.852428716509467
0.395,0.00119126630682071,-1.21438057154075e-05,8.72340932677145e-19,0.000285118737372909,-3.20291310988305e-06,6.01898281848801e-18,0,0,0.852428716509467
0.3975,0.00204293620520025,-2.6949097888856e-05,1.06948815989723e-17,0.000631650337521992,-9.22891901054275e-06,1.69021681492359e-16,0,0,0.881545720928102
0.4,0.00204451533104916,-2.69721718942867e-05,1.11174358027032e-17,0.000631650339564264,-9.22960217229952e-06,1.69021681492359e-16,0,0,0.881545720928102
0.4025,0.00204609445690318,-2.69952476079988e-05,1.15399900064341e-17,0.000631650341606988,-9.23028548484406e-06,1.69021681492359e-16,0,0,0.881545720928102
0.405,0.0020476735827623,-2.70183250302709e-05,1.1962544210165e-17,0.000631650343650045,-9.230968908833e-06,1.69021681492359e-16,0,0,0.881545720928102
0.4075,0.00204925270862653,-2.70414041613031e-05,1.23850984138959e-17,0.000631650345693341,-9.23165241288416e-06,1.69021681492359e-16,0,0,0.910975208731035
0.41,0.00205083183449675,-2.70644850012302e-05,1.28076526176268e-17,0.000631650348087906,-9.23233597083907e-06,1.69021681492359e-16,0,0,0.910975208731035
0.4125,0.00205241096037296,-2.70875675504316e-05,1.32302068213577e-17,0.000631650350483003,-9.2330196805464e-06,1.69021681492359e-16,0,0,0.910975208731035
0.415,0.00205399008625516,-2.71106518091883e-05,1.36527610250886e-17,0.000631650352878493,-9.23370350269244e-06,1.69021681492359e-16,0,0,0.910975208731035
0.4175,0.00205556921214334,-2.71337377777031e-05,1.3930778061369e-17,0.000631650355274267,-9.23438740591572e-06,1.69021681492359e-16,0,0,0.940720728271412
0.42,0.00205714833803841,-2.71568254561128e-05,1.43533322650999e-17,0.00063165035802532,-9.23507136387517e-06,1.69021681492359e-16,0,0,0.940720728271412
0.4225,0.00205872746394035,-2.7179914844799e-05,1.47758864688308e-17,0.000631650360776986,-9.23575547450134e-06,1.69021681492359e-16,0,0,0.940720728271412
0.425,0.00206030658984917,-2.72030059440453e-05,1.51984406725617e-17,0.000631650363529109,-9.23643969850968e-06,1.69021681492359e-16,0,0,0.940720728271412
0.4275,0.00206188571576488,-2.72260987540567e-05,1.56209948762926e-17,0.000631650366281562,-9.23712400455924e-06,1.69021681492359e-16,0,0,0.970785628930424
0.43,0.00206346484168836,-2.7249193274972e-05,1.60435490800235e-17,0.000631650369393351,-9.23780836612004e-06,1.69021681492359e-16,0,0,0.970785628930424
0.4325,0.00206504396761962,-2.7272289507175e-05,1.64661032837544e-17,0.000631650372505838,-9.23849288121518e-06,1.69021681492359e-16,0,0,0.970785628930424
0.435,0.00206662309355867,-2.72953874509515e-05,1.68886574874853e-17,0.000631650375618844,-9.23917751058873e-06,1.69021681492359e-16,0,0,0.970785628930424
0.4375,0.0020682022195055,-2.73184871065088e-05,1.71319070321665e-17,0.000631650378732228,-9.23986222292003e-06,1.69021681492359e-16,0,0,1.00117303087199
0.44,0.00206978134546102,-2.73415884739875e-05,1.75544612358974e-17,0.000631650382209049,-9.24054699148379e-06,1.69021681492359e-16,0,0,1.00117303087199
0.4425,0.00207136047142524,-2.73646915537735e-05,1.79770154396283e-17,0.000631650385686655,-9.24123191440611e-06,1.69021681492359e-16,0,0,1.00117303087199
0.445,0.00207293959739815,-2.73877963461547e-05,1.83995696433592e-17,0.000631650389164845,-9.24191695245917e-06,1.69021681492359e-16,0,0,1.00117303087199
0.4475,0.00207451872337976,-2.74109028513406e-05,1.88221238470901e-17,0.00063165039264346,-9.24260207434238e-06,1.69021681492359e-16,0,0,1.03188579783506
0.45,0.00207609784937099,-2.74340110694734e-05,1.9244678050821e-17,0.000631650396489658,-9.24328725312852e-06,1.69021681492359e-16,0,0,1.03188579783506
0.4525,0.00207767697537183,-2.7457121000941e-05,1.96672322545519e-17,0.000631650400336726,-9.24397258705702e-06,1.69021681492359e-16,0,0,1.03188579783506
0.455,0.00207925610138229,-2.74802326460333e-05,2.00897864582828e-17,0.000631650404184446,-9.24465803692771e-06,1.69021681492359e-16,0,0,1.03188579783506
0.4575,0.00208083522740237,-2.7503346004962e-05,2.02978961870548e-17,0.00063165040803264,-9.24534357145979e-06,1.69021681492359e-16,0,0,1.06292651283485
0.46,0.002082414353433,-2.75264610778708e-05,2.07204503907857e-17,0.000631650412252598,-9.24602916351741e-06,1.69021681492359e-16,0,0,1.06292651283485
0.4625,0.00208399347947419,-2.75495778651494e-05,2.11430045945166e-17,0.000631650416473516,-9.24671491146349e-06,1.69021681492359e-16,0,0,1.06292651283485
0.465,0.00208557260552592,-2.75726963670897e-05,2.15655587982475e-17,0.000631650420695153,-9.24740077612503e-06,1.69021681492359e-16,0,0,1.06292651283485
0.4675,0.00208715173158822,-2.75958165839053e-05,2.19881130019784e-17,0.000631650424917315,-9.24808672624082e-06,1.69021681492359e-16,0,0,1.09429745666271
0.47,0.00208873085766201,-2.76189385157415e-05,2.24106672057093e-17,0.000631650429515458,-9.24877273445942e-06,1.69021681492359e-16,0,0,1.09429745666271
0.4725,0.00209030998374729,-2.76420621629897e-05,2.28332214094402e-17,0.00063165043411465,-9.24945889927741e-06,1.69021681492359e-16,0,0,1.09429745666271
0.475,0.00209188910984408,-2.76651875259436e-05,2.32557756131711e-17,0.00063165043871463,-9.25014518154846e-06,1.69021681492359e-16,0,0,1.09429745666271
0.4775,0.00209346823595237,-2.76883146048186e-05,2.34283159473912e-17,0.000631650443315188,-9.25083155003072e-06,1.69021681492359e-16,0,0,1.1260005890874
0.48,0.00209504736207311,-2.77114433997615e-05,2.38508701511221e-17,0.000631650448295974,-9.25151797715015e-06,1.69021681492359e-16,0,0,1.1260005890874
0.4825,0.0020966264882063,-2.77345739111654e-05,2.4273424354853e-17,0.000631650453277901,-9.25220456154695e-06,1.69021681492359e-16,0,0,1.1260005890874
0.485,0.00209820561435195,-2.77577061393256e-05,2.46959785585839e-17,0.000631650458260685,-9.25289126410102e-06,1.69021681492359e-16,0,0,1.1260005890874
0.4875,0.00209978474051006,-2.77808400844596e-05,2.51185327623148e-17,0.0006316504632441,-9.25357805358963e-06,1.69021681492359e-16,0,0,1.15803753266965
0.49,0.00210136386668159,-2.78039757467151e-05,2.55410869660457e-17,0.000631650468612018,-9.25426490220903e-06,1.69021681492359e-16,0,0,1.15803753266965
0.4925,0.00210294299286655,-2.7827113126487e-05,2.59636411697766e-17,0.000631650473981169,-9.25495190875292e-06,1.69021681492359e-16,0,0,1.15803753266965
0.495,0.00210452211906492,-2.78502522240723e-05,2.63861953735075e-17,0.00063165047935125,-9.25563903412703e-06,1.69021681492359e-16,0,0,1.15803753266965
0.4975,0.00326518483101208,-5.31306076525102e-05,1.64063480776849e-16,0.0011943008942097,-2.15168659608709e-05,2.1050901195553e-15,0,0,1.19040955910757
0.5,0.00326817058325528,-5.31844049139771e-05,1.69326206075737e-16,0.00119430089727965,-2.15189045867683e-05,2.1050901195553e-15,0,0,1.19040955910757
0.5025,0.00327115633550615,-5.32382072731845e-05,1.74588931374626e-16,0.00119430090035031,-2.15209436829438e-05,2.1050901195553e-15,0,0,1.19040955910757
0.505,0.00327414208776471,-5.32920147310183e-05,1.79851656673514e-16,0.00119430090342151,-2.15229831335089e-05,2.1050901195553e-15,0,0,1.19040955910757
0.5075,0.00327712784003094,-5.33458272881332e-05,1.85114381972402e-16,0.00119430090649309,-2.15250228459605e-05,2.1050901195553e-15,0,0,1.22311757803333
0.51,0.00328011359230776,-5.33996449449942e-05,1.90377107271291e-16,0.00119430091072947,-2.15270627444032e-05,2.1050901195553e-15,0,0,1.22311757803333
0.5125,0.00328309934459518,-5.34534677027814e-05,1.95639832570179e-16,0.00119430091496682,-2.1529103114879e-05,2.1050901195553e-15,0,0,1.22311757803333
0.515,0.00328608509689319,-5.35072955623853e-05,2.00902557869067e-16,0.00119430091920491,-2.1531143841573e-05,2.1050901195553e-15,0,0,1.22311757803333
0.5175,0.0032890708492018,-5.35611285244654e-05,2.03945494448325e-16,0.00119430092344356,-2.15331848320361e-05,2.1050901195553e-15,0,0,1.25616212818209
0.52,0.00329205660152395,-5.36149665894897e-05,2.09208219747214e-16,0.00119430092885981,-2.15352260097139e-05,2.1050901195553e-15,0,0,1.25616212818209
0.5225,0.00329504235385965,-5.36688097586425e-05,2.14470945046102e-16,0.00119430093427733,-2.15372676611037e-05,2.1050901195553e-15,0,0,1.25616212818209
0.525,0.00329802810620888,-5.37226580328186e-05,2.1973367034499e-16,0.00119430093969579,-2.15393096704634e-05,2.1050901195553e-15,0,0,1.25616212818209
0.5275,0.00330101385857167,-5.37765114126821e-05,2.24996395643878e-16,0.00119430094511496,-2.15413519453973e-05,2.1050901195553e-15,0,0,1.28954337085326
0.53,0.00330399961095098,-5.38303698987038e-05,2.30259120942767e-16,0.0011943009517246,-2.15433944086696e-05,2.1050901195553e-15,0,0,1.28954337085326
0.5325,0.00330698536334682,-5.38842334920719e-05,2.35521846241655e-16,0.00119430095833578,-2.15454373472618e-05,2.1050901195553e-15,0,0,1.28954337085326
0.535,0.00330997111575919,-5.39381021936857e-05,2.40784571540543e-16,0.00119430096494813,-2.15474806455028e-05,2.1050901195553e-15,0,0,1.28954337085326
0.5375,0.0033129568681881,-5.39919760042133e-05,2.43367021572298e-16,0.00119430097156134,-2.154952421105e-05,2.1050901195553e-15,0,0,1.32326108558161
0.54,0.00331594262063654,-5.40458549241282e-05,2.48629746871186e-16,0.0011943009793779,-2.1551567965964e-05,2.1050901195553e-15,0,0,1.32326108558161
0.5425,0.00331892837310453,-5.40997389546226e-05,2.53892472170075e-16,0.00119430098719628,-2.15536121977383e-05,2.1050901195553e-15,0,0,1.32326108558161
0.545,0.00332191412559207,-5.41536280965995e-05,2.59155197468963e-16,0.00119430099501604,-2.15556567907721e-05,2.1050901195553e-15,0,0,1.32326108558161
0.5475,0.00332489987809917,-5.42075223507314e-05,2.64417922767851e-16,0.00119430100283683,-2.15577016527749e-05,2.1050901195553e-15,0,0,1.35731466793258
0.55,0.00332788563062885,-5.42614217174941e-05,2.69680648066739e-16,0.00119430101187384,-2.15597467050815e-05,2.1050901195553e-15,0,0,1.35731466793258
0.5525,0.00333087138318113,-5.43153261980835e-05,2.74943373365628e-16,0.00119430102091297,-2.15617922357253e-05,2.1050901195553e-15,0,0,1.35731466793258
0.555,0.00333385713575602,-5.43692357934064e-05,2.80206098664516e-16,0.00119430102995369,-2.15638381291747e-05,2.1050901195553e-15,0,0,1.35731466793258
0.5575,0.00333684288835351,-5.44231505041394e-05,2.82321077802287e-16,0.00119430103899562,-2.15658842931907e-05,2.1050901195553e-15,0,0,1.3917031293321
0.56,0.00333982864097667,-5.44770703307603e-05,2.87583803101176e-16,0.00119430104926662,-2.15679306483598e-05,2.1050901195553e-15,0,0,1.3917031293321
0.5625,0.00334281439362552,-5.45309952744685e-05,2.92846528400064e-16,0.00119430105954002,-2.15699774832831e-05,2.1050901195553e-15,0,0,1.3917031293321
0.565,0.00334580014630006,-5.45849253361747e-05,2.98109253698952e-16,0.00119430106981526,-2.15720246824968e-05,2.1050901195553e-15,0,0,1.3917031293321
0.5675,0.00334878589900029,-5.46388605165592e-05,3.0337197899784e-16,0.00119430108009186,-2.15740721538133e-05,2.1050901195553e-15,0,0,1.42642509883689
0.57,0.00335177165172932,-5.46928008161019e-05,3.08634704296729e-16,0.00119430109161037,-2.15761198170478e-05,2.1050901195553e-15,0,0,1.42642509883689
0.5725,0.00335475740448714,-5.47467462360054e-05,3.13897429595617e-16,0.00119430110313159,-2.15781679613967e-05,2.1050901195553e-15,0,0,1.42642509883689
0.575,0.00335774315727378,-5.4800696777184e-05,3.19160154894505e-16,0.00119430111465486,-2.15802164714632e-05,2.1050901195553e-15,0,0,1.42642509883689
0.5775,0.00336072891008923,-5.48546524403218e-05,3.20800182994819e-16,0.00119430112617968,-2.15822652551101e-05,2.1050901195553e-15,0,0,1.46147882674673
0.58,0.00336371466293663,-5.49086132259002e-05,3.26062908293707e-16,0.00119430113895919,-2.15843142313591e-05,2.1050901195553e-15,0,0,1.46147882674673
0.5825,0.00336670041581598,-5.49625791351253e-05,3.31325633592596e-16,0.00119430115174171,-2.15863636900287e-05,2.1050901195553e-15,0,0,1.46147882674673
0.585,0.0033696861687273,-5.50165501689147e-05,3.36588358891484e-16,0.00119430116452651,-2.15884135157887e-05,2.1050901195553e-15,0,0,1.46147882674673
0.5875,0.00337267192167058,-5.50705263279561e-05,3.41851084190372e-16,0.00119430117731304,-2.15904636165513e-05,2.1050901195553e-15,0,0,1.49686218995605
0.59,0.003375657674649,-5.51245076127324e-05,3.47113809489261e-16,0.00119430119136699,-2.1592513910522e-05,2.1050901195553e-15,0,0,1.49686218995605
0.5925,0.00337864342766256,-5.51784940244528e-05,3.52376534788149e-16,0.00119430120542426,-2.15945646881689e-05,2.1050901195553e-15,0,0,1.49686218995605
0.595,0.00338162918071127,-5.52324855640384e-05,3.57639260087037e-16,0.00119430121948406,-2.15966158342268e-05,2.1050901195553e-15,0,0,1.49686218995605
0.5975,0.00491988872430417,-9.55241077567125e-05,1.52074829215176e-15,0.00203398404519354,-4.36057379924062e-05,1.6210087360691e-14,0,0,1.53257269893782
0.6,0.0049249736844355,-9.56331346450192e-05,1.56127351055349e-15,0.00203398405252981,-4.36107553226539e-05,1.6210087360691e-14,0,0,1.53257269893782
0.6025,0.00493005864458517,-9.57421740796159e-05,1.60179872895522e-15,0.00203398405986781,-4.36157738387081e-05,1.6210087360691e-14,0,0,1.53257269893782
0.605,0.00493514360475318,-9.5851226062763e-05,1.64232394735695e-15,0.00203398406720713,-4.36207932588394e-05,1.6210087360691e-14,0,0,1.53257269893782
0.6075,0.00494022856493955,-9.59602905961582e-05,1.68284916575867e-15,0.00203398407454744,-4.3625813358082e-05,1.6210087360691e-14,0,0,1.56860750624907
0.61,0.00494531352515217,-9.60693676810363e-05,1.7233743841604e-15,0.00203398408504607,-4.36308339512399e-05,1.6210087360691e-14,0,0,1.56860750624907
0.6125,0.00495039848539104,-9.6178457320369e-05,1.76389960256213e-15,0.00203398409554718,-4.36358557330489e-05,1.6210087360691e-14,0,0,1.56860750624907
0.615,0.00495548344565616,-9.62875595164238e-05,1.80442482096386e-15,0.00203398410605019,-4.36408784219336e-05,1.6210087360691e-14,0,0,1.56860750624907
0.6175,0.00496056840594755,-9.63966742709064e-05,1.82384298107667e-15,0.00203398411655463,-4.36459017930449e-05,1.6210087360691e-14,0,0,1.60496341644435
0.62,0.00496565336627317,-9.65058015850544e-05,1.86436819947839e-15,0.00203398413024791,-4.36509256592064e-05,1.6210087360691e-14,0,0,1.60496341644435
0.6225,0.00497073832663303,-9.66149414618463e-05,1.90489341788012e-15,0.00203398414394444,-4.36559507167569e-05,1.6210087360691e-14,0,0,1.60496341644435
0.625,0.00497582328702714,-9.6724093903557e-05,1.94541863628185e-15,0.00203398415764345,-4.36609766842732e-05,1.6210087360691e-14,0,0,1.60496341644435
0.6275,0.0049809082474555,-9.68332589118996e-05,1.98594385468358e-15,0.00203398417134433,-4.36660033370216e-05,1.6210087360691e-14,0,0,1.64163689728072
0.63,0.00498599320792616,-9.6942436488114e-05,2.0264690730853e-15,0.00203398418826433,-4.36710304857889e-05,1.6210087360691e-14,0,0,1.64163689728072
0.6325,0.00499107816843913,-9.70516266351855e-05,2.06699429148703e-15,0.00203398420518835,-4.36760588285819e-05,1.6210087360691e-14,0,0,1.64163689728072
0.635,0.00499616312899442,-9.71608293553958e-05,2.10751950988876e-15,0.00203398422211544,-4.36810880841276e-05,1.6210087360691e-14,0,0,1.64163689728072
0.6375,0.00500124808959203,-9.72700446504653e-05,2.12312864784583e-15,0.00203398423904484,-4.36861180278061e-05,1.6210087360691e-14,0,0,1.67862409209585
0.64,0.00500633305024009,-9.73792725216361e-05,2.16365386624756e-15,0.00203398425922336,-4.36911484683122e-05,1.6210087360691e-14,0,0,1.67862409209585
0.6425,0.00501141801093861,-9.74885129718996e-05,2.20417908464928e-15,0.00203398427940667,-4.36961801053842e-05,1.6210087360691e-14,0,0,1.67862409209585
0.645,0.00501650297168759,-9.75977660035443e-05,2.24470430305101e-15,0.00203398429959366,-4.37012126578972e-05,1.6210087360691e-14,0,0,1.67862409209585
0.6475,0.00502158793248705,-9.77070316182977e-05,2.28522952145274e-15,0.00203398431978341,-4.37062459013443e-05,1.6210087360691e-14,0,0,1.71592083323989
0.65,0.00502667289334518,-9.78163098174034e-05,2.32575473985447e-15,0.00203398434325195,-4.37112796422727e-05,1.6210087360691e-14,0,0,1.71592083323989
0.6525,0.00503175785426199,-9.79256006038589e-05,2.36627995825619e-15,0.00203398436672607,-4.37163145822152e-05,1.6210087360691e-14,0,0,1.71592083323989
0.655,0.00503684281523751,-9.80349039799594e-05,2.40680517665792e-15,0.00203398439020447,-4.37213504401934e-05,1.6210087360691e-14,0,0,1.71592083323989
0.6575,0.00504192777627172,-9.81442199474389e-05,2.41853928175782e-15,0.0020339844136861,-4.37263869918122e-05,1.6210087360691e-14,0,0,1.75352265644116
0.66,0.00504701273737291,-9.82535485075424e-05,2.45906450015955e-15,0.00203398444047583,-4.37314240414161e-05,1.6210087360691e-14,0,0,1.75352265644116
0.6625,0.00505209769854109,-9.83628896632734e-05,2.49958971856127e-15,0.00203398446727195,-4.37364622923949e-05,1.6210087360691e-14,0,0,1.75352265644116
0.665,0.00505718265977627,-9.84722434169332e-05,2.540114936963e-15,0.00203398449407297,-4.37415014639148e-05,1.6210087360691e-14,0,0,1.75352265644116
0.6675,0.00506226762107847,-9.85816097702625e-05,2.58064015536473e-15,0.00203398452087768,-4.3746541331691e-05,1.6210087360691e-14,0,0,1.79142481598599
0.67,0.00506735258245602,-9.8690988724507e-05,2.62116537376646e-15,0.00203398455101945,-4.37515816978116e-05,1.6210087360691e-14,0,0,1.79142481598599
0.6725,0.00507243754390894,-9.88003802826759e-05,2.66169059216818e-15,0.00203398458116841,-4.37566232675843e-05,1.6210087360691e-14,0,0,1.79142481598599
0.675,0.00507752250543724,-9.89097844470767e-05,2.70221581056991e-15,0.00203398461132289,-4.3761665760318e-05,1.6210087360691e-14,0,0,1.79142481598599
0.6775,0.00508260746704095,-9.90192012194563e-05,2.710006902098e-15,0.00203398464148155,-4.37667089518374e-05,1.6210087360691e-14,0,0,1.82962230059444
0.68,0.00508769242872846,-9.91286306010611e-05,2.75053212049973e-15,0.00203398467500581,-4.37717526419207e-05,1.6210087360691e-14,0,0,1.82962230059444
0.6825,0.00509277739049981,-9.92380725949058e-05,2.79105733890146e-15,0.00203398470853808,-4.37767975378536e-05,1.6210087360691e-14,0,0,1.82962230059444
0.685,0.005097862352355,-9.93475272033035e-05,2.83158255730319e-15,0.00203398474207651,-4.3781843359086e-05,1.6210087360691e-14,0,0,1.82962230059444
0.6875,0.00510294731429405,-9.94569944280074e-05,2.87210777570492e-15,0.00203398477561959,-4.37868898815508e-05,1.6210087360691e-14,0,0,1.86810984987503
0.69,0.00510803227632544,-9.9566474270264e-05,2.91263299410664e-15,0.00203398481255641,-4.37919369026641e-05,1.6210087360691e-14,0,0,1.86810984987503
0.6925,0.00511311723844919,-9.96759667330934e-05,2.95315821250837e-15,0.00203398484950208,-4.37969851317479e-05,1.6210087360691e-14,0,0,1.86810984987503
0.695,0.00511820220066533,-9.97854718188144e-05,2.9936834309101e-15,0.00203398488645453,-4.3802034288392e-05,1.6210087360691e-14,0,0,1.86810984987503
0.6975,0.00711939892213329,-0.000161068655612392,9.96368471934223e-15,0.00321550748524852,-8.00165696245275e-05,9.04696452800528e-14,0,0,1.90688197124454
0.7,0.00712743769090994,-0.000161268724030075,1.01898588325424e-14,0.00321550751066019,-8.00273670732515e-05,9.04696452800528e-14,0,0,1.90688197124454
0.7025,0.00713547645975013,-0.000161468819447847,1.04160329457425e-14,0.00321550753607796,-8.00381671089434e-05,9.04696452800528e-14,0,0,1.90688197124454
0.705,0.00714351522865388,-0.000161668941870678,1.06422070589426e-14,0.00321550756150039,-8.00489691323932e-05,9.04696452800528e-14,0,0,1.90688197124454
0.7075,0.0071515539976212,-0.000161869091302341,1.08683811721428e-14,0.00321550758692638,-8.00597726650106e-05,9.04696452800528e-14,0,0,1.9459329572019
0.71,0.0071595927666705,-0.000162069267745603,1.10945552853429e-14,0.00321550761971913,-8.00705773047972e-05,9.04696452800528e-14,0,0,1.9459329572019
0.7125,0.0071676315358018,-0.000162269471206942,1.1320729398543e-14,0.00321550765251974,-8.00813845357914e-05,9.04696452800528e-14,0,0,1.9459329572019
0.715,0.00717567030501511,-0.00016246970169134,1.15469035117431e-14,0.00321550768532639,-8.00921937590731e-05,9.04696452800528e-14,0,0,1.9459329572019
0.7175,0.00718370907431046,-0.00016266995920258,1.16287097758746e-14,0.00321550771813764,-8.01030044962747e-05,9.04696452800528e-14,0,0,1.9852569028492
0.72,0.00719174784370639,-0.000162870243743431,1.18548838890747e-14,0.00321550775837284,-8.01138163403398e-05,9.04696452800528e-14,0,0,1.9852569028492
0.7225,0.00719978661320293,-0.00016307055532038,1.20810580022748e-14,0.0032155077986177,-8.01246307797097e-05,9.04696452800528e-14,0,0,1.9852569028492
0.725,0.00720782538280011,-0.00016327089393842,1.2307232115475e-14,0.00321550783886999,-8.01354472157508e-05,9.04696452800528e-14,0,0,1.9852569028492
0.7275,0.00721586415249793,-0.000163471259601346,1.25334062286751e-14,0.00321550787912793,-8.01462651703161e-05,9.04696452800528e-14,0,0,2.02484772355704
0.73,0.00722390292231509,-0.000163671652311924,1.27595803418752e-14,0.00321550792686597,-8.01570842311821e-05,9.04696452800528e-14,0,0,2.02484772355704
0.7325,0.00723194169225163,-0.000163872072076652,1.29857544550754e-14,0.00321550797461548,-8.01679058913134e-05,9.04696452800528e-14,0,0,2.02484772355704
0.735,0.00723998046230756,-0.000164072518900533,1.32119285682755e-14,0.00321550802237382,-8.01787295523599e-05,9.04696452800528e-14,0,0,2.02484772355704
0.7375,0.00724801923248291,-0.000164272992787374,1.32708184060162e-14,0.00321550807013887,-8.01895547363932e-05,9.04696452800528e-14,0,0,2.06469917267652
0.74,0.00725605800279651,-0.000164473493739939,1.34969925192164e-14,0.00321550812543908,-8.02003810259155e-05,9.04696452800528e-14,0,0,2.06469917267652
0.7425,0.00726409677324839,-0.000164674021764735,1.37231666324165e-14,0.00321550818075258,-8.02112099185328e-05,9.04696452800528e-14,0,0,2.06469917267652
0.745,0.00727213554383858,-0.000164874576866775,1.39493407456166e-14,0.00321550823607632,-8.02220408161754e-05,9.04696452800528e-14,0,0,2.06469917267652
0.7475,0.0072801743145671,-0.000165075159049878,1.41755148588168e-14,0.00321550829140786,-8.02328732411314e-05,9.04696452800528e-14,0,0,2.10480485920529
0.75,0.00728821308545292,-0.000165275768316804,1.44016889720169e-14,0.00321550835432848,-8.02437067705245e-05,9.04696452800528e-14,0,0,2.10480485920529
0.7525,0.00729625185649608,-0.000165476404674071,1.4627863085217e-14,0.00321550841726424,-8.02545429067164e-05,9.04696452800528e-14,0,0,2.10480485920529
0.755,0.00730429062769661,-0.000165677068126701,1.48540371984172e-14,0.00321550848021166,-8.02653810519153e-05,9.04696452800528e-14,0,0,2.10480485920529
0.7575,0.00731232939905453,-0.000165877758678523,1.48896106508612e-14,0.00321550854316798,-8.0276220728624e-05,9.04696452800528e-14,0,0,2.14515826532095
0.76,0.00732036817058895,-0.000166078476332294,1.51157847640614e-14,0.00321550861376614,-8.02870615084856e-05,9.04696452800528e-14,0,0,2.14515826532095
0.7625,0.0073284069422999,-0.000166279221094541,1.53419588772615e-14,0.00321550868438131,-8.02979048987294e-05,9.04696452800528e-14,0,0,2.14515826532095
0.765,0.00733644571418742,-0.000166479992970295,1.55681329904616e-14,0.00321550875500958,-8.03087503018385e-05,9.04696452800528e-14,0,0,2.14515826532095
0.7675,0.00734448448625154,-0.000166680791963397,1.57943071036618e-14,0.00321550882564786,-8.03195972405284e-05,9.04696452800528e-14,0,0,2.18575276370082
0.77,0.00735252325851149,-0.000166881618076599,1.60204812168619e-14,0.00321550890397958,-8.03304452808632e-05,9.04696452800528e-14,0,0,2.18575276370082
0.7725,0.00736056203096732,-0.000167082471316436,1.6246655330062e-14,0.00321550898233018,-8.03412959350477e-05,9.04696452800528e-14,0,0,2.18575276370082
0.775,0.00736860080361906,-0.000167283351687951,1.64728294432622e-14,0.00321550906069534,-8.03521486058374e-05,9.04696452800528e-14,0,0,2.18575276370082
0.7775,0.00737663957646674,-0.000167484259194991,1.64846863849134e-14,0.00321550913907161,-8.03630028161587e-05,9.04696452800528e-14,0,0,2.22658163455354
0.78,0.00738467834952971,-0.000167685193840307,1.67108604981135e-14,0.00321550922519174,-8.03738581264006e-05,9.04696452800528e-14,0,0,2.22658163455354
0.7825,0.00739271712280805,-0.000167886155630442,1.69370346113136e-14,0.00321550931133263,-8.03847160538485e-05,9.04696452800528e-14,0,0,2.22658163455354
0.785,0.00740075589630177,-0.000168087144570446,1.71632087245138e-14,0.00321550939748955,-8.03955760015276e-05,9.04696452800528e-14,0,0,2.22658163455354
0.7875,0.00740879467001092,-0.000168288160664177,1.73893828377139e-14,0.00321550948365871,-8.04064374925738e-05,9.04696452800528e-14,0,0,2.26763808229401
0.79,0.00741683344395497,-0.000168489203914381,1.7615556950914e-14,0.00321550957762092,-8.04173000816076e-05,9.04696452800528e-14,0,0,2.26763808229401
0.7925,0.00742487221813398,-0.000168690274327609,1.78417310641142e-14,0.0032155096716058,-8.04281652910968e-05,9.04696452800528e-14,0,0,2.26763808229401
0.795,0.007432910992548,-0.00016889137190892,1.80679051773143e-14,0.00321550976560818,-8.04390325243339e-05,9.04696452800528e-14,0,0,2.26763808229401
0.7975,0.00999956190529731,-0.000258917881307371,5.06195372511702e-14,0.00480703009293071,-0.000136323623028185,4.00288328309918e-13,0,0,2.30891525179982
0.8,0.0100115794807345,-0.00025925874297488,5.1620258071945e-14,0.00480703017489253,-0.000136344667003766,4.00288328309918e-13,0,0,2.30891525179982
0.8025,0.0100235970563767,-0.000259599657265027,5.26209788927198e-14,0.00480703025687413,-0.000136365716058615,4.00288328309918e-13,0,0,2.30891525179982
0.805,0.0100356146322239,-0.000259940624187622,5.36216997134946e-14,0.00480703033887101,-0.000136386769038024,4.00288328309918e-13,0,0,2.30891525179982
0.8075,0.0100476322082761,-0.000260281643750171,5.46224205342694e-14,0.00480703042087957,-0.00013640782501959,4.00288328309918e-13,0,0,2.35040624419366
0.81,0.0100596497845715,-0.000260622715958175,5.56231413550442e-14,0.00480703051814635,-0.000136428883201715,4.00288328309918e-13,0,0,2.35040624419366
0.8125,0.0100716673611101,-0.000260963840824348,5.6623862175819e-14,0.00480703061543661,-0.000136449946469029,4.00288328309918e-13,0,0,2.35040624419366
0.815,0.0100836849378919,-0.000261305018358516,5.76245829965938e-14,0.00480703071274502,-0.000136471013667327,4.00288328309918e-13,0,0,2.35040624419366
0.8175,0.0100957025149171,-0.000261646248568203,5.78513187774063e-14,0.00480703081006732,-0.000136492083874597,4.00288328309918e-13,0,0,2.39210413210267
0.82,0.0101077200922239,-0.000261987531458898,5.8852039598181e-14,0.00480703092273591,-0.000136513156278043,4.00288328309918e-13,0,0,2.39210413210267
0.8225,0.0101197376698125,-0.000262328867043329,5.98527604189558e-14,0.00480703103543171,-0.000136534233772412,4.00288328309918e-13,0,0,2.39210413210267
0.825,0.0101317552476829,-0.000262670255331339,6.08534812397306e-14,0.00480703114814856,-0.000136555315204002,4.00288328309918e-13,0,0,2.39210413210267
0.8275,0.0101437728258351,-0.000263011696330467,6.18542020605054e-14,0.00480703126088152,-0.000136576399651187,4.00288328309918e-13,0,0,2.43400197435182
0.83,0.0101557904043077,-0.000263353190046191,6.28549228812802e-14,0.00480703138904641,-0.000136597486289804,4.00288328309918e-13,0,0,2.43400197435182
0.8325,0.0101678079831008,-0.000263694736491253,6.3855643702055e-14,0.00480703151724227,-0.000136618578024903,4.00288328309918e-13,0,0,2.43400197435182
0.835,0.0101798255622145,-0.000264036335675512,6.48563645228298e-14,0.00480703164546209,-0.000136639673703276,4.00288328309918e-13,0,0,2.43400197435182
0.8375,0.0101918431416487,-0.000264377987606521,6.49740288281827e-14,0.00480703177370027,-0.000136660772403683,4.00288328309918e-13,0,0,2.47609283005494
0.84,0.0102038607214423,-0.000264719692289747,6.59747496489575e-14,0.00480703191745359,-0.000136681873290432,4.00288328309918e-13,0,0,2.47609283005494
0.8425,0.0102158783015955,-0.000265061449737944,6.69754704697323e-14,0.00480703206124166,-0.00013670297927905,4.00288328309918e-13,0,0,2.47609283005494
0.845,0.0102278958821081,-0.000265403259960986,6.79761912905071e-14,0.00480703220505663,-0.00013672408921682,4.00288328309918e-13,0,0,2.47609283005494
0.8475,0.0102399134629803,-0.000265745122966444,6.89769121112819e-14,0.00480703234889223,-0.000136745202182885,4.00288328309918e-13,0,0,2.51836977207263
0.85,0.0102519310442511,-0.000266087038759768,6.99776329320567e-14,0.00480703250832375,-0.000136766317329867,4.00288328309918e-13,0,0,2.51836977207263
0.8525,0.0102639486259206,-0.000266429007353728,7.09783537528315e-14,0.00480703266779382,-0.00013678743758394,4.00288328309918e-13,0,0,2.51836977207263
0.855,0.0102759662079889,-0.00026677102875821,7.19790745736062e-14,0.00480703282729375,-0.000136808561792876,4.00288328309918e-13,0,0,2.51836977207263
0.8575,0.0102879837904559,-0.000267113102980801,7.19859273909647e-14,0.00480703298681659,-0.000136829689036195,4.00288328309918e-13,0,0,2.56082589981234
0.86,0.0103000013733609,-0.000267455230026938,7.29866482117394e-14,0.0048070331620137,-0.000136850818454687,4.00288328309918e-13,0,0,2.56082589981234
0.8625,0.0103120189567041,-0.000267797409909401,7.39873690325142e-14,0.0048070333372532,-0.000136871952985332,4.00288328309918e-13,0,0,2.56082589981234
0.865,0.0103240365404854,-0.000268139642638092,7.4988089853289e-14,0.00480703351252553,-0.000136893091476386,4.00288328309918e-13,0,0,2.56082589981234
0.8675,0.0103360541247049,-0.000268481928220611,7.59888106740638e-14,0.00480703368782306,-0.000136914233007748,4.00288328309918e-13,0,0,2.60345435135135
0.87,0.0103480717094021,-0.000268824266662382,7.69895314948386e-14,0.00480703387887081,-0.000136935376708229,4.00288328309918e-13,0,0,2.60345435135135
0.8725,0.010360089294577,-0.000269166657976196,7.79902523156134e-14,0.00480703406996478,-0.000136956525525773,4.00288328309918e-13,0,0,2.60345435135135
0.875,0.0103721068802298,-0.000269509102171969,7.89909731363882e-14,0.00480703426109459,-0.000136977678309115,4.00288328309918e-13,0,0,2.60345435135135
0.8775,0.0103841244663604,-0.000269851599257315,7.88853206164953e-14,0.0048070344522519,-0.000136998834138528,4.00288328309918e-13,0,0,2.6462483148685
0.88,0.0103961420530085,-0.000270194149237642,7.98860414372701e-14,0.00480703465923297,-0.00013701999213071,4.00288328309918e-13,0,0,2.6462483148685
0.8825,0.0104081596401741,-0.000270536752125754,8.08867622580449e-14,0.00480703486626413,-0.000137041155244718,4.00288328309918e-13,0,0,2.6462483148685
0.885,0.0104201772278575,-0.000270879407931578,8.18874830788197e-14,0.00480703507333413,-0.00013706232232976,4.00288328309918e-13,0,0,2.6462483148685
0.8875,0.0104321948160586,-0.000271222116662745,8.28882038995945e-14,0.00480703528043398,-0.000137083492466483,4.00288328309918e-13,0,0,2.68920103937572
0.89,0.0104442124048171,-0.000271564878324643,8.38889247203693e-14,0.00480703550342871,-0.000137104664759343,4.00288328309918e-13,0,0,2.68920103937572
0.8925,0.0104562299941333,-0.000271907692930089,8.48896455411441e-14,0.00480703572647743,-0.000137125842178645,4.00288328309918e-13,0,0,2.68920103937572
0.895,0.0104682475840072,-0.000272250560489025,8.58903663619188e-14,0.00480703594956802,-0.000137147023574073,4.00288328309918e-13,0,0,2.68920103937572
0.8975,0.0137201751891733,-0.000400875284177374,2.11618711529941e-13,0.006879404065369,-0.000219222199236648,1.48477393504032e-12,0,0,2.73230584474484
0.9,0.0137373736998948,-0.0004014234346661,2.15330646367542e-13,0.00687940428859303,-0.000219260195490455,1.48477393504032e-12,0,0,2.73230584474484
0.9025,0.0137545722111745,-0.000401971680168465,2.19042581205142e-13,0.00687940451187109,-0.000219298200946106,1.48477393504032e-12,0,0,2.73230584474484
0.905,0.0137717707230124,-0.000402520020702319,2.22754516042743e-13,0.00687940473519108,-0.000219336213541453,1.48477393504032e-12,0,0,2.73230584474484
0.9075,0.0137889692354088,-0.000403068456281391,2.26466450880344e-13,0.00687940495854332,-0.000219374231629039,1.48477393504032e-12,0,0,2.77555613102938
0.91,0.0138061677484354,-0.000403616986915675,2.30178385717945e-13,0.00687940521062149,-0.000219412253713498,1.48477393504032e-12,0,0,2.77555613102938
0.9125,0.0138233662620923,-0.000404165612628194,2.33890320555546e-13,0.0068794054627607,-0.000219450285007633,1.48477393504032e-12,0,0,2.77555613102938
0.915,0.0138405647763796,-0.00040471433343682,2.37602255393147e-13,0.00687940571494728,-0.000219488323450123,1.48477393504032e-12,0,0,2.77555613102938
0.9175,0.0138577632912975,-0.000405263149355305,2.37881522059833e-13,0.00687940596717032,-0.000219526367394157,1.48477393504032e-12,0,0,2.81894538708531
0.92,0.0138749618069181,-0.000405812060393611,2.41593456897434e-13,0.0068794062482343,-0.00021956441532239,1.48477393504032e-12,0,0,2.81894538708531
0.9225,0.0138921603232415,-0.000406361066574781,2.45305391735035e-13,0.00687940652936635,-0.000219602472467898,1.48477393504032e-12,0,0,2.81894538708531
0.925,0.0139093588402679,-0.000406910167916706,2.49017326572636e-13,0.00687940681055125,-0.000219640536770183,1.48477393504032e-12,0,0,2.81894538708531
0.9275,0.0139265573579974,-0.000407459364433164,2.52729261410236e-13,0.00687940709177684,-0.000219678606583075,1.48477393504032e-12,0,0,2.86246719849793
0.93,0.0139437558765023,-0.000408008656134081,2.56441196247837e-13,0.00687940740195428,-0.00021971668036704,1.48477393504032e-12,0,0,2.86246719849793
0.9325,0.0139609543957828,-0.000408558043042521,2.60153131085438e-13,0.00687940771220686,-0.000219754763375657,1.48477393504032e-12,0,0,2.86246719849793
0.935,0.0139781529158391,-0.000409107525176394,2.63865065923039e-13,0.00687940802251779,-0.000219792853549241,1.48477393504032e-12,0,0,2.86246719849793
0.9375,0.0139953514366712,-0.000409657102549499,2.63711913900774e-13,0.00687940833287366,-0.000219830949242264,1.48477393504032e-12,0,0,2.90611525482572
0.94,0.014012549958352,-0.000410206775171731,2.67423848738375e-13,0.00687940867228826,-0.000219869048892802,1.48477393504032e-12,0,0,2.90611525482572
0.9425,0.0140297484808814,-0.000410756543066169,2.71135783575975e-13,0.00687940901178509,-0.000219907157775151,1.48477393504032e-12,0,0,2.90611525482572
0.945,0.0140469470042598,-0.000411306406250745,2.74847718413576e-13,0.00687940935134579,-0.000219945273830437,1.48477393504032e-12,0,0,2.90611525482572
0.9475,0.0140641455284872,-0.00041185636473928,2.78559653251177e-13,0.00687940969095573,-0.000219983395413765,1.48477393504032e-12,0,0,2.94988335617447
0.95,0.0140813440536365,-0.000412406418541631,2.82271588088778e-13,0.00687941005972728,-0.00022002152094064,1.48477393504032e-12,0,0,2.94988335617447
0.9525,0.014098542579708,-0.000412956567680897,2.85983522926379e-13,0.00687941042858817,-0.000220059655706274,1.48477393504032e-12,0,0,2.94988335617447
0.955,0.0141157411067018,-0.000413506812175029,2.89695457763979e-13,0.00687941079751849,-0.000220097797652599,1.48477393504032e-12,0,0,2.94988335617447
0.9575,0.014132939634618,-0.000414057152037867,2.8910414379857e-13,0.00687941116650235,-0.000220135945135352,1.48477393504032e-12,0,0,2.99376541911803
0.96,0.0141501381635299,-0.000414607587279235,2.9281607863617e-13,0.00687941156474679,-0.000220174096547287,1.48477393504032e-12,0,0,2.99376541911803
0.9625,0.0141673366934376,-0.000415158117922247,2.96528013473771e-13,0.00687941196308773,-0.000220212257204728,1.48477393504032e-12,0,0,2.99376541911803
0.965,0.0141845352243414,-0.000415708743984873,3.00239948311372e-13,0.00687941236150368,-0.000220250425050405,1.48477393504032e-12,0,0,2.99376541911803
0.9675,0.0142017337562413,-0.000416259465480975,3.03951883148973e-13,0.00687941275997748,-0.000220288598440683,1.48477393504032e-12,0,0,3.03775548198403
0.97,0.0142189322892108,-0.000416810282420338,3.07663817986574e-13,0.00687941318780701,-0.000220326775745404,1.48477393504032e-12,0,0,3.03775548198403
0.9725,0.0142361308232502,-0.000417361194826094,3.11375752824174e-13,0.00687941361574019,-0.000220364962302178,1.48477393504032e-12,0,0,3.03775548198403
0.975,0.0142533293583596,-0.00041791220271623,3.15087687661775e-13,0.00687941404375399,-0.000220403156054532,1.48477393504032e-12,0,0,3.03775548198403
0.9775,0.0142705278945391,-0.000418463306104629,3.14052795491011e-13,0.00687941447182999,-0.000220441355359454,1.48477393504032e-12,0,0,3.0818477095248
0.98,0.0142877264318625,-0.000419014505001038,3.17764730328611e-13,0.00687941492935308,-0.00022047955856372,1.48477393504032e-12,0,0,3.0818477095248
0.9825,0.01430492497033,-0.000419565799428604,3.21476665166212e-13,0.00687941538698702,-0.000220517771026398,1.48477393504032e-12,0,0,3.0818477095248
0.985,0.0143221235099418,-0.000420117189405334,3.25188600003813e-13,0.0068794158447072,-0.000220555990691803,1.48477393504032e-12,0,0,3.0818477095248
0.9875,0.014339322050698,-0.000420668674945127,3.28900534841414e-13,0.00687941630249395,-0.000220594215917544,1.48477393504032e-12,0,0,3.12603639699567
0.99,0.0143565205926725,-0.000421220256057695,3.32612469679015e-13,0.00687941678981544,-0.000220632445027188,1.48477393504032e-12,0,0,3.12603639699567
0.9925,0.0143737191358657,-0.000421771932766199,3.36324404516616e-13,0.00687941727725502,-0.000220670683401415,1.48477393504032e-12,0,0,3.12603639699567
0.995,0.0143909176802776,-0.000422323705088662,3.40036339354216e-13,0.00687941776478648,-0.000220708928985327,1.48477393504032e-12,0,0,3.12603639699567
0.9975,0.0184650124302414,-0.000601831888532427,7.58004591773904e-13,0.0095053972065311,-0.00033658350360152,4.79226015114765e-12,0,0,3.17031597366391
1,0.0184887759245689,-0.000602673508659556,7.69985242151773e-13,0.00950539773100835,-0.000336648050851428,4.79226015114765e-12,0,0,3.17031597366391
1.0025,0.0185125394202079,-0.000603515290193914,7.81965892529642e-13,0.00950539825561265,-0.000336712613743469,4.79226015114765e-12,0,0,3.17031597366391
1.005,0.0185363029171587,-0.000604357233165944,7.93946542907511e-13,0.00950539878031584,-0.000336777188811756,4.79226015114765e-12,0,0,3.17031597366391
1.0075,0.0185600664154215,-0.000605199337599161,8.05927193285381e-13,0.00950539930509543,-0.00033684177328718,4.79226015114765e-12,0,0,3.21468100577266
1.01,0.0185838299151213,-0.000606041603510491,8.1790784366325e-13,0.00950539987994761,-0.000336906364531952,4.79226015114765e-12,0,0,3.21468100577266
1.0125,0.0186075934162587,-0.000606884030939063,8.29888494041119e-13,0.00950540045493905,-0.000336970971428742,4.79226015114765e-12,0,0,3.21468100577266
1.015,0.0186313569188338,-0.000607726619915346,8.41869144418988e-13,0.0095054010300389,-0.000337035590512956,4.79226015114765e-12,0,0,3.21468100577266
1.0175,0.0186551204228468,-0.000608569370462887,8.40791001454173e-13,0.00950540160522252,-0.000337100219016505,4.79226015114765e-12,0,0,3.25912619898541
1.02,0.0186788839284233,-0.000609412282598543,8.52771651832043e-13,0.00950540223060895,-0.000337164854262476,4.79226015114765e-12,0,0,3.25912619898541
1.0225,0.0187026474355637,-0.000610255356361468,8.64752302209912e-13,0.00950540285614686,-0.000337229505170063,4.79226015114765e-12,0,0,3.25912619898541
1.025,0.0187264109442682,-0.000611098591782158,8.76732952587781e-13,0.00950540348180274,-0.000337294168275962,4.79226015114765e-12,0,0,3.25912619898541
1.0275,0.0187501744545371,-0.000611941988884191,8.8871360296565e-13,0.00950540410754982,-0.000337358840813095,4.79226015114765e-12,0,0,3.30364640033668
1.03,0.0187739379664962,-0.000612785547684354,9.00694253343519e-13,0.00950540478362425,-0.00033742352006522,4.79226015114765e-12,0,0,3.30364640033668
1.0325,0.0187977014801458,-0.000613629268221825,9.12674903721388e-13,0.00950540545986242,-0.000337488214988283,4.79226015114765e-12,0,0,3.30364640033668
1.035,0.0188214649954864,-0.000614473150527125,9.24655554099258e-13,0.00950540613622816,-0.00033755292212026,4.79226015114765e-12,0,0,3.30364640033668
1.0375,0.0188452285125181,-0.000615317194623863,9.22099495385809e-13,0.00950540681269254,-0.000337617638695084,4.79226015114765e-12,0,0,3.34823659971532
1.04,0.0188689920313671,-0.000616161400528756,9.34080145763678e-13,0.0095054075396033,-0.000337682361956987,4.79226015114765e-12,0,0,3.34823659971532
1.0425,0.0188927555520338,-0.000617005768281003,9.46060796141547e-13,0.0095054082666901,-0.00033774710089888,4.79226015114765e-12,0,0,3.34823659971532
1.045,0.0189165190745186,-0.000617850297911153,9.58041446519416e-13,0.00950540899391408,-0.000337811852060016,4.79226015114765e-12,0,0,3.34823659971532
1.0475,0.0189402825988217,-0.000618694989442841,9.70022096897285e-13,0.00950540972124419,-0.000337876612675331,4.79226015114765e-12,0,0,3.39289193090688
1.05,0.0189640461250696,-0.000619539842892714,9.82002747275154e-13,0.00950541049913432,-0.000337941379949354,4.79226015114765e-12,0,0,3.39289193090688
1.0525,0.0189878096532626,-0.000620384858299995,9.93983397653024e-13,0.00950541127721284,-0.00033800616291216,4.79226015114765e-12,0,0,3.39289193090688
1.055,0.0190115731834012,-0.000621230035695255,1.00596404803089e-12,0.00950541205543818,-0.000338070958104269,4.79226015114765e-12,0,0,3.39289193090688
1.0575,0.0190353367154856,-0.000622075375102159,1.00191551075059e-12,0.00950541283377714,-0.000338135762761616,4.79226015114765e-12,0,0,3.43760767222165
1.06,0.0190591002496426,-0.000622920876537282,1.01389616112845e-12,0.00950541366278458,-0.000338200574048865,4.79226015114765e-12,0,0,3.43760767222165
1.0625,0.0190828637858726,-0.000623766540039865,1.02587681150632e-12,0.00950541449199276,-0.000338265401033437,4.79226015114765e-12,0,0,3.43760767222165
1.065,0.019106627324176,-0.000624612365640508,1.03785746188419e-12,0.00950541532135743,-0.000338330240257114,4.79226015114765e-12,0,0,3.43760767222165
1.0675,0.0191303908645531,-0.0006254583533629,1.04983811226206e-12,0.00950541615084325,-0.000338395088956821,4.79226015114765e-12,0,0,3.48237924673453
1.07,0.0191541544071308,-0.000626304503223543,1.06181876263993e-12,0.00950541703110093,-0.000338459944257214,4.79226015114765e-12,0,0,3.48237924673453
1.0725,0.0191779179519098,-0.000627150815261701,1.0737994130178e-12,0.00950541791157172,-0.000338524815263222,4.79226015114765e-12,0,0,3.48237924673453
