time,px,py,pz,vx,vy,vz,roll,pitch,yaw
0,0,0,0,0,0,0,0,0,0
0.0025,0,0,0,0,0,0,0,0,0
0.005,0,0,0,0,0,0,0,0,0
0.0075,0,0,0,0,0,0,0,0,6.23444689005052e-05
0.01,0,0,0,0,0,0,0,0,6.23444689005052e-05
0.0125,0,0,0,0,0,0,0,0,6.23444689005052e-05
0.015,0,0,0,0,0,0,0,0,6.23444689005052e-05
0.0175,0,0,0,0,0,0,0,0,0.000200638514555709
0.02,0,0,0,0,0,0,0,0,0.000200638514555709
0.0225,0,0,0,0,0,0,0,0,0.000200638514555709
0.025,0,0,0,0,0,0,0,0,0.000200638514555709
0.0275,0,0,0,0,0,0,0,0,0.000408908020790609
0.03,0,0,0,0,0,0,0,0,0.000408908020790609
0.0325,0,0,0,0,0,0,0,0,0.000408908020790609
0.035,0,0,0,0,0,0,0,0,0.000408908020790609
0.0375,0,0,0,0,0,0,0,0,0.000682120126208935
0.04,0,0,0,0,0,0,0,0,0.000682120126208935
0.0425,0,0,0,0,0,0,0,0,0.000682120126208935
0.045,0,0,0,0,0,0,0,0,0.000682120126208935
0.0475,0,0,0,0,0,0,0,0,0.00101599725023408
0.05,0,0,0,0,0,0,0,0,0.00101599725023408
0.0525,0,0,0,0,0,0,0,0,0.00101599725023408
0.055,0,0,0,0,0,0,0,0,0.00101599725023408
0.0575,0,0,0,0,0,0,0,0,0.00140687936863906
0.06,0,0,0,0,0,0,0,0,0.00140687936863906
0.0625,0,0,0,0,0,0,0,0,0.00140687936863906
0.065,0,0,0,0,0,0,0,0,0.00140687936863906
0.0675,0,0,0,0,0,0,0,0,0.00185161989169607
0.07,0,0,0,0,0,0,0,0,0.00185161989169607
0.0725,0,0,0,0,0,0,0,0,0.00185161989169607
0.075,0,0,0,0,0,0,0,0,0.00185161989169607
0.0775,0,0,0,0,0,0,0,0,0.0023475055239639
0.08,0,0,0,0,0,0,0,0,0.0023475055239639
0.0825,0,0,0,0,0,0,0,0,0.0023475055239639
0.085,0,0,0,0,0,0,0,0,0.0023475055239639
0.0875,0,0,0,0,0,0,0,0,0.00289219360766644
0.09,0,0,0,0,0,0,0,0,0.00289219360766644
0.0925,0,0,0,0,0,0,0,0,0.00289219360766644
0.095,0,0,0,0,0,0,0,0,0.00289219360766644
0.0975,0.00090132399368263,-3.83643116285981e-06,0,9.35612661268146e-05,-3.98237867201014e-07,0,0,0,0.00348366245277284
0.1,0.000901557896849025,-3.83742677182412e-06,0,9.35612665581622e-05,-3.98243585725194e-07,0,5.20608791104357e-11,3.92694579084829e-12,0.00348366245277284
0.1025,0.000901791800016499,-3.83842239508504e-06,0,9.35612669895185e-05,-3.98249304365688e-07,0,1.15593400593685e-10,8.71919617316726e-12,0.00348366245277284
0.105,0.000902025703185052,-3.8394180326419e-06,0,9.35612674208553e-05,-3.98255022746428e-07,0,1.93093363649738e-10,1.45650089776104e-11,0.00348366245277284
0.1075,0.000902259606354682,-3.84041368449297e-06,0,9.35612678521394e-05,-3.98260740428683e-07,0,2.87916356284185e-10,2.15579254963701e-11,0.00412017147428641
0.11,0.00090249350952539,-3.84140935063522e-06,0,9.3561268283332e-05,-3.98266456898884e-07,0,4.03079773684569e-10,3.02094164454754e-11,0.00412017147428641
0.1125,0.000902727412697177,-3.84240503107014e-06,0,9.35612687145698e-05,-3.98272173969173e-07,0,5.43433460337653e-10,4.07532912033027e-11,0.00412017147428641
0.115,0.000902961315870041,-3.84340072579731e-06,0,9.35612691457944e-05,-3.98277890865712e-07,0,7.14426566883427e-10,5.35989096039589e-11,0.00412017147428641
0.1175,0.000903195219043983,-3.84439643481403e-06,0,9.35612695769384e-05,-3.98283606688185e-07,0,9.2370301130802e-10,6.88768847929253e-11,0.00480022884544994
0.12,0.000903429122219003,-3.84539215811499e-06,0,9.35612700079228e-05,-3.98289320384998e-07,0,1.17726006063249e-09,8.78277562850651e-11,0.00480022884544994
0.1225,0.000903663025395101,-3.84638789570508e-06,0,9.3561270439053e-05,-3.98295036034681e-07,0,1.48593365577729e-09,1.10898042243158e-10,0.00480022884544994
0.125,0.000903896928572276,-3.84738364758518e-06,0,9.356127087021e-05,-3.98300752041197e-07,0,1.86158760635765e-09,1.38974444622542e-10,0.00480022884544994
0.1275,0.000904130831750529,-3.84837941375156e-06,0,9.35612713012552e-05,-3.98306466552689e-07,0,2.32119072894319e-09,1.72264505646193e-10,0.00552256498726609
0.13,0.000904364734929859,-3.84937519419509e-06,0,9.35612717320273e-05,-3.98312177410912e-07,0,2.87716924842008e-09,2.13587478434995e-10,0.00552256498726609
0.1325,0.000904598638110267,-3.8503709889294e-06,0,9.35612721632049e-05,-3.98317893723988e-07,0,3.553355977509e-09,2.63844898150742e-10,0.00552256498726609
0.135,0.000904832541291754,-3.85136679795989e-06,0,9.35612725945428e-05,-3.98323612194079e-07,0,4.37551378616381e-09,3.24951584047718e-10,0.00552256498726609
0.1375,0.000905066444474318,-3.8523626212824e-06,0,9.35612730257574e-05,-3.98329329005061e-07,0,5.38084070214628e-09,3.97216313625801e-10,0.00628611064409636
0.14,0.00090530034765796,-3.8533584588817e-06,0,9.35612734565188e-05,-3.98335039719263e-07,0,6.59560367927231e-09,4.86971834890643e-10,0.00628611064409636
0.1425,0.00090553425084268,-3.85435431079306e-06,0,9.3561273888323e-05,-3.9834076454551e-07,0,8.07178984182848e-09,5.96043201897261e-10,0.00628611064409636
0.145,0.000905768154028482,-3.85535017703471e-06,0,9.35612743206656e-05,-3.98346496659457e-07,0,9.86521354720904e-09,7.28554385194891e-10,0.00628611064409636
0.1475,0.000906002057215364,-3.85634605760517e-06,0,9.35612747529647e-05,-3.98352228185229e-07,0,1.20568591600081e-08,8.84868962589855e-10,0.00708997860170848
0.15,0.000906235960403326,-3.85734195248013e-06,0,9.35612751845452e-05,-3.98357949984314e-07,0,1.47027449468404e-08,1.07915631272774e-09,0.00708997860170848
0.1525,0.000906469863592372,-3.85833786174676e-06,0,9.35612756186861e-05,-3.98363706652624e-07,0,1.79157182444313e-08,1.31508488952396e-09,0.00708997860170849
0.155,0.000906703766782508,-3.85933378545689e-06,0,9.35612760543492e-05,-3.98369484050729e-07,0,2.18164436829703e-08,1.60151509480367e-09,0.00708997860170849
0.1575,0.000906937669973734,-3.86032972362165e-06,0,9.35612764903394e-05,-3.98375265903151e-07,0,2.65804885914744e-08,1.93856850304565e-09,0.00793344832652465
0.16,0.000907171573166047,-3.86132567620507e-06,0,9.3561276925273e-05,-3.98381033366339e-07,0,3.23277376071999e-08,2.35785191089557e-09,0.00793344832652466
0.1625,0.000907405476359463,-3.86232164341607e-06,0,9.35612773663034e-05,-3.98386884400603e-07,0,3.93023465018002e-08,2.86667583304452e-09,0.00793344832652468
0.165,0.000907639379553991,-3.86331762539027e-06,0,9.35612778112912e-05,-3.9839278967939e-07,0,4.77646827273943e-08,3.48403505331321e-09,0.00793344832652471
0.1675,0.000907873282749636,-3.8643136221791e-06,0,9.35612782577799e-05,-3.98398715532292e-07,0,5.8094247159487e-08,4.2087562482059e-09,0.00881595296842352
0.17,0.000908107185946393,-3.86530963373675e-06,0,9.35612787029318e-05,-3.98404623060135e-07,0,7.05478581741966e-08,5.11113295481112e-09,0.00881595296842358
0.1725,0.000908341089144299,-3.86630566055324e-06,0,9.35612791622863e-05,-3.98410726597629e-07,0,8.56524868362906e-08,6.20559985686022e-09,0.00881595296842367
0.175,0.000908574992343377,-3.8673017029664e-06,0,9.3561279631432e-05,-3.98416965263465e-07,0,1.03968981412528e-07,7.53279548170603e-09,0.0088159529684238
0.1775,0.000908808895543641,-3.86829776113974e-06,0,9.3561280105317e-05,-3.98423269334085e-07,0,1.26315820413668e-07,9.08710530678686e-09,0.00973706829137729
0.18,0.000909042798745086,-3.86929383503581e-06,0,9.35612805781168e-05,-3.98429558429668e-07,0,1.53243088953533e-07,1.10244179775012e-08,0.00973706829137756
0.1825,0.000909276701947794,-3.87028992578559e-06,-1.11022302462516e-20,9.35612810834641e-05,-3.98436299911229e-07,-4.44089209850063e-18,1.85885941326665e-07,1.33729447661393e-08,0.00973706829137796
0.185,0.000909510605151825,-3.87128603420382e-06,-3.33066907387547e-20,9.35612816122585e-05,-3.9844336729108e-07,-8.88178419700125e-18,2.25450594205323e-07,1.62194682900811e-08,0.00973706829137854
0.1875,0.00090974450835721,-3.87228216074398e-06,-6.66133814775094e-20,9.35612821541036e-05,-3.98450616066693e-07,-1.33226762955019e-17,2.73699023234009e-07,1.95452875544644e-08,0.010696503188165
0.19,0.000909978411563953,-3.87327830544398e-06,-1.22124532708767e-19,9.35612826970392e-05,-3.98457879999365e-07,-2.22044604925031e-17,3.31808744078271e-07,2.36952055309968e-08,0.0106965031881662
0.1925,0.000910212314772237,-3.87427447088184e-06,-1.99840144432528e-19,9.35612833136192e-05,-3.98466175145289e-07,-3.10862446895044e-17,4.02220926171042e-07,2.87237063736826e-08,0.0106965031881681
0.195,0.0009104462179822,-3.87527065897817e-06,-3.10862446895044e-19,9.35612839850632e-05,-3.98475238532029e-07,-4.44089209850063e-17,4.87526089856005e-07,3.48157926395228e-08,0.0106965031881708
0.1975,0.00277772082692315,-2.00874873073481e-05,4.54998352857836e-17,0.00048750112723229,-3.8190084711566e-06,4.17517676202337e-16,5.91511285712337e-07,4.19170825472629e-08,0.0116940915055167
0.2,0.0027789395797442,-2.00970352900208e-05,4.64881183250582e-17,0.000487501128422392,-3.81919306907706e-06,3.95313215709833e-16,7.18203719999921e-07,5.07925181819853e-08,0.0116940915055226
0.2025,0.00278015833256865,-2.01065837400774e-05,4.73875835223628e-17,0.00048750112977752,-3.81938002265349e-06,3.59786078921828e-16,8.71655482815714e-07,6.1542577975113e-08,0.0116940915055311
0.205,0.00278137708539679,-2.0116132662023e-05,4.81427197264661e-17,0.000487501131258886,-3.8195687782354e-06,3.0205448164132e-16,1.05748980440932e-06,7.45611971953414e-08,0.0116940915055437
0.2075,0.00278259583822885,-2.01256820587888e-05,4.86869135558906e-17,0.000487501132822393,-3.8197587063204e-06,2.17677531769808e-16,1.28392459268799e-06,8.96950588731458e-08,0.0127297849599906
0.21,0.00278381459106489,-2.0135231931503e-05,4.89091427081738e-17,0.000487501134417513,-3.81994908567368e-06,8.88916609132902e-17,1.55642170946784e-06,1.08631042147055e-07,0.0127297849600175
0.2125,0.00278503334390584,-2.01447822933523e-05,4.86650781901145e-17,0.000487501136379174,-3.82014473972734e-06,-9.76258072237361e-17,1.88635159578842e-06,1.31558062009796e-07,0.012729784960057
0.215,0.00278625209675241,-2.01543331546427e-05,4.77437776270338e-17,0.0004875011386273,-3.82034451612803e-06,-3.68520225232274e-16,2.28576074605446e-06,1.59313236370167e-07,0.0127297849601149
0.2175,0.00278747084960509,-2.01638845224118e-05,4.53814386867459e-17,0.000487501141071051,-3.82054710765155e-06,-7.6375962199883e-16,2.77227325831827e-06,1.91499489105825e-07,0.0138036469665348
0.22,0.00278868960246411,-2.01734363999607e-05,4.20287496997361e-17,0.000487501143606556,-3.8207510195649e-06,-1.34107559480391e-15,3.35753629906541e-06,2.31828402326362e-07,0.0138036469666584
0.2225,0.00278990835533148,-2.01829888166223e-05,3.6588841426431e-17,0.000487501146950561,-3.82096666462392e-06,-2.17596330932203e-15,4.06591189776065e-06,2.80640673148349e-07,0.0138036469668396
0.225,0.00279112710820883,-2.01925417957303e-05,2.81291265261455e-17,0.000487501150937714,-3.82119164322316e-06,-3.3838859601142e-15,4.92317864258002e-06,3.39712635242203e-07,0.0138036469671051
0.2275,0.00279234586109728,-2.02020953538287e-05,1.52840306785906e-17,0.000487501155380865,-3.82142323935991e-06,-5.13803833902195e-15,5.96707931469196e-06,4.08050995833085e-07,0.0149158472329534
0.23,0.00279356461399744,-2.02116494997125e-05,-3.91154086982011e-18,0.000487501160066433,-3.82165835352152e-06,-7.6782286193643e-15,7.22244857808056e-06,4.93800227465155e-07,0.0149158472335189
0.2325,0.00279478336691376,-2.02212042982693e-05,-3.22886568318809e-17,0.000487501166524884,-3.82191942271076e-06,-1.13508463848243e-14,8.74141838357935e-06,5.9755495325442e-07,0.0149158472343471
0.235,0.00279600211984979,-2.02307598018894e-05,-7.39551423987048e-17,0.000487501174414764,-3.82220144803707e-06,-1.66665942267296e-14,1.0579097012445e-05,7.23079398523799e-07,0.0149158472355596
0.2375,0.00279722087280817,-2.02403160488491e-05,-1.33539651964876e-16,0.000487501183350444,-3.82249878387196e-06,-2.43671011255297e-14,1.28162162071788e-05,8.67942106176124e-07,0.016066656991537
0.24,0.0027984396257904,-2.02498730613485e-05,-2.22357309387531e-16,0.000487501192892685,-3.82280499978606e-06,-3.55270629690617e-14,1.55057067614639e-05,1.04998456942344e-06,0.0160666569941149
0.2425,0.00279965837880616,-2.02594309822505e-05,-3.51476062604078e-16,0.000487501206302882,-3.82316836079075e-06,-5.1647501286619e-14,1.87590039219745e-05,1.27018918315293e-06,0.0160666569978875
0.245,0.00280087713186335,-2.0268989928374e-05,-5.38914831304185e-16,0.000487501222875912,-3.82357844940005e-06,-7.49755074800428e-14,2.26938048421541e-05,1.53652246712985e-06,0.0160666570034076
0.2475,0.00280209588496789,-2.02785499871879e-05,-8.10819367717774e-16,0.00048750124181713,-3.82402352557155e-06,-1.08761814565436e-13,2.74826146744899e-05,1.84312701298245e-06,0.0172564447225333
0.25,0.00280331463812345,-2.02881112127945e-05,-1.2050815836753e-15,0.000487501262223144,-3.8244902426258e-06,-1.57704886383011e-13,3.32381823962568e-05,2.2290323366358e-06,0.0172564447342495
0.2525,0.00280453339135103,-2.0297673918462e-05,-1.77603579400192e-15,0.000487501291030894,-3.82508226698495e-06,-2.28381684130648e-13,4.01984762001917e-05,2.69571339401693e-06,0.0172564447513853
0.255,0.00280575214466799,-2.03072383631695e-05,-2.60265216243922e-15,0.000487501326784367,-3.82577788301725e-06,-3.30646547374921e-13,4.86146472439077e-05,3.26000963033456e-06,0.0172564447764437
0.2575,0.0028069708980876,-2.03168047448448e-05,-3.76191157173938e-15,0.000487501367846183,-3.82655267011993e-06,-4.78745857967818e-13,5.88549530136554e-05,3.90798643746036e-06,0.0184856720667196
0.26,0.0028081896516185,-2.03263731921413e-05,-5.49511385762509e-15,0.000487501412358436,-3.82737891860931e-06,-6.93280914354285e-13,7.11594166556646e-05,4.72491828154824e-06,0.018485672119826
0.2625,0.00280940840530612,-2.0335944389604e-05,-8.00275221433808e-15,0.000487501475050336,-3.82847898508545e-06,-1.0030553426852e-12,8.60357646125941e-05,5.71260556825973e-06,0.0184856721974558
0.265,0.00281062715918841,-2.03455189086046e-05,-1.16308609541935e-14,0.000487501552916309,-3.8298076002073e-06,-1.45124349594218e-12,0.000104019485528149,6.90660106180988e-06,0.0184856723109184
0.2675,0.00281184591329487,-2.03550971935255e-05,-1.68814940311571e-14,0.000487501642583873,-3.83131396837376e-06,-2.10025323078545e-12,0.000125896043951255,8.27408910553341e-06,0.0197548888283875
0.27,0.00281306466764546,-2.03646795449573e-05,-2.44823138200288e-14,0.000487501740234302,-3.83294057272244e-06,-3.04032791554865e-12,0.000152176097420705,1.00011772256567e-05,0.0197548890685151
0.2725,0.0028142834223382,-2.03742674544631e-05,-3.54763970569043e-14,0.000487501877094269,-3.8351638023359e-06,-4.39763329475019e-12,0.000183942037068399,1.20887900148255e-05,0.0197548894193573
0.275,0.00281550217745561,-2.03838621778853e-05,-5.13795756462253e-14,0.000487502046967265,-3.83788936886287e-06,-6.36127143572841e-12,0.000222334726207114,1.46119033798555e-05,0.0197548899318985
0.2775,0.00281672093306291,-2.0393464707315e-05,-7.36532491586994e-14,0.000487502242919938,-3.84101177189022e-06,-9.20461033339071e-12,0.000269028157618901,1.74938814047797e-05,0.0210647222227745
0.28,0.00281793968920573,-2.04030757371057e-05,-1.06960439313268e-13,0.000487502457125508,-3.84441191628267e-06,-1.33228760618274e-11,0.000325108126292697,2.11404880981708e-05,0.0210647233060652
0.2825,0.00281915844609503,-2.0412698511671e-05,-1.55131706104037e-13,0.000487502755720141,-3.84910982612056e-06,-1.92685067163077e-11,0.000392880341292087,2.55473840416233e-05,0.0210647248881155
0.285,0.00282037720391002,-2.04223357869373e-05,-2.24805750231286e-13,0.000487503125998148,-3.85491010651582e-06,-2.78696176508995e-11,0.000474773659337948,3.08725057005581e-05,0.0210647271982972
0.2875,0.00282159596279459,-2.04319897754599e-05,-3.25613911864861e-13,0.0004875035538263,-3.86159540901238e-06,-4.032326465343e-11,0.000574353004715759,3.69381428371226e-05,0.0224158381047335
0.29,0.00282281472285303,-2.04416620811946e-05,-4.71513837154737e-13,0.000487504023374769,-3.86892229388831e-06,-5.83599701159507e-11,0.000693925686513882,4.4628135345664e-05,0.022415842981261
0.2925,0.0028240334845402,-2.04513597762857e-05,-6.8250894724264e-13,0.000487504674870739,-3.87907803644002e-06,-8.43980440351608e-11,0.000838399650739195,5.391958166768e-05,0.0224158501000217
0.295,0.00282525224824749,-2.04610889455409e-05,-9.87666002238508e-13,0.000487505482913958,-3.89166770207957e-06,-1.22062821998348e-10,0.00101294208024406,6.51447928720907e-05,0.0224158604908757
0.2975,0.00575210374029996,-5.9134525352591e-05,-4.02138057275637e-13,0.00140697284290329,-1.60575527571327e-05,-1.69426527825383e-10,0.00122513892862585,7.78942527087512e-05,0.0238087712737548
0.3,0.0057556211749579,-5.91747126320128e-05,-1.02298492429281e-12,0.00140697386317624,-1.60749117687137e-05,-2.48338746806869e-10,0.00147947950868177,9.40909806659626e-05,0.0238087931767528
0.3025,0.00575913861316459,-5.9214958975068e-05,-1.9279148261838e-12,0.00140697528267904,-1.60985372221138e-05,-3.61971960756396e-10,0.00178503859883162,0.000113656705253092,0.0238088251131124
0.305,0.00576265605580607,-5.92552782133771e-05,-3.23961906451144e-12,0.00140697705659021,-1.6127695323615e-05,-5.24681695331058e-10,0.00215117883028223,0.000137289403664655,0.0238088716248926
0.3075,0.00576617350365846,-5.92956823729644e-05,-5.12997742745575e-12,0.00140697914095453,-1.61616638349224e-05,-7.56143345177723e-10,0.00259112563371695,0.000164075807323072,0.025243163082507
0.31,0.00576969095739878,-5.93361818369648e-05,-7.83646219019417e-12,0.00140698149612892,-1.61997856001697e-05,-1.08259390509537e-09,0.00311028022748572,0.000198146411027044,0.0252432602079416
0.3125,0.00577320841937692,-5.93768124368001e-05,-1.16762153542758e-11,0.0014069847912568,-1.62522399341228e-05,-1.53590126563265e-09,0.00372251235704671,0.000239288242153257,0.0252434007652911
0.315,0.00577672589185774,-5.94176079820956e-05,-1.70668377180864e-11,0.0014069889923298,-1.63182181181913e-05,-2.15624894552426e-09,0.00443771100254055,0.000288954769444334,0.0252436034114007
0.3175,0.00578024337710806,-5.94586012451793e-05,-2.42880451960822e-11,0.00140699410012527,-1.63973052334705e-05,-2.98629743768621e-09,0.00526903580737235,0.000345334205465839,0.0267147273538916
0.32,0.00578376087752896,-5.94998252050621e-05,-3.44411065030995e-11,0.00140700016836307,-1.64895839531179e-05,-4.0612245228069e-09,0.00620801922928188,0.000416804629351546,0.0267151374934176
0.3225,0.0057872783994958,-5.9541362717504e-05,-4.78970994494208e-11,0.00140700878673438,-1.66150049767708e-05,-5.38239717852852e-09,0.0072588103391392,0.000502929393867647,0.0267157174160058
0.325,0.00579079594975589,-5.95832932080051e-05,-6.51546916089467e-11,0.00140702010403745,-1.67721962004276e-05,-6.90303686381035e-09,0.00841422639088461,0.000606570569441555,0.0267165296187323
0.3275,0.00579431353560292,-5.96256893556284e-05,-8.63577594257691e-11,0.00140703433880911,-1.69584590493535e-05,-8.48122712672896e-09,0.00967362987208744,0.00072500511389449,0.0282082034157881
0.33,0.00579783116491149,-5.96686085419283e-05,-1.1094805062215e-10,0.00140705172342827,-1.71676745199489e-05,-9.83611647855233e-09,0.0110009778896276,0.000872835554857071,0.0282097316389011
0.3325,0.00580134885344545,-5.97121458351627e-05,-1.37145140812389e-10,0.0014070754135841,-1.74149172937411e-05,-1.04788360760957e-08,0.0123942824733818,0.00104957970420782,0.0282117992218558
0.335,0.00580486661602645,-5.97563300874361e-05,-1.61494507051008e-10,0.00140710503240029,-1.76737009093679e-05,-9.73974649544764e-09,0.0138412022613138,0.00126025065072509,0.0282145629094169
0.3375,0.00580838446478726,-5.98010883004227e-05,-1.76512490970487e-10,0.00140713950432375,-1.79032851946372e-05,-6.72148475268776e-09,0.0153489724176238,0.00150197306209457,0.029697636754117
0.34,0.00581190240598827,-5.9846198940043e-05,-1.77248845973893e-10,0.00140717648040666,-1.80442558481325e-05,-2.9454200136249e-10,0.0168735795936382,0.00179478436281058,0.02970235473242
0.3425,0.0058154204498328,-5.98913109568129e-05,-1.49821429440162e-10,0.00140721753780893,-1.80448067079463e-05,1.09709666134925e-08,0.0184289643339292,0.00213815840927545,0.0297084163623372
0.345,0.00581893858629837,-5.99357889097111e-05,-7.82238881708654e-11,0.00140725458622808,-1.77911811592853e-05,2.86390165077186e-08,0.0200115349219082,0.00253837237038731,0.029716109542908
0.3475,0.00582245677349146,-5.99786361814407e-05,5.79515134132051e-11,0.00140727487723653,-1.71389086918583e-05,5.44701606336282e-08,0.0216440723523018,0.00299221005022046,0.0311672911460979
0.35,0.0058259749210809,-6.00184081391551e-05,2.8395577985492e-10,0.00140725903577729,-1.59087830857282e-05,9.04017065766858e-08,0.0232737426730466,0.00352313401741557,0.0311792171867471
0.3525,0.00582949289482851,-6.00531856979646e-05,6.30626447156804e-10,0.00140718949904339,-1.39110235238226e-05,1.38668266920754e-07,0.0249280115865604,0.00412796045713862,0.0311937969639068
0.355,0.00583301045481405,-6.00803896465022e-05,1.13434225681584e-09,0.00140702399421439,-1.08815794150269e-05,2.01486323863613e-07,0.0266075899383835,0.00481007945710928,0.0312113777368404
0.3575,0.00583652721422955,-6.00966655537102e-05,1.8187891794927e-09,0.00140670376620327,-6.51036288321604e-06,2.81180492856507e-07,0.0283468611248642,0.0055604720582936,0.0326251038527336
0.36,0.00584004258603207,-6.00977572672661e-05,2.76919511120963e-09,0.00140614872100574,-4.36685422334426e-07,3.8016237268677e-07,0.0300792058300623,0.00639965902533836,0.032649626463601
0.3625,0.00584355575905379,-6.00784185629944e-05,4.02201767937059e-09,0.00140526920869001,7.73548170865236e-06,5.01129027264384e-07,0.0318425511138871,0.00731499449567996,0.0326779757780895
0.365,0.00584706556428433,-6.00322047307685e-05,5.63846812243129e-09,0.00140392209221422,1.84855328903818e-05,6.46580177224281e-07,0.0336394388301476,0.00830193879887598,0.0327103018520975
0.3675,0.00585057037539418,-5.99513076495376e-05,7.6860315666123e-09,0.0014019244439427,3.23588324923445e-05,8.19025377672404e-07,0.0355141371811149,0.00934233907841133,0.0340916171654338
0.37,0.00585406799266175,-5.9826376682716e-05,1.02383923039593e-08,0.00139904690702422,4.99723867286484e-05,1.0209442949388e-06,0.0373848911777481,0.0104565364681213,0.034132249102605
0.3725,0.00585755556872569,-5.964634364599e-05,1.33759541047807e-08,0.00139503042557705,7.20132146904058e-05,1.25502472032855e-06,0.0392988579618974,0.0116258125675576,0.0341771060539643
0.375,0.00586102939237919,-5.93981970424724e-05,1.71847049082899e-08,0.00138952946139977,9.92586414070211e-05,1.52350032140367e-06,0.0412596780802668,0.0128451151077594,0.0342262489208531
0.3775,0.00586448472881502,-5.9066766289056e-05,2.15351579791658e-08,0.00138213457433253,0.000132572301366583,1.82838737900868e-06,0.0433203556179413,0.0140942284359897,0.0355801562049278
0.38,0.00586791564765983,-5.86344967932844e-05,2.69636486547357e-08,0.0013723675379242,0.000172907798308621,2.17139627022798e-06,0.0453851423282218,0.0154045267297448,0.0356383159956175
0.3825,0.00587131490899824,-5.80811924406379e-05,3.33490358448647e-08,0.00135970453536306,0.000221321741058614,2.55415487605158e-06,0.047509135199648,0.0167566642073635,0.0357011722358948
0.385,0.00587467368873126,-5.7383805047233e-05,4.07926015858437e-08,0.00134351189320915,0.00027895495736195,2.97742629639162e-06,0.0496967027710626,0.0181495722245549,0.0357689353042519
0.3875,0.00587798137950623,-5.65161967062557e-05,4.93959495542895e-08,0.0013230763099869,0.000347043336390909,3.4413391873783e-06,0.052008066648902,0.0195610403813593,0.0370979822495574
0.39,0.00588122538511451,-5.54489033411851e-05,5.92590986782417e-08,0.00129760224331267,0.000426917346028251,3.94525964958091e-06,0.0543353286805198,0.021037419071883,0.0371765740598181
0.3925,0.00588439099557443,-5.4148829103092e-05,7.04790010623895e-08,0.0012662441839693,0.000520029695237235,4.48796095365909e-06,0.0567396207509131,0.0225560620582226,0.0372610225297999
0.395,0.00588746107534801,-5.25790997311303e-05,8.31461202117419e-08,0.0012280319094318,0.000627891748784709,5.06684765974095e-06,0.059225262720537,0.0241181499774588,0.0373517225281794
0.3975,0.0100213875033127,-0.000124691252494269,9.66501768756279e-08,0.00286414700165588,0.000721971403517505,5.68051809291196e-06,0.061857722514339,0.0256952673697802,0.0386575316347965
0.4,0.0100284099517284,-0.000122530776242028,1.12448048909629e-07,0.00280897936629268,0.000864190500896532,6.31914881360045e-06,0.0645179514660514,0.0273506808909314,0.0387623099119917
0.4025,0.010035268945902,-0.000119965250946251,1.2989497359243e-07,0.00274359766944281,0.00102621011831095,6.97876987312044e-06,0.0672707290783568,0.029054659449635,0.0388747999704544
0.405,0.010041935709957,-0.00011694070647978,1.49023007750003e-07,0.00266670562199379,0.0012098177865882,7.65121366302905e-06,0.0701187777005572,0.0308087063466267,0.0389955377486372
0.4075,0.0100483780615676,-0.000113398613368371,1.69839549399912e-07,0.00257694064423406,0.00141683724456384,8.32661665996374e-06,0.0731303627082209,0.0325742448016822,0.0402799311871322
0.41,0.0100545602716645,-0.000109275841382677,1.92322883505667e-07,0.0024728840387722,0.00164910879427742,8.99333364230197e-06,0.076174535342721,0.0344331902688863,0.0404190424402544
0.4125,0.0100604431486563,-0.000104504513917562,2.16417880409995e-07,0.00235315079670493,0.00190853098604598,9.63799876173114e-06,0.0793168449943564,0.0363453749704783,0.040568100120966
0.415,0.0100659837667261,-9.90122608417844e-05,2.42031051881206e-07,0.00221624722791051,0.00219690123031109,1.02452685884846e-05,0.0825559825920247,0.0383107253752416,0.0407276278865278
0.4175,0.0100711354459299,-9.27223769801376e-05,2.66263484096724e-07,0.00206067168154533,0.00251595354465874,1.07980074772417e-05,0.0859602889472072,0.040276919597238,0.0419926248784616
0.42,0.0100758477865931,-8.55540604532907e-05,2.94456976418233e-07,0.00188493626524571,0.00286732661073875,1.12773969286039e-05,0.0893848163607072,0.042345095473576,0.0421745683434635
0.4225,0.0100800670660888,-7.74225349901164e-05,3.23614740964445e-07,0.00168771179827968,0.0032526101852697,1.16631058184845e-05,0.0928934855557098,0.0444619690190031,0.0423682167015773
0.425,0.0100837360851932,-6.82396620710495e-05,3.53448594192629e-07,0.00146760764177292,0.00367314916762677,1.19335412912735e-05,0.0964791509401193,0.0466242724427275,0.0425737844352677
0.4275,0.0100867943898834,-5.79144229295802e-05,3.83614032847262e-07,0.00122332187606688,0.00413009565658773,1.20661754618533e-05,0.100209211433919,0.0487638320108968,0.0438198243641081
0.43,0.0100891785548441,-4.63534674630001e-05,4.1370883079832e-07,0.000953665984292222,0.00462438218663202,1.20379191804231e-05,0.103924298463992,0.0510011225278108,0.04404925896909
0.4325,0.0100908229619494,-3.34614828981023e-05,4.43272428332069e-07,0.000657762842136336,0.00515679382595916,1.18254390134997e-05,0.107687739018328,0.0532694620306057,0.0442904902947031
0.435,0.010091659741062,-1.9142070004591e-05,4.71786890845248e-07,0.000334711645038676,0.00572776515740449,1.14057850052717e-05,0.111488638662614,0.0555629395010446,0.0445432133709414
0.4375,0.010091619188469,-3.29839096645371e-06,4.93513529271096e-07,-1.62210372127685e-05,0.00633747161525494,1.07567256244256e-05,0.115396880696469,0.057799081625602,0.0457668345443844
0.44,0.01009063020491,1.41661925263804e-05,5.18156387851272e-07,-0.000395593423612617,0.00698583339713365,9.85714343207038e-06,0.119242656672528,0.0601190402510619,0.0460407430843509
0.4425,0.0100886213060737,3.33477737543376e-05,5.39874478284209e-07,-0.000803559534505334,0.00767263249118288,8.68723617317483e-06,0.123093953741928,0.0624458210340556,0.046324595849708
0.445,0.0100855204850503,5.43410743522875e-05,5.57947174657609e-07,-0.00124032840935132,0.00839732023917994,7.22907854935999e-06,0.12694151793532,0.0647738664150127,0.0466177614889413
0.4475,0.0100812556227641,7.72389468989505e-05,5.7161385083916e-07,-0.00170594491450439,0.00915914901866523,5.46667047262021e-06,0.130863061582801,0.0670106406711362,0.0478126275586835
0.45,0.0100757548666672,0.000102131948387429,5.80078976568172e-07,-0.00220030243872182,0.00995720059539148,3.38605029160492e-06,0.134683027079532,0.0693191972144443,0.0481216732119625
0.4525,0.0100689476263148,0.000129108272952651,5.82516929452093e-07,-0.00272289614097246,0.0107905298260887,9.75181153568466e-07,0.13847819477558,0.0716156116078901,0.0484380689913943
0.455,0.010060764212191,0.000158253189759394,5.78077508606806e-07,-0.00327336564952125,0.0116579667226973,-1.77576833811484e-06,0.142243915295782,0.073896795669478,0.04876123268242
0.4575,0.0100511360879471,0.000189648836905623,5.59974800048304e-07,-0.00385124969756448,0.0125582588584917,-4.87465953411322e-06,0.146067507178161,0.0760630578994106,0.0499226834346855
0.46,0.0100399960793705,0.000223374080007274,5.39156044514196e-07,-0.00445600343064857,0.0134900972406602,-8.32750221364316e-06,0.149768442103328,0.0782980797325184,0.0502567100788799
0.4625,0.010027279238293,0.000259504724841395,5.08809174885529e-07,-0.00508673643097348,0.0144522579336484,-1.21387478514668e-05,0.153432189260636,0.0805120264103508,0.0505960092491537
0.465,0.01001292227483,0.000298113187470725,4.68031291272448e-07,-0.00574278538520107,0.0154433850517322,-1.63111534452321e-05,0.157057804342292,0.0827040394216931,0.0509402142397053
0.4675,0.00999686365444447,0.00033926849931387,4.15916060412703e-07,-0.0064234481542304,0.0164621247372578,-2.08460923438981e-05,0.160740727423336,0.0847678913122244,0.052068119444526
0.47,0.00997904366609305,0.000383036344969207,3.51556769451873e-07,-0.00712799534056622,0.0175071382621346,-2.57437163843322e-05,0.164293691250108,0.0869051547464645,0.0524198470537317
0.4725,0.00995940516597998,0.000429479426473791,2.74048631601854e-07,-0.00785540004522682,0.0185772326018337,-3.10032551400075e-05,0.167809043941438,0.0890197170794838,0.0527756116092971
0.475,0.0099378928977257,0.000478657250031277,1.8249142579489e-07,-0.00860490730171517,0.0196711294229944,-3.66228823227855e-05,0.171287669065327,0.0911118778632988,0.053135230133123
0.4775,0.00991445349817786,0.000530626223430824,7.51890886236553e-08,-0.00937575981913644,0.020787589359819,-4.25999843007553e-05,0.174831359763591,0.0930686949978611,0.0542332321144615
0.48,0.00988903548948774,0.000585439763423435,-4.71391122089947e-08,-0.0101672034760451,0.0219254159970445,-4.893128033306e-05,0.178244325989252,0.0951073104499079,0.0545985264861375
0.4825,0.00986158994446558,0.000643148707603477,-1.86171787129026e-07,-0.0109782180088658,0.0230835776720167,-5.56130699680125e-05,0.181624483466011,0.0971249144930766,0.0549672339569259
0.485,0.00983206977303358,0.00070380113839983,-3.42774439461381e-07,-0.0118080685728016,0.0242609723185411,-6.26410609329421e-05,0.184973308342544,0.0991221808103653,0.0553392761803222
0.4875,0.00980042968860534,0.000767442501627401,-5.17800888603333e-07,-0.012656033771293,0.0254565452910283,-7.00105796567808e-05,0.188397999653716,0.100979313219586,0.056412725619034
0.49,0.00976662616969839,0.000834115724631843,-7.12092498169061e-07,-0.0135214075627823,0.0266692892017769,-7.77166438262911e-05,0.191693094005581,0.102927648075275,0.0567894774017772
0.4925,0.00973061807665248,0.000903861624444059,-9.26477904680386e-07,-0.0144032372183631,0.0278983599248863,-8.575416260453e-05,0.194961551850126,0.104857503488488,0.0571693380625226
0.495,0.00969236594737434,0.000976718734374653,-1.1617722321292e-06,-0.015300851711254,0.0291428439722378,-9.41177309795261e-05,0.198204879699535,0.106769552249209,0.0575522744173926
0.4975,0.0151903339185363,0.000923274352371201,-1.39923511875379e-06,-0.0135242776097232,0.0303393459222902,-0.000102808075936052,0.201535392446703,0.108537121830378,0.0586066461841214
0.5,0.015154205108683,0.00100230456631828,-1.67875247567355e-06,-0.0144515239413076,0.0316120855788333,-0.000111806942767903,0.204737230795787,0.110405105836401,0.0589937254940577
0.5025,0.0151157241108136,0.00108454924106871,-1.98154013250215e-06,-0.0153923991477375,0.0328978699001709,-0.000121115062731439,0.20791835169308,0.11225690771546,0.0593837339089501
0.505,0.0150748583469489,0.00117003912574384,-2.30835683835567e-06,-0.0163463055458911,0.0341959538700497,-0.000130726682341411,0.211080094918871,0.114093067115753,0.059776649838105
0.5075,0.0150315766890981,0.00125880320050492,-2.65994691376407e-06,-0.0173126631403304,0.0355056299044318,-0.000140636030163357,0.214339935948928,0.11578004169111,0.0608167332178497
0.51,0.0149858494160774,0.00135086876580798,-3.03704025765353e-06,-0.0182909092082725,0.0368262261212244,-0.000150837337555787,0.217471094229548,0.117576099635966,0.0612133486029331
0.5125,0.0149376487717984,0.00144626180153412,-3.44035273109314e-06,-0.0192802577115884,0.0381572142904583,-0.000161324989375844,0.220586686627386,0.119357706297086,0.061612733426618
0.515,0.0148869483226145,0.00154500677709085,-3.87058594781037e-06,-0.0202801796735749,0.0394979902226931,-0.00017209328668689,0.223687844616617,0.121125244767295,0.0620148612918041
0.5175,0.0148337229183652,0.00164712672809409,-4.28182301194022e-06,-0.0212901616997111,0.0408479804012924,-0.000183136577195837,0.226897387249388,0.122738282764733,0.0630444722759738
0.52,0.0147779486549155,0.00175264332919182,-4.76794617542406e-06,-0.0223097053798711,0.0422066404390928,-0.000194449265393537,0.229977164561727,0.124468536756639,0.0634498412353635
0.5225,0.0147196034106264,0.00186157722786299,-5.28301105526307e-06,-0.0233380977156483,0.0435735594684678,-0.000206025951935605,0.233045694924564,0.126185485823365,0.0638577913111691
0.525,0.0146586662375034,0.00197394784808799,-5.82766403541547e-06,-0.0243748692492194,0.0449482480899999,-0.000217861192060958,0.236103915795624,0.127889373124514,0.0642682842481644
0.5275,0.0145951173284254,0.00208977345246554,-6.4025380803842e-06,-0.025419563631179,0.0463302417510212,-0.000229949617987493,0.239280218034424,0.129432814091532,0.0652902395046613
0.53,0.0145289379858444,0.00220907120115404,-7.00825293871128e-06,-0.0264717370324091,0.0477190994754002,-0.000242285943330831,0.242324667919867,0.131101194308722,0.065703440137984
0.5325,0.0144601111384305,0.00233185746310735,-7.64541567617834e-06,-0.0275307389655543,0.0491145047813253,-0.000254865094986823,0.245361443636462,0.132756919675171,0.0661189853200732
0.535,0.0143886207637933,0.00245814761595719,-8.31462060480177e-06,-0.0285961498548765,0.0505160611399339,-0.000267681971449374,0.248391318032578,0.134400120483161,0.0665368225140811
0.5375,0.0143144518614425,0.00258795609627942,-8.91823017941655e-06,-0.0296675609403415,0.0519233921288907,-0.00028073156014695,0.251548487315217,0.135876358683216,0.0675530222658321
0.54,0.0142375904270258,0.00272129644732352,-9.65325252646687e-06,-0.0307445737666745,0.0533361404176436,-0.000294008938820127,0.254570840536435,0.137484992716272,0.0679729370576423
0.5425,0.0141580239504693,0.0028581816105517,-1.04220260305728e-05,-0.0318265906225928,0.0547540652912708,-0.000307509401642392,0.25758846659857,0.139081234530426,0.0683949060579991
0.545,0.0140757408673354,0.00299862372401764,-1.12250965817636e-05,-0.0329132332535605,0.0561768453863758,-0.000321228220476298,0.260602003393172,0.140665127888747,0.0688188621538799
0.5475,0.0139907305366297,0.00314263416318653,-1.20629984777074e-05,-0.0340041322822651,0.0576041756675564,-0.000335160758377522,0.263751675044055,0.142075050462102,0.0698304039059661
0.55,0.0139029832196567,0.00329022357974566,-1.29362546511792e-05,-0.0350989267892261,0.0590357666236523,-0.000349302469388717,0.266762820154741,0.143624683190426,0.0702557071873095
0.5525,0.0138124905607043,0.0034414021759695,-1.38453772002427e-05,-0.0361970635809516,0.0604714384895365,-0.000363649019625387,0.269771672380971,0.145161897788915,0.0706827212934409
0.555,0.0137192450640913,0.00359617950336519,-1.47908673342361e-05,-0.0372981986451998,0.0619109309582734,-0.00037819605359736,0.272778760031753,0.146686673674898,0.0711113651259665
0.5575,0.0136232400758917,0.00375456449599399,-1.55992906079762e-05,-0.0384019952798352,0.0633539970515213,-0.000392939304288791,0.275930540265807,0.14803005381372,0.0721186554572542
0.56,0.0135244697664952,0.00391656550219917,-1.6618977088378e-05,-0.0395081237586218,0.0648004024820704,-0.000407874592160709,0.2789394513451,0.149520413757889,0.0725478198494241
0.5625,0.0134229295947723,0.00408219054389162,-1.76764719415257e-05,-0.0406160686891251,0.0662500166769812,-0.00042299794125908,0.28194808548089,0.150998121982841,0.0729783018119784
0.565,0.0133186158081202,0.00425144711677325,-1.87722353227266e-05,-0.0417255146608706,0.0677026291526527,-0.000438305352480368,0.284956881804253,0.15246311114801,0.0734100071470772
0.5675,0.0132115254272774,0.00442434221768549,-1.99067175978921e-05,-0.0428361523370875,0.0691580403648977,-0.00045379291006618,0.288118715588029,0.153738928503926,0.0744128595190332
0.57,0.0131016562317957,0.00460088237068643,-2.10803595485068e-05,-0.0439476781927083,0.0706160612003733,-0.000469456780245881,0.291132802219962,0.155169022430312,0.0748441694471413
0.5725,0.0129890072085565,0.00478107387296425,-2.22935928540846e-05,-0.0450596092956544,0.0720766009111283,-0.000485293322231137,0.294148284775875,0.156586086445594,0.075276357669384
0.575,0.0128735780724646,0.00496492259758632,-2.3546840028642e-05,-0.0461716544367646,0.0735394898488269,-0.000501298869822962,0.297165529204213,0.157990020009711,0.0757093178070157
0.5775,0.012755369253668,0.00515243401605679,-2.45631302170772e-05,-0.0472835275186582,0.0750045673881904,-0.000517469834024054,0.300343992804563,0.159196710945984,0.0767070338682359
0.58,0.0126343818852874,0.00534361321985194,-2.5897636970966e-05,-0.0483949473522167,0.07647168151806,-0.000533802701555506,0.303369376692847,0.160565052040707,0.0771386007107527
0.5825,0.0125106182371051,0.00553846515434484,-2.72733723218381e-05,-0.0495054592729272,0.0779407737971579,-0.000550294140348844,0.306397545206136,0.161919888549434,0.0775705643227453
0.585,0.0123840812548954,0.00573699442476047,-2.86907242991503e-05,-0.0506147928838742,0.079411708166254,-0.000566940790924875,0.309428803539361,0.163261097058141,0.0780028069940137
0.5875,0.0122547745495013,0.00593920531485872,-3.01500727106565e-05,-0.0517226821576745,0.080884356039301,-0.000583739364602476,0.312629333133194,0.164396746458329,0.0789942426940631
0.59,0.0121227023863033,0.00614510180478832,-3.16517893156932e-05,-0.0528288652791633,0.0823585959718367,-0.00060068664201467,0.315671064089859,0.165701527989433,0.0794240193400606
0.5925,0.0119878701048454,0.00635468779415027,-3.31962382476343e-05,-0.0539329125831933,0.083834395744781,-0.000617779572776445,0.318716730086121,0.166992270141543,0.0798536724201727
0.595,0.0118502836751041,0.00656796691164275,-3.47837759417932e-05,-0.0550345718965054,0.085311646996994,-0.000635015077663575,0.321766585220234,0.168268834467567,0.0802830736482731
0.5975,0.0189169123298776,0.00656306705130349,-3.59259240860393e-05,-0.0521848429976889,0.0866719402186755,-0.000652500306596983,0.324993654920537,0.169331321827498,0.0812666927453785
0.6,0.0187837098657623,0.00678344650633873,-3.76009537331881e-05,-0.053280985646143,0.0881517820140954,-0.000670011858859502,0.328055877547653,0.170570547865482,0.0816924866683793
0.6025,0.0186477752656567,0.00700752867129275,-3.93200967933242e-05,-0.0543738400422155,0.0896328659816074,-0.000687657224054441,0.331122983201725,0.171795167110103,0.0821176009668606
0.605,0.0185091173399818,0.00723531643786288,-4.10836807376526e-05,-0.0554631702699484,0.0911151066280535,-0.000705433577731378,0.334195182421454,0.173005032054624,0.0825418974503207
0.6075,0.0183677454805411,0.00746681249693756,-4.28920261227763e-05,-0.0565487437763012,0.0925984236298696,-0.0007233381540495,0.337452441796616,0.173992142542984,0.083515814899568
0.61,0.0182236696523471,0.00770201935096191,-4.47454467339089e-05,-0.0576303312776091,0.094082741609743,-0.000741368244453013,0.340538531971603,0.175163729265505,0.0839353008463596
0.6125,0.0180769007871815,0.00794093951788672,-4.66442499450138e-05,-0.0587075460662475,0.095568066769923,-0.000759521284441986,0.343630278796965,0.176320129851482,0.0843535181394294
0.615,0.0179274503696903,0.00818357534912764,-4.85887366461903e-05,-0.0597801669964613,0.0970543324963654,-0.000777794680470582,0.346727855188939,0.177461192330766,0.0847703192966607
0.6175,0.0177753304298121,0.00842992904033646,-5.00005508189144e-05,-0.0608479759512958,0.0985414764835314,-0.000796185892110241,0.35001824311638,0.178370703944498,0.0857323384890878
0.62,0.017620553535386,0.00868000264170925,-5.20372818959955e-05,-0.0619107577704072,0.100029440549114,-0.000814692430832455,0.353130906890693,0.179472553029928,0.0861430688516397
0.6225,0.0174631331735884,0.00893379825339352,-5.41205617453206e-05,-0.0629681447190685,0.10151824467371,-0.000833311939730035,0.356249848973206,0.180558640684412,0.0865519111724447
0.625,0.0173030833503394,0.00919131784790076,-5.6250666830701e-05,-0.0640199292995988,0.103007837802896,-0.00085204203415216,0.359375209378455,0.181628814053067,0.0869587092592423
0.6275,0.017140418583371,0.00945256327908251,-5.84278677745369e-05,-0.0650659067873608,0.1044981724727,-0.000870880377534353,0.362701036520639,0.182458562674187,0.087906352181028
0.63,0.0169751538954337,0.00971753629071992,-6.06524294752629e-05,-0.0661058751749237,0.10598920465496,-0.000889824680290416,0.365842394803891,0.183488620243766,0.0883057678556517
0.6325,0.0168073051841343,0.00998623870392319,-6.29246114059264e-05,-0.0671394845197553,0.10748096528131,-0.000908872772265374,0.368990519046982,0.184502357478619,0.0887026482673676
0.635,0.0166368888338163,0.0102586722441183,-6.52446675499585e-05,-0.0681665401271813,0.108973416078034,-0.00092802245761286,0.372145520167773,0.185499623475078,0.0890968290916327
0.6375,0.0164639217091177,0.0105348385485173,-6.68285735550682e-05,-0.0691868498794592,0.110466521759609,-0.000947271583999585,0.375508540990597,0.18624755623358,0.0900273643576076
0.64,0.0162884211486366,0.0108147391732646,-6.9245118659075e-05,-0.0702002241924349,0.111960249898936,-0.000966618041602733,0.378680196539599,0.187203858159089,0.0904128052615686
0.6425,0.0161104053236381,0.0110983757732788,-7.17102682288179e-05,-0.0712063299994076,0.113454640005649,-0.000986059827897143,0.38185898634598,0.188143306974648,0.0907950384081589
0.645,0.0159298928617068,0.0113857499338987,-7.42242555228762e-05,-0.0722049847725251,0.114949664247964,-0.00100559491762334,0.385044995346135,0.189065756020015,0.091173891938831
0.6475,0.0157469028406819,0.0116768631770852,-7.67873088351211e-05,-0.0731960084099576,0.116445297274623,-0.00102522132489795,0.38844646592801,0.189729973721566,0.0920843604057038
0.65,0.0155614547826767,0.011971716967349,-7.93996515908962e-05,-0.0741792232020745,0.117941516105506,-0.00104493710231002,0.39164955858006,0.190610681542132,0.0924530762892058
0.6525,0.0153735690020685,0.0122703128844201,-8.20615025857291e-05,-0.0751543122432583,0.119438366828446,-0.00106474039793315,0.394860046596304,0.191474037435449,0.0928178893276867
0.655,0.015183266240337,0.0125726524596111,-8.47730759373328e-05,-0.0761211046926272,0.120935830076403,-0.00108462934064148,0.398077991529394,0.192319900876497,0.0931786207669583
0.6575,0.0149905676602908,0.012878737180944,-8.65047938997583e-05,-0.0770794320184731,0.122433888533148,-0.00110460209495473,0.401518718273974,0.192898692721353,0.0940658601549897
0.66,0.0147954948403616,0.0131885684980457,-8.93164360503224e-05,-0.0780291279716674,0.123932526840691,-0.00112465686022564,0.404753971073207,0.193702122624741,0.0944150220127083
0.6625,0.0145980701122416,0.0135021479879767,-9.21784158491663e-05,-0.0789698912479947,0.125431795972404,-0.00114479191953756,0.407996783456714,0.194487742165851,0.0947595662156652
0.665,0.0143983162064178,0.0138194771963477,-9.50909297018747e-05,-0.0799015623295123,0.126931683348398,-0.00116500554108337,0.411247195805662,0.19525541854741,0.0950993078074223
0.6675,0.0141962562466277,0.0141405576415343,-9.80541697652352e-05,-0.0808239839160533,0.128432178074615,-0.00118529602534416,0.414727577182742,0.195747291002328,0.0959599771456693
0.67,0.0139919137443675,0.0144653908186949,-0.000101068324026135,-0.0817370009040856,0.129933270864242,-0.00120566170435979,0.417995336069871,0.196471937613547,0.096286689457619
0.6725,0.0137853129265011,0.0147939783590465,-0.000104133576482446,-0.0826403271465463,0.131435016140667,-0.00122610098252463,0.421270730797518,0.197178361170396,0.0966080526920568
0.675,0.0135764783910789,0.0151263218757559,-0.000107250107117523,-0.0835338141688861,0.132937406683746,-0.00124661225403078,0.424553782503836,0.197866437966347,0.0969238764488741
0.6775,0.0133654351019747,0.0154624229673768,-0.000109100264025548,-0.0844173156416968,0.134440436648357,-0.00126719394234086,0.428073846093998,0.198270138999544,0.0977544809317402
0.68,0.0131522083835656,0.0158022832211206,-0.000112319875274382,-0.085290687363643,0.13594410149752,-0.00128784449953362,0.431374114461091,0.198914695159785,0.098055794877044
0.6825,0.0129368242385946,0.0161459043658313,-0.000115591281371168,-0.0861536579883931,0.137448457884295,-0.00130856243871441,0.434682014876561,0.199540665854302,0.0983510150883281
0.685,0.0127193090139311,0.0164932881226597,-0.000118914647041463,-0.0870060898653724,0.138953502731353,-0.00132934626811825,0.437997550958476,0.200147937646917,0.0986399465510456
0.6875,0.012499689395356,0.0168444362078378,-0.000122290133347814,-0.087847847430051,0.140459234071218,-0.00135019452254012,0.441556986785298,0.200462477161125,0.0994368631915326
0.69,0.0122779924023814,0.0171993503353109,-0.000125717897754684,-0.0886787971898654,0.141965650989248,-0.00137110576274816,0.444889456757988,0.201025850518177,0.0997097909173475
0.6925,0.0120542456966212,0.017558032363638,-0.000129198094253815,-0.0894986823040632,0.143472811330871,-0.00139207859965224,0.448229482126564,0.201570330138231,0.0999758706765012
0.695,0.011828477257202,0.0179204841514454,-0.000132730873365817,-0.0903073757676996,0.144980715122955,-0.00141311164480084,0.451577050566571,0.202095813880657,0.100234903740874
0.6975,0.0207897877255205,0.0179203704182225,-0.000134414446092034,-0.0856330664732369,0.146286966877278,-0.00143497646236644,0.455175242325033,0.202320480809441,0.10099440805241
0.7,0.0205737402511752,0.0182898612717205,-0.000138054760060863,-0.0864189897381353,0.147796341399182,-0.00145612558753162,0.458539318811727,0.202801808712085,0.101235938493876
0.7025,0.020355757173998,0.0186631275722466,-0.000141748087347632,-0.0871932308708809,0.149306520210426,-0.00147733091470745,0.461910807964378,0.203263992154542,0.101469861159583
0.705,0.0201358679905992,0.0190401713361328,-0.000145494565220452,-0.0879556733594948,0.150817505554485,-0.001498591149128,0.465289682989099,0.203706941175586,0.101695974576853
0.7075,0.019914102483887,0.0194209945870448,-0.000149294327765372,-0.0887062026848893,0.152329300364816,-0.00151990501796814,0.468925733273188,0.20384131894338,0.102414268675445
0.71,0.0196904907181111,0.0198055993576031,-0.000153147505940052,-0.0894447063103735,0.153841908223325,-0.00154127126987183,0.472320574554779,0.204239977337524,0.102621382574491
0.7125,0.019465063328905,0.0201939878247266,-0.000157054227646184,-0.0901709556824218,0.155355386849393,-0.0015626886824527,0.475722625810892,0.20461930056489,0.102820127357761
0.715,0.0192378512172942,0.0205861621745967,-0.000161014617761214,-0.0908848446443299,0.156869739948025,-0.0015841560460122,0.479131847195544,0.204979211603568,0.103010299838699
0.7175,0.0190088855448134,0.0209821246039695,-0.000163005107024396,-0.0915862689923209,0.158384971749138,-0.00160567217083002,0.482804618852261,0.205023185321762,0.103683540678811
0.72,0.0187781977286485,0.0213818773213999,-0.000167073196741248,-0.0922751264659549,0.159901086972138,-0.00162723588674086,0.486229148059584,0.205338799986101,0.103853228714709
0.7225,0.0185458197228061,0.0217854226770753,-0.000171195311846882,-0.0929512023369519,0.161418142270161,-0.00164884604225326,0.489660630817602,0.205634951160736,0.104013789227494
0.725,0.0183117837211302,0.0221927630324906,-0.000175371565609391,-0.0936144006703544,0.162936142166123,-0.00167050150500371,0.493099015598033,0.205911575389641,0.104165018397427
0.7275,0.0180761221525162,0.0226039007614087,-0.0001796020685115,-0.0942646274456284,0.164455091567259,-0.00169220116084362,0.49680714632198,0.205865343412304,0.104789347515635
0.73,0.0178388676761473,0.0230188382507462,-0.000183886928295149,-0.0949017905475338,0.165974995734977,-0.00171394391345951,0.500260081440846,0.206097796503471,0.104918627871954
0.7325,0.0176000534539765,0.0234375780250627,-0.00018822624998398,-0.0955256888683452,0.167495909726618,-0.00173572867553272,0.503719665910918,0.206310721863144,0.105038029784196
0.735,0.0173597128625804,0.0238601226209053,-0.000192620135946722,-0.0961362365584175,0.16901783833703,-0.00175755438509658,0.507185837865763,0.206504070095915,0.10514734991667
0.7375,0.0171178794884709,0.0242864745874704,-0.000194615446709559,-0.0967333496437999,0.170540786626039,-0.00177941999681435,0.510927772503366,0.206368148170248,0.105718923832948
0.74,0.0168745871234279,0.0247166364872025,-0.000199118757913654,-0.09731694601721,0.172064759892863,-0.00180132448163799,0.514407650455559,0.206517582906707,0.105804860372724
0.7425,0.0166298700284636,0.0251506110151035,-0.000203676924938293,-0.0978868379857352,0.173589811160397,-0.00182326680985556,0.517893831650092,0.206647490920743,0.105880179689418
0.745,0.0163837626543644,0.0255884008776898,-0.000208290039897484,-0.0984429496396542,0.175115945034512,-0.00184524598367655,0.521386245209933,0.206757837235802,0.105944680068693
0.7475,0.0161362996371028,0.0260300087934029,-0.000212958192448771,-0.0989852069046384,0.176643166285244,-0.00186726102051452,0.525160262692446,0.206533060493339,0.106459700727032
0.75,0.0158875157932715,0.0264754374929658,-0.000217681469830471,-0.099513537532546,0.178171479825166,-0.0018893109526802,0.528665463728588,0.206599883700341,0.106499421393578
0.7525,0.0156374463757096,0.0269246898336678,-0.000222459956837683,-0.100027767024745,0.179700936280796,-0.00191139480288456,0.532176585776189,0.206647247057264,0.10652780288093
0.755,0.0153861268025785,0.0273777686828744,-0.000227293735917494,-0.100527829252431,0.181231539682618,-0.00193351163192467,0.535693550262332,0.206675130223384,0.106544646235144
0.7575,0.0151335926528804,0.0278346769182261,-0.000229248254864246,-0.101013659879256,0.18276329414068,-0.00195566051451775,0.539497790938038,0.206362652122096,0.106999391372166
0.76,0.0148798796620011,0.0282954174277922,-0.000234192856211809,-0.101485196351715,0.184296203826432,-0.0019778405390249,0.543026561950955,0.20634753424548,0.10699010632229
0.7625,0.0146250239691716,0.0287599932194954,-0.000239192983150005,-0.101942277131793,0.185830316681293,-0.00200005077527864,0.546560841349658,0.206313089306307,0.106968781596147
0.765,0.0143690618549333,0.0292284073090937,-0.000244248708994123,-0.102384845695341,0.187365635839308,-0.00202229033764721,0.55010054416584,0.206259311670729,0.10693522212118
0.7675,0.0141120297367726,0.029700662720203,-0.000249360104877277,-0.102812847264283,0.188902164443735,-0.00204455835326152,0.553933035995205,0.205860599611522,0.107326074878268
0.77,0.0138539641647815,0.0301767624842828,-0.000254527239781693,-0.103226228796418,0.190439905631924,-0.00206685396176617,0.55748351439964,0.205764472603113,0.107265094286769
0.7725,0.0135949020611447,0.0306567097453578,-0.000259750180472153,-0.103624841454727,0.191978904430017,-0.00208917627618406,0.561039063804139,0.20564921669962,0.107191399484979
0.775,0.0133348804658355,0.0311405076523883,-0.000265028991621997,-0.104008638123676,0.193519162812168,-0.00211152445993769,0.564599594126705,0.205514840896606,0.107104800364458
0.7775,0.0130739365323771,0.0316281593591482,-0.00026689378639375,-0.104377573383371,0.19506068270396,-0.00213389768816751,0.568458279257781,0.205031668851171,0.107428277983804
0.78,0.0128121075236304,0.032119668024073,-0.000272284524262517,-0.104731603498652,0.196603465969937,-0.00215629514750696,0.572028515422937,0.204855721336062,0.107313028848596
0.7825,0.0125494310434963,0.0326150369104529,-0.000277731314237168,-0.105070592053655,0.198147554551937,-0.00217871598986019,0.5756033659788,0.204660907362909,0.107184421231938
0.785,0.0122859447906866,0.0331142692830816,-0.000283234212796271,-0.10539450112387,0.199692949051483,-0.00220115942364114,0.57918273698455,0.204447250329578,0.107042271013662
0.7875,0.0120216865546228,0.0336173684080186,-0.000288793274466364,-0.105703294425547,0.201239649974826,-0.00222362466803712,0.583065496575836,0.203881688089856,0.107295051723383
0.79,0.0117566942113628,0.0341243375523257,-0.000294408551848377,-0.105996937304001,0.202787657722822,-0.0022461109528052,0.586653476898423,0.20362735856817,0.107123093807655
0.7925,0.0114910059477326,0.0346351800798947,-0.000300080095512917,-0.106275305452051,0.204337011027604,-0.00226861746581602,0.590245601154221,0.203354487597387,0.10693716741076
0.795,0.0112246600229919,0.03514989935227,-0.000305807954154926,-0.106538369896278,0.205887708950138,-0.00229114345680394,0.59384177276227,0.203063112603125,0.106737095347135
0.7975,0.0224888004504047,0.0350909361897517,-0.000307157332011543,-0.0995113216151252,0.207124626742077,-0.00231682257684499,0.597746452045759,0.20241751236822,0.10691604352172
0.8,0.0222394413521883,0.0356126311568706,-0.000313005794044029,-0.0997436392865372,0.208677986847558,-0.00233938481299458,0.601350108907473,0.202086489851974,0.106685090700646
0.8025,0.0219895401334182,0.0361382129688149,-0.000318910704735775,-0.0999604875080426,0.210232724777742,-0.00236196427669805,0.604957430853678,0.201737311434384,0.106439597537409
0.805,0.0217391355184319,0.036667685063622,-0.000324872105374979,-0.100161845994515,0.211788837922821,-0.00238456025568198,0.608568319825655,0.201370028045691,0.106179394630829
0.8075,0.0214882662784874,0.0372010508724035,-0.000330890035492016,-0.100347695977804,0.213346323512596,-0.00240717204681447,0.612492740375985,0.200647018554742,0.106281590224618
0.81,0.021236971228004,0.037738313818929,-0.00033696453288186,-0.100518020193357,0.214905178610216,-0.00242979895593756,0.616110007891758,0.200241201384596,0.105989502738879
0.8125,0.0209852894342303,0.0382794774072787,-0.000343095633466008,-0.100672717509508,0.216465435339878,-0.00245244023365939,0.619730457653247,0.199817671151156,0.105682343984896
0.815,0.0207332599941168,0.0388245451306011,-0.000349283371472777,-0.100811776045375,0.218027089328968,-0.00247509520270772,0.62335399124674,0.199376491642291,0.105359953085832
0.8175,0.0204809220306965,0.0393735204706608,-0.000350833874129212,-0.100935185368137,0.219590136023878,-0.00249776319424565,0.627296005267935,0.198578927522532,0.105382691680175
0.82,0.0202283146894994,0.0399264068973742,-0.000357134982998509,-0.101042936478837,0.221154570685335,-0.00252044354771888,0.630924802888904,0.198100438481838,0.10502750642652
0.8225,0.0199754773413634,0.0404832079526724,-0.000363492821851257,-0.101134939254389,0.222720422119276,-0.0025431355410989,0.634556300897746,0.197604733474011,0.104656762885875
0.825,0.0197224493665813,0.0410439271629892,-0.000369907418174729,-0.101211189912838,0.224287684126742,-0.00256583852938911,0.638190401568393,0.197091888365772,0.104270309319909
0.8275,0.0194692701514639,0.041608568038774,-0.00037637879786319,-0.101271686046965,0.225856350313911,-0.00258855187538436,0.642147878316763,0.196222860038873,0.10421113667466
0.83,0.0192159790849406,0.042177134073996,-0.000382906985237019,-0.101316426609323,0.227426414088808,-0.00261127494953147,0.645786142531714,0.19567402205281,0.103791069890254
0.8325,0.0189626157547971,0.042749628826402,-0.000389492002876339,-0.101345332057403,0.228997900962398,-0.0026340070557279,0.649426630583587,0.195108515721371,0.103355003932907
0.835,0.0187092197388376,0.043326055833583,-0.000396133871823244,-0.101358406383817,0.230570802872385,-0.00265674757876205,0.653069246397005,0.194526428099271,0.102902796682241
0.8375,0.0184558306016413,0.0439064186124671,-0.000397430949256419,-0.101355654878512,0.232145111553641,-0.00267949591062543,0.657040102872673,0.193589228773183,0.102759516760763
0.84,0.0182024878913585,0.0444907206588074,-0.000404186577882381,-0.10133708411312,0.233720818536128,-0.00270225145038486,0.660685802981196,0.192972547244687,0.102272969947596
0.8425,0.0179492313296619,0.0450789655240676,-0.000410999111695679,-0.101302624678649,0.235297946104097,-0.00272501352531912,0.664333259667069,0.192339791416447,0.101770030891977
0.845,0.0176961006096596,0.0456711567348618,-0.000417868565565012,-0.101252288000891,0.236876484317661,-0.0027477815477332,0.667982379379427,0.191691058542578,0.101250567429035
0.8475,0.0174431353928548,0.04626729779244,-0.000424794952906502,-0.101186086721934,0.238456423031293,-0.00277055493659608,0.671964595306677,0.190689159010148,0.101021251471568
0.85,0.017190375306145,0.046867392172172,-0.00043177828570006,-0.101104034683926,0.240037751892786,-0.00279333311742335,0.675615750274134,0.190007304167385,0.100466816017933
0.8525,0.0169378601258111,0.0474714433972532,-0.000438818574299973,-0.101006072133561,0.241620490032486,-0.00281611543996504,0.67926820740057,0.18931001105803,0.0998956441754198
0.855,0.0166856295818758,0.0480794549613491,-0.000445915827654859,-0.100892217574101,0.243204625638378,-0.00283890134195437,0.68292187643787,0.188597386066777,0.0993076139272168
0.8575,0.0164337233552735,0.0486914303280853,-0.000446899664256176,-0.100762490640938,0.244790146694466,-0.00286169026729349,0.686913509797677,0.187534409640998,0.098990607121194
0.86,0.0161821810750613,0.0493073729305369,-0.00045411086842104,-0.100616912084884,0.246377040980631,-0.00288448166594534,0.690568200366172,0.186790196237463,0.0983670653094534
0.8625,0.0159310424967689,0.0499272862420135,-0.000461379055690738,-0.100455431316954,0.247965324590636,-0.00290727490787944,0.69422375467405,0.186031217925087,0.0977264924347906
0.865,0.0156803473128926,0.0505511737016689,-0.0004687042293266,-0.100278073550515,0.249554983862187,-0.00293006945434466,0.697880086452528,0.185257589087312,0.0970687766755363
0.8675,0.0154301351502817,0.0511790387140053,-0.000476086391257358,-0.100084865044342,0.251146004934534,-0.00295286477230301,0.701879283732521,0.184137284437245,0.0966626997768764
0.87,0.0151804455675678,0.0518108846483779,-0.000483525542093182,-0.0998758330855661,0.252738373749071,-0.00297566033432971,0.705535666199822,0.183333652603062,0.0959690249922138
0.8725,0.0149313182282341,0.0524467149070557,-0.000491021680918493,-0.0996509357335122,0.254332103471117,-0.0029984555301244,0.709192492656918,0.182515961688355,0.0952580739209471
0.875,0.0146827927168944,0.0530865328536156,-0.000498574805525185,-0.0994102045358591,0.255927178623926,-0.0030212498426769,0.712849681387285,0.181684332900081,0.0945297448418148
0.8775,0.0144349085369019,0.0537303418124683,-0.000499183391402987,-0.0991536719970196,0.257523583541107,-0.00304404276026969,0.716854689097119,0.180510548404535,0.0940334940850795
0.88,0.0141877051079996,0.0543781450683879,-0.00050685047584395,-0.0988813715608894,0.25912130236785,-0.00306683377638534,0.720511003343574,0.179650541876886,0.0932688469466975
0.8825,0.0139412219344692,0.055029945932127,-0.000514574531589933,-0.0985932694121613,0.260720345495617,-0.00308962229839287,0.724167362764583,0.178777209644166,0.0924867272079688
0.885,0.0136954984268403,0.0556857476713272,-0.000522355551163406,-0.0982894030515811,0.262320695680079,-0.00311240782938924,0.727823690663236,0.177890678536144,0.091687043017192
0.8875,0.0134505738997237,0.0563455535100743,-0.000530193525856844,-0.0979698108466397,0.263922335498858,-0.00313518987737526,0.731832860668768,0.176667334836779,0.0910997846023618
0.89,0.013206487569688,0.0570093666284575,-0.000538088445744768,-0.0976345320142634,0.26552524735325,-0.00315796795516965,0.735487440780657,0.175754081649386,0.0902635091852826
0.8925,0.0129632787188762,0.0576771902259362,-0.000546040299463913,-0.0972835403247474,0.267129438991502,-0.00318074148765814,0.739141689946541,0.174828258711701,0.0894096127063871
0.895,0.0127209865217546,0.0583490274545806,-0.000554049074455206,-0.0969168788486056,0.268734891457763,-0.00320350999651704,0.742795536853497,0.173889997269744,0.0885380128260215
0.8975,0.0267559969364792,0.0581528579845566,-0.000554230213664438,-0.0871539825317267,0.269883773934224,-0.00323457148855172,0.746807334088299,0.172621062811925,0.0878591768907864
