time,px,py,pz,vx,vy,vz,roll,pitch,yaw
0,4.02259170263564e-07,-1.05008978567954e-06,7.97271368989116e-07,0.000160903668105426,-0.000420035914271818,0.000318908547595647,0,0,0
0.0025,1.19891690259954e-06,-2.46000057285479e-06,2.44284586981801e-06,0.000318663092934391,-0.000563964314870096,0.000658229800331558,0,0,0.0124999999999972
0.005,3.14247710325373e-06,-4.09725703870426e-06,5.8716563210724e-06,0.000777424080261675,-0.000654902586339792,0.00137152418050176,0,0,0.0249999999999944
0.0075,5.56109474678854e-06,-6.1440125827217e-06,1.08214762571012e-05,0.000967447057413924,-0.000818702217606974,0.00197992797441153,0,0,0.0374999999708344
0.01,7.91528216802694e-06,-8.22251491787961e-06,1.71499366553407e-05,0.000941674968495361,-0.000831400934063165,0.00253138415929578,0,0,0.0499999999708316
0.0125,9.21831844121841e-06,-1.05141582135015e-05,2.45925231334447e-05,0.000521214509276587,-0.000916657318248768,0.00297703459124161,0,0,0.0624999999708288
0.015,1.14042762611864e-05,-1.13121365724937e-05,3.33184919005529e-05,0.000874383127987207,-0.000319191343596852,0.00349038750684328,0,0,0.0749999999999832
0.0175,1.48794018734138e-05,-1.26670050355913e-05,0.000286863000496281,0.00139005024489095,-0.000541947385239075,0.0047486633314562,0,0,0.0874999999999804
0.02,1.83618980821013e-05,-1.47729445335521e-05,0.000300110577894297,0.00139299848347501,-0.000842375799184316,0.00529903095920663,0,0,0.0999999999708205
0.0225,2.21414190935268e-05,-1.65879992739062e-05,0.000316131545102181,0.00151180840457017,-0.000726021896141625,0.0064083868831534,0,0,0.112499999970818
0.025,2.55988082414987e-05,-1.78393502385808e-05,0.000332889925842377,0.00138295565918879,-0.000500540385869821,0.0067033522960786,0,0,0.124999999999972
0.0275,2.85786912439297e-05,-1.99479693327608e-05,0.000352277423450686,0.00119195320097237,-0.000843447637672009,0.00775499904332352,0,0,0.137500000029126
0.03,3.08329884462534e-05,-2.23986758733781e-05,0.000374066072485182,0.000901718880929493,-0.000980282616246924,0.00871545961379828,0,0,0.149999999999966
0.0325,3.40846882898461e-05,-2.51036958389779e-05,0.000398378864897004,0.00130067993743709,-0.00108200798623993,0.0097251169647288,0,0,0.162499999970806
0.035,3.73012114348246e-05,-2.77078668685544e-05,0.00042606915743045,0.0012866092579914,-0.00104166841183058,0.0110761170133786,0,0,0.174999999970804
0.0375,4.02593085658416e-05,-3.02667106368114e-05,0.000768768264106774,0.00118323885240678,-0.0010235375073028,0.0123099708182618,0,0,0.187499999970801
0.04,4.2470084514495e-05,-3.25825628193254e-05,0.000803000331872268,0.000884310379461382,-0.00092634087300562,0.0136928271061974,0,0,0.199999999970798
0.0425,4.36960482151863e-05,-3.5481782778094e-05,0.000839275798068007,0.000490385480276516,-0.00115968798350745,0.0145101864782958,0,0,0.212499999970795
0.045,4.52417119635801e-05,-3.86001644586179e-05,0.000878355488051063,0.000618265499357515,-0.00124735267220953,0.0156318759932223,0,0,0.22499999999995
0.0475,4.70934936538182e-05,-4.26342104185203e-05,0.00092015184625972,0.000740712676095243,-0.00161361838396096,0.0167185432834627,0,0,0.237499999999947
0.05,4.99786514130033e-05,-4.74136975705976e-05,0.000964735716753827,0.00115406310367402,-0.00191179486083093,0.0178335481976429,0,0,0.249999999970787
0.0525,5.33198080271402e-05,-5.13293031411724e-05,0.00101118977301767,0.00133646264565477,-0.0015662422282299,0.0185816225055383,0,0,0.262499999941627
0.055,5.62559879804557e-05,-5.69314374112451e-05,0.0010618283154664,0.00117447198132619,-0.00224085370802912,0.0202554169794905,0,0,0.274999999912467
0.0575,5.95443219539925e-05,-6.27030758507672e-05,0.00123801752150667,0.00131533358941475,-0.0023086553758088,0.0213557560395932,0,0,0.287499999912464
0.06,6.30229771486681e-05,-6.91243649244311e-05,0.00129476926267401,0.00139146207787023,-0.00256851562946557,0.022700696466939,0,0,0.299999999912461
0.0625,6.58099513696424e-05,-7.59002311970647e-05,0.0013544971291439,0.00111478968838971,-0.00271034650905346,0.0238911465879544,0,0,0.312499999912459
0.065,6.74778705266812e-05,-8.21464083330996e-05,0.00141709179384571,0.000667167662815539,-0.00249847085441395,0.0250378658807246,0,0,0.324999999912456
0.0675,6.84445840598698e-05,-8.75019106955568e-05,0.00148258975219803,0.000386685413275424,-0.00214220094498286,0.0261991833409281,0,0,0.337499999912453
0.07,6.90340317022286e-05,-9.41988128319862e-05,0.0015508605861492,0.000235779056943519,-0.00267876085457176,0.0273083335804689,0,0,0.34999999991245
0.0725,6.94596270577562e-05,-0.000101404033665049,0.00162218654436482,0.000170238142211051,-0.00288208833322533,0.0285303832862481,0,0,0.362499999912447
0.075,7.00928803683441e-05,-0.000107981507976508,0.00169626269514171,0.000253301324235162,-0.00263098972458327,0.0296304603107538,0,0,0.374999999912444
0.0775,7.02542554132706e-05,-0.000114775768562972,0.00324180591226903,6.45500179705924e-05,-0.00271770423458583,0.0304043207652198,0,0,0.387499999883285
0.08,6.98324145868832e-05,-0.00012328731520587,0.00332182990489881,-0.000168736330554973,-0.0034046186571591,0.0320095970519119,0,0,0.399999999854124
0.0825,6.87359605606793e-05,-0.000132484341515632,0.00340418089705945,-0.000438581610481564,-0.00367881052390462,0.0329403968642546,0,0,0.412499999824965
0.085,6.728641165627e-05,-0.000141457518818478,0.00348953142705326,-0.000579819561763717,-0.00358927092113854,0.0341402119975248,0,0,0.424999999795805
0.0875,6.66118919493353e-05,-0.000151435678140528,0.00357809455217012,-0.000269807882773877,-0.00399126372881992,0.0354252500467421,0,0,0.437499999766645
0.09,6.56541143875063e-05,-0.000162340802328792,0.00366964009395024,-0.000383111024731586,-0.0043620496753058,0.0366182167120499,0,0,0.449999999766642
0.0925,6.45398770816926e-05,-0.00017230465796149,0.00376466847159365,-0.000445694922325471,-0.00398554225307904,0.0380113510573642,0,0,0.462499999795796
0.095,6.36221535287011e-05,-0.000182130038452402,0.00386292601268507,-0.000367089421196602,-0.00393015219636506,0.0393030164365668,0,0,0.474999999795794
0.0975,-0.00185448669496213,0.00215248296286182,0.00219620776480396,-0.000523968855543571,-0.00368168031148262,0.040445839211698,0,0,0.487499999824948
0.1,-0.00185485651130581,0.00214302272331326,0.00230149167035804,-0.000147926537471043,-0.00378409581942297,0.0421135622216328,0,0,0.49999999988326
0.1025,-0.00185561727651531,0.0021335158077834,0.0024108766781898,-0.00030430608380174,-0.00380276621194345,0.0437540031327059,0,0,0.512499999883257
0.105,-0.00185662223288656,0.00212393171038421,0.00252287593666153,-0.000401982548500324,-0.00383363895967659,0.0447997033886911,0,0,0.524999999883254
0.1075,-0.00185725195033511,0.00211421721567491,0.00263818461186794,-0.000251886979418821,-0.00388579788372014,0.0461234700825645,0,0,0.537499999912408
0.11,-0.0018581689943749,0.00210376772181397,0.00275776340687013,-0.00036681761591552,-0.00417979754437815,0.0478315180008761,0,0,0.549999999941563
0.1125,-0.00185967739153216,0.00209248337975837,0.00288143998522107,-0.000603358862905859,-0.00451373682224078,0.0494706313403732,0,0,0.562499999970717
0.115,-0.0018614234697246,0.00208119817838767,0.00300845625968159,-0.000698431276973788,-0.00451408054827874,0.0508065097842078,0,0,0.574999999941557
0.1175,-0.00186327455359651,0.00206959286890103,0.00378330081325836,-0.000740433548763012,-0.00464212379465396,0.0521892818212664,0,0,0.58749999988324
0.12,-0.00186497971467011,0.00205743550458395,0.0039157371364386,-0.00068206442944162,-0.00486294572683193,0.0529745292720934,0,0,0.59999999985408
0.1225,-0.00186668966420308,0.0020451752025121,0.00405232834009481,-0.000683979813187912,-0.00490412082874322,0.0546364814624862,0,0,0.612499999883234
0.125,-0.00186860027963949,0.00203246805973597,0.00419212308348579,-0.000764246174566157,-0.00508285711044845,0.0559178973563895,0,0,0.624999999912389
0.1275,-0.00187077619977137,0.00201909558380391,0.00433576004605955,-0.000870368052748824,-0.00534899037282486,0.0574547850295057,0,0,0.637499999883229
0.13,-0.00187428423438836,0.00200517046561985,0.00448293313064212,-0.00140321384679952,-0.00557004727362473,0.0588692338330266,0,0,0.649999999883226
0.1325,-0.00187752800254688,0.00199049061893483,0.00463383580372021,-0.00129750726340466,-0.00587193867400878,0.0603610692312356,0,0,0.662499999883223
0.135,-0.00188141526597249,0.00197535772973848,0.00478896572614616,-0.0015549053702441,-0.00605315567853805,0.062051968970383,0,0,0.674999999854063
0.1375,-0.00188408513009719,0.00196032855413213,0.00399439745111494,-0.00106794564988096,-0.00601167024254058,0.0634071678555687,0,0,0.687499999854061
0.14,-0.0018870753691972,0.00194610173134098,0.00415572127828112,-0.00119609564000314,-0.00569072911646278,0.064529530866473,0,0,0.699999999854057
0.1425,-0.00189005463204219,0.00193160292530776,0.00432162876846851,-0.00119170513799809,-0.00579952241328775,0.0663629960749567,0,0,0.712499999824898
0.145,-0.00189200842024715,0.00191598011696854,0.00449128500239109,-0.000781515281981194,-0.00624912333568719,0.0678624935690325,0,0,0.724999999824895
0.1475,-0.00189382799644213,0.0019004284930055,0.00466419932561077,-0.000727830477995264,-0.00622064958521472,0.0691657292878691,0,0,0.737499999824892
0.15,-0.00189499696584044,0.00188334578697152,0.00484034421317271,-0.000467587759323267,-0.00683308241359402,0.0704579550247771,0,0,0.749999999824889
0.1525,-0.00189670794692947,0.00186608752496956,0.0050208669832078,-0.000684392435612251,-0.00690330480078174,0.0722091080140377,0,0,0.762499999824886
0.155,-0.00189873829353043,0.00184893238893585,0.00520705271445578,-0.000812138640381338,-0.00686205441348615,0.0744742924991895,0,0,0.774999999824883
0.1575,-0.00190037799727806,0.00183085575358286,0.00475866320779586,-0.000655881499055394,-0.00723065414119317,0.0759600108779024,0,0,0.787499999854038
0.16,-0.00190140597190443,0.00181360911506485,0.00495223893099978,-0.000411189850546584,-0.00689865540720731,0.077430289281568,0,0,0.799999999854035
0.1625,-0.00190297708577263,0.0017961631435717,0.00515042698985343,-0.000628445547277979,-0.00697838859725888,0.0792752235414604,0,0,0.812499999854032
0.165,-0.00190642170819281,0.00177873794791993,0.00535267852134623,-0.00137784896807381,-0.00697007826070906,0.0809006125971198,0,0,0.824999999854029
0.1675,-0.00190929156543374,0.001761184682323,0.00556033929412437,-0.00114794289637215,-0.00702130623876968,0.0830643091112555,0,0,0.837499999883184
0.17,-0.00191155224451772,0.00174413698074954,0.00577228801833434,-0.000904271633590281,-0.006819080629386,0.084779489683988,0,0,0.849999999912338
0.1725,-0.00191615679992342,0.00172686855860629,0.00598908154029004,-0.00184182216228305,-0.00690736885729779,0.0867174087822808,0,0,0.862499999941492
0.175,-0.00192118717029349,0.00170913736702681,0.00620894218790163,-0.00201214814802756,-0.00709247663179127,0.0879442590446361,0,0,0.874999999970647
0.1775,-0.00192577450176094,0.0016911856777369,0.00845309540125964,-0.00183493258697894,-0.00718067571596364,0.0894253189344222,0,0,0.887499999999801
0.18,-0.00193157019501758,0.00167236732570602,0.00868033535421799,-0.0023182773026554,-0.00752734081235211,0.0908959811833387,0,0,0.899999999999798
0.1825,-0.00193692703741956,0.00165310420191701,0.00891203276509387,-0.0021427369607918,-0.00770524951560388,0.0926789643503545,0,0,0.912500000028953
0.185,-0.00194173206322229,0.00163354247146438,0.00914836661299765,-0.0019220103210941,-0.00782469218105357,0.0945335391615101,0,0,0.925000000058107
0.1875,-0.00194555122864225,0.00161365910991368,0.00938881932132365,-0.00152766616798291,-0.00795334462028173,0.096181083330402,0,0,0.937500000058104
0.19,-0.00194912620636166,0.00159308395219486,0.00963360408856153,-0.00142999108776576,-0.00823006308752844,0.0979139068951498,0,0,0.950000000028944
0.1925,-0.00195295819919489,0.00157205846744472,0.00988251253058523,-0.00153279713328862,-0.0084101939000558,0.0995633768094822,0,0,0.962499999999784
0.195,-0.00195679449975277,0.00154950398911776,0.0101362015310399,-0.00153452022315445,-0.00902179133078236,0.101475600181883,0,0,0.974999999999781
0.1975,-0.000424730129513839,0.00499722510836267,0.0101859828752933,-0.00164833149311407,-0.0084720538094947,0.103035045552234,0,0,0.987499999999778
0.2,-0.000428679741106227,0.00497523435763859,0.010446508648994,-0.00157984463695501,-0.00879630028963233,0.10421030948026,0,0,0.999999999999775
0.2025,-0.000432874726006373,0.00495283187606639,0.0107109107852522,-0.00167799396005858,-0.00896099262887811,0.105760854503301,0,0,1.01249999999977
0.205,-0.000436617790897328,0.0049286962219877,0.0109787757304838,-0.00149722595638206,-0.00965426163147768,0.107145978092626,0,0,1.02499999999977
0.2075,-0.000439798665653349,0.00490359128463669,0.0112512627930102,-0.0012723499024084,-0.0100419749404017,0.10899482501057,0,0,1.03749999997061
0.21,-0.000442898234870038,0.00487777021824278,0.0115288913630403,-0.00123982768667538,-0.0103284265575635,0.111051428012022,0,0,1.04999999997061
0.2125,-0.000445216741324711,0.00485130608977941,0.0118113455013914,-0.000927402581869296,-0.010585651385349,0.112981655340472,0,0,1.0624999999706
0.215,-0.000447483493076847,0.0048245035065215,0.0120980892011886,-0.000906700700854652,-0.0107210333031645,0.114697479918877,0,0,1.07499999999976
0.2175,-0.000449076177225296,0.00479717510435694,0.0111633985660945,-0.000637073659379336,-0.0109313608658229,0.116269206480816,0,0,1.08749999999976
0.22,-0.000450496715178702,0.0047690586664841,0.0114591505552454,-0.000568215181362654,-0.0112465751491373,0.118300795660369,0,0,1.0999999999706
0.2225,-0.000451785748802512,0.00474080080327276,0.011759602444946,-0.000515613449523649,-0.0113031452845362,0.120180755880258,0,0,1.11249999997059
0.225,-0.000453266957104855,0.00471240006379366,0.0120645445907974,-0.000592483320937349,-0.0113602957916418,0.121976858340533,0,0,1.12499999999975
0.2275,-0.000455044335419436,0.00468380094286276,0.0123733431915568,-0.000710951325832603,-0.0114396483723603,0.12351944030376,0,0,1.1375000000289
0.23,-0.000456918630376866,0.00465535582596343,0.0126867163280459,-0.000749717982971881,-0.0113780467597324,0.125349254595641,0,0,1.1500000000289
0.2325,-0.000459202993682342,0.00462603778100939,0.0130032784010537,-0.000913745322190384,-0.0117272179816164,0.126624829203148,0,0,1.16249999999974
0.235,-0.000461365464973715,0.00459573010214937,0.0133237092789705,-0.000864988516549052,-0.012123071544006,0.128172351166701,0,0,1.17499999999974
0.2375,-0.000462863611131551,0.00456486187693066,0.0137147931938269,-0.000599258463134398,-0.0123472900874858,0.129800261710194,0,0,1.18749999999973
0.24,-0.00046423390622273,0.00453388033328496,0.014044935243761,-0.00054811803647191,-0.0123926174582801,0.132056819973635,0,0,1.19999999999973
0.2425,-0.000465509554121501,0.00450148196365473,0.0143799162185765,-0.000510259159508368,-0.0129593478520885,0.13399238992623,0,0,1.21249999999973
0.245,-0.000466318532817945,0.00446965812527129,0.0147194055326748,-0.000323591478577291,-0.012729535353377,0.135795725639303,0,0,1.22499999997057
0.2475,-0.000468207136208956,0.00443788186649974,0.0150625675259339,-0.000755441356404731,-0.0127105035086213,0.137264797303654,0,0,1.23749999994141
0.25,-0.000470312309673047,0.00440577283980594,0.0154103156126802,-0.000842069385636288,-0.0128436106775176,0.139099234698523,0,0,1.24999999994141
0.2525,-0.000472751778493615,0.00437459436103973,0.0157621904561634,-0.000975787528227186,-0.0124713915064848,0.140749937393258,0,0,1.2624999999414
0.255,-0.000475580183132285,0.00434354792121311,0.0161184462779916,-0.00113136185546783,-0.0124185759306479,0.142502328731301,0,0,1.2749999999414
0.2575,-0.000478503491192733,0.00431272911858143,0.0174274221357323,-0.00116932322417933,-0.0123275210526724,0.144516378729797,0,0,1.28749999991224
0.26,-0.00048222580448824,0.00428001040821901,0.0177931441477715,-0.00148892531820297,-0.0130874841449681,0.146288804815697,0,0,1.29999999991224
0.2625,-0.00048713252675767,0.0042467950653668,0.0181630212783959,-0.00196268890777168,-0.0132861371408848,0.147950852249753,0,0,1.31249999994139
0.265,-0.000491844237646676,0.00421223849150788,0.0185369920132494,-0.00188468435560258,-0.0138226295435659,0.149588293941414,0,0,1.32499999994139
0.2675,-0.000496168286842931,0.0041761147935033,0.0189155133273176,-0.00172961967850185,-0.0144494792018329,0.151408525627266,0,0,1.33749999991223
0.27,-0.000500744859563345,0.0041388311176194,0.0192996792469884,-0.00183062908816555,-0.0149134703535604,0.153666367868326,0,0,1.34999999991223
0.2725,-0.000504771525401241,0.00410106933856255,0.0196883964874526,-0.00161066633515855,-0.0151047116227402,0.155486896185686,0,0,1.36249999988307
0.275,-0.000508384657418028,0.00406332319149545,0.0200818722822208,-0.00144525280671495,-0.0150984588268424,0.157390317907279,0,0,1.37499999985391
0.2775,-0.000512302705831222,0.00402492588950272,0.0226931411930805,-0.00156721936527756,-0.0153589207970922,0.159147719584568,0,0,1.3874999998539
0.28,-0.000516532012891623,0.00398646623782603,0.0230950277729843,-0.00169172282416017,-0.0153838606706762,0.160754631961526,0,0,1.39999999988306
0.2825,-0.000521566256426849,0.00394770023947027,0.023500988615273,-0.00201369741409064,-0.0155063993423013,0.162384336915476,0,0,1.41249999991221
0.285,-0.000525326597699796,0.00390903564736657,0.0239112439316169,-0.00150413650917853,-0.0154658368414824,0.164102126537576,0,0,1.42499999994137
0.2875,-0.000528560394880983,0.00386963474333355,0.0243250947872129,-0.00129351887247504,-0.0157603616132056,0.16554034223841,0,0,1.43749999994136
0.29,-0.000531504961923051,0.00382930000482317,0.0247433709643717,-0.00117782681682728,-0.0161338954041537,0.167310470863519,0,0,1.44999999997052
0.2925,-0.000534864152331476,0.00378888508313781,0.0251658042597266,-0.00134367616336976,-0.0161659686741439,0.16897331814196,0,0,1.46249999994136
0.295,-0.000538288589830249,0.00374830595499093,0.0255932885921639,-0.00136977499950927,-0.0162316512587529,0.17099373297491,0,0,1.4749999999122
0.2975,0.00528712864397643,0.00609348853804561,0.0246335465902903,0.000334570427717464,-0.0153589644162434,0.172484183799686,0,0,1.4874999999122
0.3,0.00528919287229979,0.00605588566253435,0.0250688706439443,0.000825691329342706,-0.015041150204506,0.174129621461634,0,0,1.49999999988304
0.3025,0.00529110817020277,0.00601801350755939,0.0255090133130463,0.000766119161191718,-0.0151488619899844,0.17605706764077,0,0,1.51249999991219
0.305,0.00529382071914494,0.005979377799104,0.025954413352706,0.00108501957686795,-0.0154542833821543,0.178160015863877,0,0,1.52499999991219
0.3075,0.00529566050008087,0.00594004716099389,0.0264043016508886,0.000735912374372552,-0.015732255244042,0.179955319273047,0,0,1.53749999988303
0.31,0.00529754133835209,0.00590100494143907,0.0268602216040936,0.000752335308490149,-0.0156168878219295,0.182367981282013,0,0,1.54999999985387
0.3125,0.00529939718870845,0.0058610863944981,0.027320707660634,0.000742340142542722,-0.0159674187763861,0.184194422616141,0,0,1.56249999985386
0.315,0.00530118898075749,0.00582012731977975,0.027785210047049,0.000716716819614265,-0.0163836298873401,0.185800954566019,0,0,1.57499999985386
0.3175,0.00530366233223236,0.00577882652411082,0.0285054555367314,0.000989340589951386,-0.0165203182675733,0.188020919829763,0,0,1.58749999988302
0.32,0.0053052189891781,0.00573845737983115,0.0289803680193581,0.000622662778295392,-0.0161476577118696,0.189964993050683,0,0,1.59999999988301
0.3225,0.00530602634103653,0.00569801148590056,0.0294602963761741,0.000322940743370469,-0.0161783575722359,0.191971342726361,0,0,1.61249999985385
0.325,0.00530763289339483,0.00565605746891658,0.0299461897323721,0.000642620943319722,-0.016781606793593,0.194357342479201,0,0,1.62499999982469
0.3275,0.00530935180584607,0.00561408464727104,0.0304377968238485,0.00068756498049588,-0.0167891286582137,0.196642836590562,0,0,1.63749999982469
0.33,0.00531053060750425,0.00557202574698231,0.0309340509268768,0.000471520663271552,-0.016823560115491,0.198501641211349,0,0,1.64999999982469
0.3325,0.00531144060506209,0.00552954998824091,0.0314361005287599,0.000363999023134901,-0.0169903034965617,0.200819840753245,0,0,1.66249999985384
0.335,0.0053120374123741,0.00548611449923003,0.0319438795231402,0.000238722924807706,-0.0173741956043522,0.203111597752085,0,0,1.674999999883
0.3375,0.00531177094962157,0.00544263240529124,0.0318737177791972,-0.000106585101012589,-0.0173928375755177,0.20508017482594,0,0,1.68749999991215
0.34,0.00531158356440724,0.0053982381887516,0.032391393082263,-7.49540857330981e-05,-0.0177576866158558,0.207070121226314,0,0,1.69999999991215
0.3425,0.00530996691901785,0.00535408265961149,0.0329147249109174,-0.000646658155757178,-0.0176622116560419,0.209332731461768,0,0,1.71249999991214
0.345,0.00530741434645911,0.00530812869460153,0.0334432168616888,-0.00102102902349291,-0.0183815860039845,0.211396780308545,0,0,1.7249999999413
0.3475,0.00530489109376666,0.00526138818065745,0.0339761848251433,-0.00100930107698337,-0.0186962055776333,0.213187185381809,0,0,1.73749999997045
0.35,0.0053018578948473,0.00521339060453317,0.0345140941906788,-0.00121327956774406,-0.0191990304497109,0.215163746214199,0,0,1.74999999997045
0.3525,0.00529902766851907,0.0051651694840823,0.0350563619048343,-0.00113209053129047,-0.0192884481803467,0.216907085662203,0,0,1.76249999994129
0.355,0.00529517160220686,0.00511578012565261,0.0356031343209618,-0.00154242652488288,-0.0197557433718753,0.218708966450993,0,0,1.77499999994129
0.3575,0.00529115415929064,0.00506575951854922,0.0362481489617565,-0.00160697716648875,-0.0200082428413585,0.220917462651791,0,0,1.78749999994128
0.36,0.00528740706153425,0.00501551678013095,0.036805510173171,-0.00149883910255797,-0.0200970953673086,0.222944484565786,0,0,1.79999999994128
0.3625,0.00528322667786483,0.00496472847327266,0.0373680363323859,-0.0016721534677643,-0.0203153227433168,0.225010463685966,0,0,1.81249999994128
0.365,0.00527860853707096,0.00491231036337097,0.0379350077525326,-0.00184725631755011,-0.0209672439606725,0.226788568058687,0,0,1.82499999997043
0.3675,0.00527464346023953,0.00485930591808307,0.0385065820881092,-0.00158603073256974,-0.0212017781151614,0.228629734230606,0,0,1.83749999999959
0.37,0.00527032130136065,0.00480618320450312,0.0390837954114932,-0.00172886355155504,-0.0212490854319821,0.230885329353608,0,0,1.84999999999959
0.3725,0.00526664366937701,0.00475296010960753,0.0396661847813729,-0.00147105279345596,-0.0212892379582323,0.232955747951877,0,0,1.86249999997043
0.375,0.00526195542552117,0.00469818179450032,0.040253169842067,-0.00187529754233672,-0.0219113260428843,0.234794024277657,0,0,1.87499999994127
0.3775,0.00525599367075397,0.00464332874233077,0.0402156542434989,-0.00238470190687701,-0.021941220867821,0.237279894569613,0,0,1.88749999994126
0.38,0.00525055157798178,0.00458830493576968,0.0408146487540936,-0.00217683710887761,-0.0220095226244374,0.239597804237875,0,0,1.89999999994126
0.3825,0.00524414377264869,0.0045331572912766,0.0414194401025723,-0.00256312213323495,-0.022059057797232,0.241916539391483,0,0,1.91249999994126
0.385,0.00523767006314321,0.00447650086741778,0.0420293294886475,-0.00258948380219131,-0.022662569543529,0.243955754430087,0,0,1.92499999997041
0.3875,0.00523037694633063,0.00441861584704047,0.0426443573031113,-0.00291724672503516,-0.0231540081509206,0.246011125785496,0,0,1.93749999999957
0.39,0.00522331487003657,0.00436040879560249,0.0432658053405171,-0.00282483051762308,-0.0232828205751943,0.248579214962351,0,0,1.94999999999956
0.3925,0.00521621913645336,0.00430171589540476,0.0438928375538164,-0.00283829343328169,-0.0234771600790914,0.250812885319701,0,0,1.96249999999956
0.395,0.00520889024283375,0.00424280626184549,0.0445246808581679,-0.00293155744784384,-0.0235638534237061,0.252737321740614,0,0,1.97500000002872
0.3975,0.00973552269846382,0.00271301861165683,0.0410514470745804,-0.00121658712529723,-0.0244597566791667,0.253427248103133,0,0,1.98750000005787
0.4,0.00973221841720169,0.00265108555637954,0.0416904893931589,-0.00132171250485102,-0.0247732221109173,0.25561692743138,0,0,2.00000000005787
0.4025,0.00972816515654939,0.00258925718729193,0.0423343890577317,-0.00162130426091919,-0.0247313476350427,0.257559865829114,0,0,2.01250000005786
0.405,0.00972344486839865,0.00252569845091107,0.0429837368227417,-0.0018881152602954,-0.0254234945523444,0.259739106004016,0,0,2.02500000008702
0.4075,0.0097179945616274,0.00246190416767906,0.0436391201475891,-0.00218012270850169,-0.0255177132928055,0.262153329938949,0,0,2.03750000008702
0.41,0.00971269375907707,0.0023968882122269,0.0443004782904749,-0.00212032102013211,-0.0260063821808641,0.264543257154331,0,0,2.05000000008701
0.4125,0.00970714613579466,0.00233187162668331,0.0449688171330625,-0.00221904931296404,-0.0260066342174341,0.267335537035021,0,0,2.06250000008701
0.415,0.00970126083830541,0.0022656682374231,0.045642667996149,-0.00235411899569994,-0.0264813557040842,0.269540345234615,0,0,2.07500000011616
0.4175,0.00969532900754619,0.00219967030077793,0.0466249020082254,-0.00237273230368813,-0.0263991746580694,0.271590850893851,0,0,2.08750000011616
0.42,0.00968894857766214,0.00213236056654405,0.0473087661713939,-0.00255217195361995,-0.0269238936935524,0.273545665267378,0,0,2.100000000087
0.4225,0.0096822570687665,0.00206469924004606,0.0479975631609851,-0.00267660355825681,-0.0270645305991941,0.275518795836495,0,0,2.112500000087
0.425,0.00967537764126524,0.00199586156123288,0.0486926604273365,-0.00275177100050309,-0.0275350715252717,0.278038906540577,0,0,2.12500000011615
0.4275,0.00966861554806286,0.00192568022424198,0.0493916772953698,-0.00270483728095221,-0.0280725347963586,0.27960674721332,0,0,2.13750000011615
0.43,0.00966203453691185,0.00185467337861406,0.0500957723429702,-0.00263240446040383,-0.0284027382511683,0.281638019040155,0,0,2.15000000008699
0.4325,0.00965591886773667,0.00178168811795698,0.0508058088180934,-0.00244626767007225,-0.0291941042628353,0.28401459004929,0,0,2.16250000008699
0.435,0.00964966010975124,0.00170794358648498,0.0515212278697601,-0.00250350319417285,-0.0294978125887982,0.28616762066666,0,0,2.17500000008698
0.4375,0.00964300031430296,0.00163430420233485,0.0520140127357087,-0.00266391817931208,-0.0294557536600539,0.288005249277768,0,0,2.18750000008698
0.44,0.00963766255479863,0.00155962048440325,0.0527392390839143,-0.00213510380173203,-0.0298734871726372,0.290090539282239,0,0,2.20000000011614
0.4425,0.00963208594545547,0.00148492992286349,0.0534702415829511,-0.00223064373726156,-0.029876224615904,0.292400999614697,0,0,2.21250000011613
0.445,0.00962529512653736,0.00141028950885253,0.0542059917456414,-0.00271632756724312,-0.0298561656043857,0.294300065076122,0,0,2.22500000011613
0.4475,0.00961858200397646,0.00133498599721401,0.0549477439546758,-0.00268524902436124,-0.0301214046554074,0.296700883613764,0,0,2.23750000017444
0.45,0.00961249865872777,0.00125975075132649,0.0556956077273349,-0.00243333809947765,-0.0300940983550073,0.299145509063645,0,0,2.25000000023275
0.4525,0.00960509993803919,0.00118349278036877,0.0564484102870142,-0.00295948827543081,-0.0305031883830899,0.301121023871726,0,0,2.26250000026191
0.455,0.00959691962514672,0.00110616820154731,0.0572066979080398,-0.0032721251569869,-0.0309298315285811,0.303315048410242,0,0,2.27500000026191
0.4575,0.00958746489982382,0.00102928026747694,0.0560808013549013,-0.00378189012915891,-0.0307551736281514,0.305290396775429,0,0,2.2875000002619
0.46,0.00957834543548053,0.000952154009182353,0.0568498140849396,-0.00364778573731585,-0.030850503317833,0.307605092015305,0,0,2.3000000002619
0.4625,0.00956814091162386,0.000874789122676082,0.0576228340718287,-0.00408180954266913,-0.0309459546025082,0.309207994755658,0,0,2.3125000002619
0.465,0.00955662141447922,0.000796767440361563,0.0584020726063384,-0.0046077988578573,-0.0312086729258077,0.311695413803871,0,0,2.3250000002619
0.4675,0.00954514069642805,0.000717633732389958,0.0591868607185183,-0.00459228722046565,-0.0316534831886422,0.313915244871937,0,0,2.33750000026189
0.47,0.00953192747312633,0.000637736475296311,0.0599771878328493,-0.00528528932069134,-0.0319589028374589,0.31613084573243,0,0,2.35000000026189
0.4725,0.00951874542122554,0.000557520098864259,0.0607743014907989,-0.00527282076031206,-0.0320865505728205,0.318845463179815,0,0,2.36250000023273
0.475,0.00950532566465406,0.000476821546784129,0.0615764330375433,-0.00536790262859348,-0.0322794208320523,0.320852618697756,0,0,2.37500000020357
0.4775,0.00949150335423378,0.000395375193828059,0.0610898479156369,-0.00552892416811316,-0.0325785411824278,0.323014445658629,0,0,2.38750000014525
0.48,0.0094770621703372,0.00031362419711488,0.0619038678842009,-0.0057764735586292,-0.0327003986852715,0.325607987425612,0,0,2.40000000014525
0.4825,0.00946185508194743,0.000231763085131493,0.062723145296201,-0.00608283535591003,-0.0327444447933548,0.327710964800006,0,0,2.41250000011609
0.485,0.00944752947352147,0.000148752092228862,0.0635485270465027,-0.00573024337038523,-0.0332043971610527,0.330152700120678,0,0,2.42500000008693
0.4875,0.00943185501818162,6.5282934645851e-05,0.0643790002483064,-0.00626978213593664,-0.0333876630332043,0.332189280721478,0,0,2.43750000008693
0.49,0.00941592312876348,-1.80174248615769e-05,0.0652169064077322,-0.00637275576725924,-0.0333201438029712,0.335162463770357,0,0,2.45000000008692
0.4925,0.00940004857052898,-0.000102026928720017,0.0660607532450014,-0.00634982329379678,-0.0336038015433762,0.337538734907684,0,0,2.46250000011608
0.495,0.00938454735012022,-0.000186379155741721,0.0669107343396372,-0.00620048816350687,-0.0337408908086815,0.339992437854319,0,0,2.47500000011608
0.4975,0.011554078371196,0.00385136894264826,0.0642273789755562,-0.00553585542546574,-0.0323864709784013,0.340869445152813,0,0,2.48750000011607
0.5,0.0115404079582029,0.00377015351762174,0.0650869504386779,-0.00546816519724482,-0.0324861700106057,0.343828585248671,0,0,2.50000000011607
0.5025,0.0115261720875924,0.00368936586737176,0.065953033758252,-0.00569434824419896,-0.0323150600999945,0.346433327829656,0,0,2.51250000008691
0.505,0.0115111271726368,0.00360818235127272,0.0668254194364458,-0.00601796598224248,-0.032473406439615,0.348954271277488,0,0,2.52500000005775
0.5075,0.0114953080680852,0.00352653186599727,0.0677033135452779,-0.00632764182060107,-0.0326601941101782,0.351157643532858,0,0,2.53749999999943
0.51,0.0114796903761477,0.00344496409955073,0.068586972268999,-0.00624707677500256,-0.0326271065786179,0.353463489488455,0,0,2.54999999999943
0.5125,0.0114638579479885,0.00336410740912468,0.0694756499072061,-0.0063329712637007,-0.0323426761704199,0.355471055282836,0,0,2.56249999999943
0.515,0.0114490434373766,0.00328139689083881,0.0703701315445743,-0.00592580424477331,-0.0330842073143474,0.357792654947291,0,0,2.57500000002858
0.5175,0.0114342427556887,0.00319793281717454,0.0697751979533999,-0.00592027267514531,-0.0333856294657062,0.360144363827006,0,0,2.58750000005774
0.52,0.0114201393923414,0.00311397994656461,0.0706819968225438,-0.00564134533891068,-0.0335811482439719,0.362719547657579,0,0,2.60000000008689
0.5225,0.0114050485024354,0.00302935868175995,0.0715938984380255,-0.00603635596242048,-0.0338485059218672,0.364760646192695,0,0,2.61250000011605
0.525,0.0113890079968872,0.00294376370552799,0.072511665271987,-0.0064162022192694,-0.0342379904927803,0.367106733584578,0,0,2.62500000011604
0.5275,0.0113725101645106,0.00285741199369053,0.0734349244528946,-0.00659913295062942,-0.0345406847349859,0.369303672363042,0,0,2.63750000011604
0.53,0.0113555435932762,0.00277013739250389,0.0743636907399232,-0.00678662849375621,-0.034909840474654,0.371506514811425,0,0,2.65000000011604
0.5325,0.0113381915172792,0.0026830860309023,0.0752976812775117,-0.00694083039880109,-0.0348205446406389,0.373596215035417,0,0,2.66250000014519
0.535,0.0113202375259272,0.00259456814481344,0.0762379457032771,-0.00718159654082334,-0.0354071544355441,0.376105770306178,0,0,2.67500000014519
0.5375,0.0113020952937327,0.00250490167423728,0.0796097181204478,-0.0072568928777826,-0.0358665882304623,0.378659809464708,0,0,2.68750000011603
0.54,0.011282081075221,0.00241404571908829,0.0805622637162315,-0.00800568740468173,-0.0363423820595977,0.381018238313476,0,0,2.70000000008687
0.5425,0.0112619924745161,0.00232126600125307,0.0815208352419064,-0.0080354402819698,-0.0371118871340868,0.383428610269942,0,0,2.71250000005771
0.545,0.0112420431363841,0.00222735840650226,0.082484314020178,-0.00797973525277845,-0.0375630379003226,0.385391511308638,0,0,2.72500000005771
0.5475,0.0112222215103982,0.0021317508934804,0.0834536635329265,-0.0079286503943784,-0.0382430052087446,0.387739805099427,0,0,2.73750000008686
0.55,0.0112025251009445,0.00203617683526751,0.0844279977032792,-0.00787856378147377,-0.0382296232851584,0.389733668141058,0,0,2.75000000011602
0.5525,0.0111832294813974,0.00194029082289454,0.0854089998867599,-0.00771824781883752,-0.0383544049491854,0.392400873392303,0,0,2.76250000011601
0.555,0.0111641920933826,0.00184352989758333,0.086395536162711,-0.00761495520591112,-0.038704370124484,0.394614510380422,0,0,2.77500000011601
0.5575,0.0111451648671967,0.00174670155096945,0.087508307623391,-0.00761089047436804,-0.0387313386455544,0.396995065149067,0,0,2.78750000011601
0.56,0.011126615680974,0.00164819992010459,0.0885080177532751,-0.00741967448907467,-0.0394006523459428,0.399884051953642,0,0,2.800000000116
0.5625,0.0111075478520584,0.00154850173253669,0.089513773553095,-0.00762713156624962,-0.0398792750271597,0.402302319927952,0,0,2.81250000008684
0.565,0.0110887646077399,0.00144797339256759,0.0905254305908852,-0.00751329772739323,-0.0402113359876413,0.40466281511607,0,0,2.82500000005768
0.5675,0.0110695012685712,0.00134737855323009,0.0915427565835492,-0.00770533566747739,-0.0402379357350008,0.406930397065611,0,0,2.83750000005768
0.57,0.01104965795624,0.0012468423561188,0.0925661188353276,-0.00793732493247998,-0.0402144788445158,0.409344900711375,0,0,2.85000000008684
0.5725,0.011029733740515,0.00114500250845724,0.0935962465231707,-0.00796968629002058,-0.0407359390646233,0.412051075137219,0,0,2.86250000008683
0.575,0.0110092660138361,0.0010428871764342,0.0946311764652138,-0.00818709067154602,-0.0408461328092163,0.413971976817248,0,0,2.87500000008683
0.5775,0.0109885391110581,0.000941009725944308,0.0964683504168845,-0.0082907611112164,-0.0407509801959551,0.416368960133855,0,0,2.88750000008683
0.58,0.0109663828592602,0.00083776152899014,0.0975153732113835,-0.00886250071915908,-0.0412992787816673,0.418809117799586,0,0,2.90000000011598
0.5825,0.0109443436568066,0.000733090248333225,0.0985672791946732,-0.00881568098142117,-0.041868512262766,0.42076239331591,0,0,2.91250000014514
0.585,0.010922017372695,0.000627475633493757,0.099624727134384,-0.0089305136446433,-0.0422458459357874,0.422979175884318,0,0,2.92500000017429
0.5875,0.0108981331603102,0.000521669777996403,0.100688074882906,-0.00955368495392965,-0.0423223421989415,0.425339099408902,0,0,2.93750000020344
0.59,0.0108740705876636,0.000416126573282403,0.101758151253219,-0.00962502905864306,-0.0422172818856001,0.428030548124928,0,0,2.95000000020344
0.5925,0.0108514181364919,0.00030986927553065,0.102834310812371,-0.00906098046867503,-0.0425029191007009,0.430463823660771,0,0,2.96250000020344
0.595,0.0108287837355375,0.000202786921547928,0.103916741206746,-0.00905376038175482,-0.0428329415930891,0.432972157750121,0,0,2.97500000020344
0.5975,0.0120631129925856,0.000707731588402551,0.105896402293438,-0.00848895162078695,-0.0425163379103208,0.436445675516364,0,0,2.98750000020343
0.6,0.0120417409465505,0.000601184950898042,0.106993618177698,-0.00854881841407818,-0.0426186550018034,0.438886353703913,0,0,3.00000000020343
0.6025,0.0120204769797932,0.000494044313037165,0.108096410373735,-0.00850558670290997,-0.042856255144351,0.441116878414573,0,0,3.01250000023259
0.605,0.0119981226288459,0.000386382077537116,0.109204628816306,-0.00894174037892627,-0.0430648942000197,0.443287377028411,0,0,3.02500000020343
0.6075,0.0119763987504951,0.000277902189649097,0.110318526637795,-0.00868955134030774,-0.0433919551552072,0.445559128595604,0,0,3.03750000017426
0.61,0.0119554725792606,0.000169304473727228,0.11143907781822,-0.00837046849379958,-0.0434390863687477,0.448220472170299,0,0,3.05000000014511
0.6125,0.0119346298938655,5.94038219255012e-05,0.112566793080284,-0.0083370741580454,-0.0439602607206908,0.451086104825307,0,0,3.0625000001451
0.615,0.0119132203789155,-5.11829234330612e-05,0.113701835261595,-0.00856380598000906,-0.0442346981434249,0.454016872524515,0,0,3.0750000001451
0.6175,0.0118919699460823,-0.000162840576181982,0.113945138025164,-0.00850017313325872,-0.0446630610995684,0.45650171871354,0,0,3.0875000001451
0.62,0.0118703946973132,-0.000274891688328873,0.115092197549353,-0.00863009950765756,-0.0448204448587564,0.458823809675354,0,0,3.10000000017425
0.6225,0.0118473009344858,-0.000388042552686298,0.116246189069903,-0.00923750513096315,-0.0452603457429701,0.461596608220116,0,0,3.11250000017425
0.625,0.0118235266411111,-0.000501213406812498,0.117405952849394,-0.00950971734988161,-0.0452683416504799,0.463905511796648,0,0,3.12500000017425
0.6275,0.0117985322618676,-0.000615146435622063,0.118571490747191,-0.00999775169738414,-0.045573211523826,0.466215159118554,0,0,3.13750000017424
0.63,0.0117733706148267,-0.000730813200943894,0.119742453851095,-0.0100646588163491,-0.0462667061287325,0.46838524156171,0,0,3.15000000017424
0.6325,0.01174818978748,-0.000846776140060802,0.120918711952902,-0.0100723309386837,-0.046385175646763,0.470503240722603,0,0,3.16250000017424
0.635,0.0117226406498613,-0.000961997249340176,0.122101678409871,-0.0102196550474783,-0.0460884437117497,0.473186582787549,0,0,3.17500000017424
0.6375,0.0116963300834662,-0.00107837817328357,0.122499088240302,-0.010524226558049,-0.0465523695773584,0.475235598431959,0,0,3.18750000017423
0.64,0.0116701330034222,-0.00119659564797138,0.123694102782012,-0.0104788320176141,-0.0472869898751232,0.478005816683843,0,0,3.20000000020339
0.6425,0.0116441543874881,-0.00131521823061344,0.124894777481766,-0.0103914463736173,-0.0474490330568255,0.480269879901913,0,0,3.21250000020338
0.645,0.0116181104957363,-0.00143511598579739,0.126102657688679,-0.0104175567007341,-0.0479591020735786,0.483152082765258,0,0,3.22500000020338
0.6475,0.0115910633659272,-0.00155474626965931,0.127317157799409,-0.0108188519236125,-0.0478521135447691,0.485800044292019,0,0,3.23750000017422
0.65,0.0115626973410505,-0.00167538743775855,0.128537953695944,-0.0113464099507138,-0.0482564672396953,0.488318358613909,0,0,3.25000000020338
0.6525,0.0115328711200923,-0.0017961046998157,0.129765314136613,-0.0119304883832589,-0.0482869048228586,0.490944176267354,0,0,3.26250000023253
0.655,0.0115031712310209,-0.0019171478554065,0.130997943822408,-0.0118799556285663,-0.04841726223632,0.493051874318202,0,0,3.27500000023253
0.6575,0.0114718944894434,-0.00203952537940375,0.128242923203176,-0.0125106966309936,-0.0489510095988991,0.495889574981151,0,0,3.28750000023252
0.66,0.0114395660104772,-0.00216368354792205,0.129488800094945,-0.0129313915864827,-0.0496632674073202,0.498350756707795,0,0,3.30000000023252
0.6625,0.0114064352467835,-0.00228895863568099,0.130740950258639,-0.0132523054774664,-0.0501100351035769,0.500860065477588,0,0,3.31250000020336
0.665,0.0113733876788011,-0.00241449818135458,0.131999124711794,-0.0132190271929892,-0.0502158182694369,0.503269781261894,0,0,3.32500000020336
0.6675,0.011338981885838,-0.00254157464563837,0.133264054753425,-0.013762317185228,-0.050830585713514,0.505972016652508,0,0,3.3375000001742
0.67,0.0113040815646726,-0.0026694920815779,0.134534633685646,-0.0139601284661768,-0.0511669743758121,0.508231572888456,0,0,3.3500000001742
0.6725,0.0112682845504752,-0.00279914453515952,0.135811557614623,-0.0143188056789272,-0.0518609814326496,0.510769571590462,0,0,3.36250000017419
0.675,0.0112313294909635,-0.00292961046133846,0.137095381337453,-0.0147820238046816,-0.0521863704715764,0.513529489132017,0,0,3.37500000017419
0.6775,0.0111934855796814,-0.00306156912525025,0.137025641853255,-0.0151375645128573,-0.0527834655647156,0.515856651977831,0,0,3.38750000017419
0.68,0.0111548392454801,-0.00319428999834237,0.138321368949929,-0.0154585336805217,-0.0530883492368497,0.518290838669539,0,0,3.40000000017419
0.6825,0.0111152963401669,-0.00332712470545612,0.139623140926662,-0.015817162125282,-0.0531338828454997,0.520708790693227,0,0,3.41250000020334
0.685,0.0110757860567149,-0.00346116161907729,0.140931758180518,-0.0158041133807822,-0.0536147654484672,0.52344690154223,0,0,3.42500000023249
0.6875,0.0110355342572491,-0.00359538230245612,0.142246833110355,-0.01610071978632,-0.0536882733515328,0.526029971934974,0,0,3.43750000020333
0.69,0.0109936234074272,-0.00373003955920764,0.143568427870353,-0.0167643399287583,-0.0538629027006057,0.528637903999379,0,0,3.45000000020333
0.6925,0.0109518790845885,-0.003865659431332,0.144896647368268,-0.0166977291354905,-0.0542479488497466,0.531287799165778,0,0,3.46250000023249
0.695,0.0109087748336295,-0.00400199706550298,0.146232697986804,-0.0172417003835861,-0.0545350536683909,0.534420247414547,0,0,3.47500000023248
0.6975,0.0132867728569619,-0.00643747639851573,0.144996069345659,-0.0159123833751457,-0.0563763267180042,0.536004574590509,0,0,3.48750000023248
0.7,0.0132469404000127,-0.00657997769791329,0.146341614047653,-0.0159329827796735,-0.0570005197590244,0.538217880797282,0,0,3.50000000029079
0.7025,0.0132061287311919,-0.00672314744959359,0.147694292845231,-0.016324667528329,-0.057267900672122,0.541071519031378,0,0,3.51250000029079
0.705,0.0131646266591472,-0.00686630404894934,0.149054499442544,-0.0166008288178494,-0.0572626397422982,0.544082638925067,0,0,3.52500000029079
0.7075,0.0131232177604793,-0.00701054636101647,0.150421188355804,-0.0165635594671756,-0.057696924826851,0.546675565304274,0,0,3.53750000029078
0.71,0.0130808868278127,-0.00715577288202831,0.151794831359578,-0.0169323730666394,-0.0580906084047392,0.549457201509633,0,0,3.55000000031994
0.7125,0.0130376498767631,-0.00730194354923777,0.153174313331962,-0.0172947804198416,-0.058468266883781,0.551792788953452,0,0,3.56250000034909
0.715,0.0129943507705359,-0.00744922452718772,0.154560716101531,-0.017319642490886,-0.0589123911799831,0.554561107827713,0,0,3.57500000034909
0.7175,0.0129487270256361,-0.0075981007799954,0.152813469402325,-0.018249497959894,-0.0595505011230681,0.556984751084221,0,0,3.58750000037824
0.72,0.0129027973698008,-0.00774755228021814,0.15421354272122,-0.0183718623341386,-0.0597806000890987,0.560029327558333,0,0,3.60000000037824
0.7225,0.0128556528915433,-0.00789782932475718,0.15562064932746,-0.0188577913029866,-0.0601108178156134,0.562842642495862,0,0,3.61250000037824
0.725,0.0128081471947942,-0.00804893145649385,0.157034828053221,-0.0190022786996493,-0.0604408526946691,0.565671490304277,0,0,3.62500000034908
0.7275,0.0127594789674849,-0.00820046089087161,0.158455329605391,-0.0194672909237237,-0.0606117737511047,0.568200620867889,0,0,3.63750000034907
0.73,0.0127101720834603,-0.0083524893257972,0.159882229414487,-0.019722753609831,-0.0608113739702361,0.570759923638437,0,0,3.65000000034907
0.7325,0.0126598232556395,-0.00850560812806961,0.16131557021239,-0.0201395311283094,-0.061247520908963,0.573336319161531,0,0,3.66250000031991
0.735,0.0126095713854655,-0.00865980914532044,0.16275501066342,-0.0201007480696091,-0.0616804069003328,0.575776180411881,0,0,3.67500000031991
0.7375,0.0125594448502836,-0.00881507180626576,0.161598178639906,-0.0200506140727652,-0.0621050643781282,0.57844663031227,0,0,3.68750000034906
0.74,0.0125081952739876,-0.00897074611978718,0.163052285314933,-0.0204998305183989,-0.0622697254085668,0.581642670010605,0,0,3.7000000003199
0.7425,0.0124558569895091,-0.00912784584025703,0.164513936941811,-0.0209353137914169,-0.0628398881879394,0.584660650751445,0,0,3.71250000034906
0.745,0.0124019551336299,-0.00928615232705176,0.165982414093413,-0.0215607423516713,-0.0633225947178935,0.58739086064071,0,0,3.72500000034905
0.7475,0.0123466545549454,-0.00944551170916945,0.167457300463037,-0.0221202314738046,-0.0637437528470759,0.589954547849344,0,0,3.7375000003199
0.75,0.0122899221759013,-0.00960584465454312,0.168939155653184,-0.0226929516176396,-0.0641331781494696,0.592742076058797,0,0,3.75000000031989
0.7525,0.0122322556004544,-0.00976654845456983,0.170427617351409,-0.0230666301787611,-0.0642815200106815,0.595384679290213,0,0,3.76250000034905
0.755,0.0121733869161167,-0.00992825713072021,0.171924799640239,-0.0235474737350514,-0.0646834704601522,0.598872915531897,0,0,3.77500000031989
0.7575,0.0121134274684615,-0.0100914406719853,0.171993207187227,-0.0239837790621078,-0.0652734165060341,0.601139590798944,0,0,3.78750000029073
0.76,0.0120520264798925,-0.0102550600545487,0.173503482973324,-0.0245603954275884,-0.0654477530253776,0.604110314438542,0,0,3.80000000029072
0.7625,0.0119896770575019,-0.0104205485430825,0.175020072900332,-0.0249397689562438,-0.0661953954135151,0.606635970803364,0,0,3.81250000029072
0.765,0.0119256596551287,-0.0105877518124418,0.176543040736779,-0.025606960949293,-0.0668813077437145,0.609187134578771,0,0,3.82500000029072
0.7675,0.0118607516606668,-0.0107564257641003,0.17807292756234,-0.0259631977847417,-0.0674695806633934,0.61195473022422,0,0,3.83750000029072
0.77,0.0117954306227885,-0.0109257561955423,0.179610002412152,-0.0261284151513231,-0.0677321725768054,0.614829939924871,0,0,3.85000000029071
0.7725,0.0117298299582624,-0.0110963163523788,0.181153182645871,-0.0262402658104411,-0.0682240627345997,0.617272093487625,0,0,3.86250000029071
0.775,0.0116638381496194,-0.0112674697512939,0.182703125012748,-0.0263967234571931,-0.068461359566056,0.619976946750696,0,0,3.87500000029071
0.7775,0.0115960390966177,-0.0114397784455706,0.18211047207575,-0.0271196212006787,-0.0689234777106732,0.622240203651998,0,0,3.88750000026155
0.78,0.0115272479708267,-0.0116130944936321,0.183672886257087,-0.027516450316413,-0.0693264192245755,0.624965672535106,0,0,3.90000000026154
0.7825,0.0114586705625306,-0.0117886304867931,0.185243122201822,-0.0274309633184541,-0.0702143972644256,0.62809437789399,0,0,3.91250000026154
0.785,0.011388306110373,-0.0119649625367291,0.186820331485144,-0.0281457808630108,-0.0705328199743858,0.630883713328536,0,0,3.9250000002907
0.7875,0.0113167669808973,-0.012141645433166,0.188405422500534,-0.0286156517902788,-0.0706731585747807,0.634036406155954,0,0,3.9375000002907
0.79,0.0112442642995704,-0.0123198459259121,0.189996812418621,-0.0290010725307665,-0.0712801970984263,0.636555967235031,0,0,3.95000000029069
0.7925,0.011169794327934,-0.0124993843919355,0.191595316790821,-0.0297879886545658,-0.0718153864093364,0.639401748879903,0,0,3.96250000029069
0.795,0.0110940817839825,-0.0126802993440232,0.193200542238039,-0.0302850175806171,-0.0723659808350837,0.642090178887399,0,0,3.975000000349
0.7975,0.0133442156328164,-0.00694348854858473,0.191512116213685,-0.0293305387814636,-0.069421513755219,0.644691375554944,0,0,3.98750000037816
0.8,0.0132696746497732,-0.00711747870993715,0.19313056838731,-0.0298163932172881,-0.0695960645409692,0.647380869449852,0,0,4.00000000040731
0.8025,0.0131935670024196,-0.00729195828550826,0.194756038347384,-0.0304430589414363,-0.069791830228444,0.650187984029773,0,0,4.01250000046562
0.805,0.0131166943377568,-0.00746728509666134,0.196388049518336,-0.0307490658651212,-0.0701307244612314,0.652804468380639,0,0,4.02500000049478
0.8075,0.0130374641402732,-0.00764396903990727,0.198025825379041,-0.031692078993444,-0.0706735772983727,0.655110344282001,0,0,4.03750000043646
0.81,0.0129570216004162,-0.00782152886864673,0.199669547592495,-0.0321770159427877,-0.0710239314957804,0.657488885381727,0,0,4.05000000043646
0.8125,0.0128752078299877,-0.00799938028894274,0.201320157513311,-0.0327255081714062,-0.0711405681184047,0.66024396832639,0,0,4.06250000043645
0.815,0.0127910326481418,-0.00817776469214919,0.202976759618274,-0.0336700727383546,-0.0713537612825834,0.662640841985141,0,0,4.07500000040729
0.8175,0.0127054876765177,-0.00835755485123689,0.200450158695207,-0.0342179886496506,-0.0719160636350773,0.665451305577113,0,0,4.08750000040729
0.82,0.0126197889780855,-0.00853795820942119,0.202121164069763,-0.0342794793728636,-0.0721613432737216,0.668402149822444,0,0,4.10000000040729
0.8225,0.0125322731938389,-0.00871949525695237,0.203798146378356,-0.0350063136986326,-0.0726148190124693,0.670792923436979,0,0,4.11250000040729
0.825,0.0124436198086166,-0.00890259769651812,0.205481916154415,-0.0354613540889463,-0.0732409758262999,0.673507910423693,0,0,4.12500000043644
0.8275,0.0123533193017365,-0.0090860699608788,0.207172046471901,-0.0361202027520198,-0.0733889057442737,0.676052126994352,0,0,4.13750000046559
0.83,0.0122608830531453,-0.00926986621709626,0.208868880037399,-0.0369744994365048,-0.0735185024869819,0.678733426199179,0,0,4.15000000049475
0.8325,0.0121667800366688,-0.00945545525712535,0.21057302780404,-0.0376412065906015,-0.0742356160116357,0.681659106656465,0,0,4.1625000005239
0.835,0.0120707384725677,-0.00964167630799502,0.212284700136715,-0.0384166256404083,-0.0744884203478697,0.684668933070196,0,0,4.1750000005239
0.8375,0.0119741004849859,-0.00982879658149854,0.212083431664315,-0.0386551950327345,-0.0748481094014064,0.687358236544209,0,0,4.1875000005239
0.84,0.0118759938995103,-0.0100173238276983,0.213808449469961,-0.0392426341902295,-0.0754108984799195,0.690007122258704,0,0,4.20000000055305
0.8425,0.0117765684078359,-0.0102079876448931,0.215540903163509,-0.0397701966697835,-0.0762655268778951,0.692981477419025,0,0,4.21250000058221
0.845,0.0116756403525033,-0.0103997582063058,0.21728042769653,-0.0403712221330429,-0.0767082245650737,0.695809813208597,0,0,4.2250000005822
0.8475,0.0115733294712618,-0.0105916533724593,0.219027125911172,-0.0409243524965826,-0.0767580664614224,0.698679285856729,0,0,4.2375000005822
0.85,0.0114694464391942,-0.0107847566665974,0.22078137000217,-0.0415532128270362,-0.0772413176552278,0.701697636399145,0,0,4.2500000005822
0.8525,0.0113641068544827,-0.0109784535724735,0.222542815155972,-0.0421358338846267,-0.0774787623504422,0.704578061520778,0,0,4.26250000055304
0.855,0.0112586788482336,-0.0111722796890207,0.224312190175658,-0.0421712024996098,-0.0775304466188899,0.707750007874377,0,0,4.27500000055304
0.8575,0.0111512136668794,-0.0113670090230952,0.223578946710744,-0.0429860725416907,-0.0778917336297855,0.710550910201066,0,0,4.28750000055303
0.86,0.0110428475655422,-0.0115631233301665,0.225361163617011,-0.0433464405348848,-0.0784457228285221,0.71288676250672,0,0,4.30000000055303
0.8625,0.010932353832312,-0.0117584732959652,0.227150290083001,-0.0441974932920672,-0.0781399863195007,0.7156505863962,0,0,4.31250000058218
0.865,0.0108202726962061,-0.0119546016212166,0.228946334142485,-0.0448324544423532,-0.0784513301005576,0.718417623793403,0,0,4.32500000061134
0.8675,0.0107064168304347,-0.0121519232957864,0.230749570815958,-0.0455423463085806,-0.0789286698279184,0.721294669389025,0,0,4.33750000064049
0.87,0.0105913917778173,-0.0123508044248291,0.23256018416608,-0.0460100210469479,-0.0795524516170548,0.724245340049144,0,0,4.35000000066965
0.8725,0.0104751925306971,-0.0125505571076571,0.234377174901955,-0.0464796988480748,-0.0799010731312008,0.726796294349841,0,0,4.3625000006988
0.875,0.0103561292732549,-0.0127510299643789,0.236201617715667,-0.047625302976903,-0.0801891426887431,0.729777125484666,0,0,4.37500000066964
0.8775,0.0102349143004475,-0.0129523342024955,0.234951585736531,-0.0484859891229441,-0.0805216952466297,0.732341988819584,0,0,4.38750000066964
0.88,0.0101118123840575,-0.0131551666924069,0.236789722141064,-0.0492407665559908,-0.0811329959645591,0.735254561813014,0,0,4.4000000006988
0.8825,0.00998668479886442,-0.0133580824681432,0.23863521184903,-0.0500510340772469,-0.0811663102945298,0.738195883186251,0,0,4.41250000072795
0.885,0.00985930028381802,-0.0135613356757241,0.240486856254964,-0.0509538060185595,-0.0813012830323367,0.740657762373611,0,0,4.4250000007571
0.8875,0.00973052491099767,-0.0137665029729852,0.242346363145218,-0.0515101491281407,-0.0820669189044509,0.743802756101531,0,0,4.43750000078626
0.89,0.00960073038387928,-0.0139716158000124,0.244212082294787,-0.0519178108473536,-0.0820451308108682,0.746287659827891,0,0,4.45000000081541
0.8925,0.00947066720403732,-0.0141778289004292,0.246085271937007,-0.0520252719367865,-0.0824852401667509,0.749275856887888,0,0,4.46250000084457
0.895,0.00933989043951119,-0.0143850063676442,0.247965816495098,-0.0523107058104495,-0.0828709868859799,0.752217823236463,0,0,4.47500000084456
0.8975,0.0143961827897701,-0.0142960687442969,0.240999520833168,-0.0495719858898115,-0.0829502188296464,0.750293806060158,0,0,4.48750000084456
0.9,0.0142705152806539,-0.0145038503029211,0.242882000507373,-0.0502670036464562,-0.0831126234496705,0.752991869682063,0,0,4.50000000087372
0.9025,0.0141432335455312,-0.0147123829155102,0.244773386742134,-0.0509126940491085,-0.0834130450356469,0.756554493904652,0,0,4.51250000084456
0.905,0.0140148464271901,-0.0149216607871682,0.246672035511428,-0.0513548473364055,-0.0837111486631946,0.759459507717559,0,0,4.52500000084456
0.9075,0.0138841224942785,-0.015131319078349,0.248577400941606,-0.0522895731646452,-0.0838633164723224,0.762146172070872,0,0,4.53750000084455
0.91,0.0137516626983593,-0.0153422574234918,0.250489755931971,-0.0529839183677085,-0.0843753380571125,0.764941996146186,0,0,4.55000000084455
0.9125,0.0136175157565996,-0.0155533302330055,0.252408609536457,-0.0536587767038579,-0.0844291238054851,0.767541441794439,0,0,4.56250000087371
0.915,0.0134820855458556,-0.0157653956069835,0.25433518521415,-0.0541720842976267,-0.0848261495912079,0.77063027107708,0,0,4.5750000008737
0.9175,0.0133441725355008,-0.0159786796488698,0.252433011307822,-0.0551652041419006,-0.0853136167545175,0.773567037625767,0,0,4.58750000090286
0.92,0.0132050716974084,-0.0161939428495062,0.254375840967347,-0.0556403352369789,-0.0861052802545548,0.777131863809686,0,0,4.60000000090285
0.9225,0.0130643488882043,-0.0164101873674059,0.256326301147244,-0.0562891236816343,-0.0864978071598791,0.780184071958819,0,0,4.61250000087369
0.925,0.0129223435992222,-0.0166270245574743,0.258283626597552,-0.0568021155928252,-0.0867348760273482,0.782930180123343,0,0,4.62500000084453
0.9275,0.0127775265586062,-0.0168452661055487,0.260247498792254,-0.0579268162463869,-0.0872966192297453,0.785548877880875,0,0,4.63750000081537
0.93,0.0126310935269193,-0.0170649428919447,0.262218120686795,-0.058573212674765,-0.0878707145584157,0.788248757816498,0,0,4.65000000078621
0.9325,0.0124833773547322,-0.0172849999925104,0.264195696025744,-0.0590864688748649,-0.088022840226277,0.791030135579418,0,0,4.66250000078621
0.935,0.0123338945304615,-0.0175056543409825,0.266180057279021,-0.0597931297082522,-0.0882617393888366,0.793744501311024,0,0,4.67500000078621
0.9375,0.0121827080671304,-0.0177273741012996,0.262890104215242,-0.0604745853324558,-0.0886879041268581,0.796534145210675,0,0,4.68750000081536
0.94,0.0120301519375554,-0.0179493334243314,0.264888364743434,-0.0610224518300133,-0.0887837292126943,0.799304211276721,0,0,4.70000000081536
0.9425,0.0118765583474234,-0.0181729392315339,0.266893807033657,-0.0614374360527885,-0.0894423228810133,0.802176916089242,0,0,4.71250000081536
0.945,0.0117213488487606,-0.0183972388304297,0.268906464530499,-0.0620837994651112,-0.0897198395583242,0.805062998736752,0,0,4.72500000081536
0.9475,0.0115630142642201,-0.018621273909783,0.270925177709682,-0.0633338338162215,-0.0896140317413137,0.807485271673248,0,0,4.7375000007862
0.95,0.0114023855380062,-0.0188459918767544,0.272951219859362,-0.064251490485541,-0.0898871867885516,0.810416859871929,0,0,4.75000000078619
0.9525,0.0112387782145922,-0.0190728182693146,0.274984385677739,-0.0654429293656105,-0.0907305570240976,0.813266327350779,0,0,4.76250000075703
0.955,0.0110736469595605,-0.019300256057187,0.277025673576389,-0.0660525020126537,-0.0909751151489341,0.816515159459798,0,0,4.77500000072787
0.9575,0.0109067757121542,-0.0195274648695973,0.27475079477266,-0.0667484989625527,-0.090883524964129,0.819042475113949,0,0,4.78750000066955
0.96,0.010737138401048,-0.0197548331954514,0.276805044681692,-0.0678549244424752,-0.0909473303416649,0.82169996361283,0,0,4.8000000006404
0.9625,0.0105657652037181,-0.0199829194431479,0.278865874390316,-0.0685492789319446,-0.0912344990785848,0.82433188344982,0,0,4.81250000061123
0.965,0.0103923103536331,-0.0202110165131455,0.28093320789749,-0.0693819400339894,-0.09123882799903,0.826933402869461,0,0,4.82500000061123
0.9675,0.0102179086015881,-0.0204410383566733,0.283008216047993,-0.0697607008180187,-0.0920087374111321,0.830003260201113,0,0,4.83750000058207
0.97,0.0100414194093358,-0.0206717103589066,0.285090592074783,-0.070595676900919,-0.0922688008933353,0.832950410716114,0,0,4.85000000055291
0.9725,0.00986113067880566,-0.0209024305973688,0.287180149311106,-0.0721154922120532,-0.0922880953848635,0.835822894529028,0,0,4.86250000055291
0.975,0.00967884810859344,-0.0211337650399955,0.289276675238435,-0.0729130280848882,-0.0925337770506729,0.838610370931699,0,0,4.87500000055291
0.9775,0.00949578487302156,-0.0213666004213738,0.286854778965923,-0.0732252942287508,-0.0931341525513157,0.841577714543983,0,0,4.88750000058206
0.98,0.00931095461608187,-0.0215996911643331,0.288966765684788,-0.0739321027758774,-0.0932362971837168,0.844794687546265,0,0,4.9000000005529
0.9825,0.00912443003919911,-0.0218347660114127,0.291085686904683,-0.0746098307531053,-0.0940299388318522,0.847568487957819,0,0,4.91250000052374
0.985,0.00893578750674748,-0.0220708485603965,0.293210915893789,-0.0754570129806506,-0.0944330195935352,0.850091595642278,0,0,4.92500000052374
0.9875,0.00874543898738112,-0.0223060864144333,0.295343233538921,-0.0761394077465433,-0.0940951416146994,0.852927058053019,0,0,4.93750000055289
0.99,0.00855337366982223,-0.0225425816371387,0.297481861433939,-0.0768261270235551,-0.0945980890821773,0.855451158007207,0,0,4.95000000058205
0.9925,0.00835919120612552,-0.022779647318008,0.299626908992669,-0.0776729854786848,-0.0948262723477092,0.858019023491831,0,0,4.96250000058205
0.995,0.00816348592922306,-0.0230172006015742,0.301778613224471,-0.078282110760984,-0.0950213134264772,0.860681692720715,0,0,4.97500000055289
0.9975,0.00943669325757201,-0.0196601177438936,0.295207824794678,-0.0782078450276086,-0.0926387807995343,0.860074939047975,0,0,4.98750000055288
1,0.00924035833375279,-0.0198927614226862,0.297364480090119,-0.0785339695276877,-0.0930574715170266,0.862662118176377,0,0,5.00000000055288
1.0025,0.00904299138618052,-0.0201270550778047,0.299528448284066,-0.0789467790289076,-0.0937174620474176,0.865587277578779,0,0,5.01250000052372
1.005,0.00884393491784235,-0.0203631395884356,0.301700115304012,-0.0796225873352693,-0.0944338042523629,0.86866680797829,0,0,5.02500000052372
1.0075,0.00864355658934936,-0.0205995718131279,0.303879011170013,-0.0801513313971938,-0.0945728898768952,0.871558346400599,0,0,5.03750000052371
1.01,0.00844076803197671,-0.0208368124218366,0.306066777397473,-0.0811154229490606,-0.0948962434834804,0.875106490983707,0,0,5.05000000052371
1.0125,0.00823667475339738,-0.0210749031867074,0.308262529060169,-0.0816373114317345,-0.0952363059483382,0.878300665078672,0,0,5.06250000052371
1.015,0.00803043657833412,-0.0213142787705113,0.310466516793569,-0.0824952700253027,-0.0957502335215546,0.881595093360011,0,0,5.07500000052371
1.0175,0.00782198935616335,-0.021555070180082,0.308227923102833,-0.0833788888683101,-0.096316563828293,0.884253475185504,0,0,5.08750000055286
1.02,0.0076117938033386,-0.0217972741516927,0.310446407764826,-0.0840782211298996,-0.0968815886442743,0.887393864796879,0,0,5.10000000058202
1.0225,0.00739962072782341,-0.0220403301092359,0.312673406039296,-0.0848692302060757,-0.0972223830172725,0.890799309788319,0,0,5.11250000058201
1.025,0.00718541749516228,-0.0222838599682894,0.314908030148383,-0.0856812930644492,-0.0974119436214109,0.893849643634601,0,0,5.12500000058201
1.0275,0.00697018623776703,-0.022528836848377,0.317148441896175,-0.0860925029581012,-0.0979907520350399,0.896164699116788,0,0,5.13750000058201
1.03,0.00675327296463157,-0.0227741579410014,0.319396431251257,-0.086765309254183,-0.0981284370497528,0.899195742032857,0,0,5.15000000055285
