time,px,py,pz,vx,vy,vz,roll,pitch,yaw
0,0,0,-6.13125e-05,0,0,-0.024525,0,-0,0
0.0025,0,0,-0.0001839375,0,0,-0.04905,0,-0,0.0125000000291544
0.005,0,0,-0.000367875,0,0,-0.073575,0,-0,0.0250000000583087
0.0075,0,0,-0.000613125,0,0,-0.0981,0,-0,0.0375000000291488
0.01,0,0,-0.0009196875,0,0,-0.122625,0,-0,0.050000000029146
0.0125,0,0,-0.0012875625,0,0,-0.14715,0,-0,0.0625000000291432
0.015,0,0,-0.00171675,0,0,-0.171675,0,-0,0.0750000000582975
0.0175,0,0,-0.00220725,0,0,-0.1962,0,-0,0.0875000000874519
0.02,0,0,-0.0027590625,0,0,-0.220725,0,-0,0.100000000058292
0.0225,0,0,-0.0033721875,0,0,-0.24525,0,-0,0.112499999999975
0.025,0,0,-0.004046625,0,0,-0.269775,0,-0,0.124999999999972
0.0275,0,0,-0.004782375,0,0,-0.2943,0,-0,0.137500000029126
0.03,0,0,-0.0055794375,0,0,-0.318825,0,-0,0.150000000029124
0.0325,0,0,-0.0064378125,0,0,-0.34335,0,-0,0.162500000058278
0.035,0,0,-0.0073575,0,0,-0.367875,0,-0,0.17500000011659
0.0375,0,0,-0.0083385,0,0,-0.3924,0,-0,0.187500000145744
0.04,0,0,-0.0093808125,0,0,-0.416925,0,-0,0.200000000116584
0.0425,0,0,-0.0104844375,0,0,-0.44145,0,-0,0.212500000058267
0.045,0,0,-0.011649375,0,0,-0.465975,0,-0,0.225000000058264
0.0475,0,0,-0.012875625,0,0,-0.4905,0,-0,0.237500000087418
0.05,0,0,-0.0141631875,0,0,-0.515025,0,-0,0.250000000087416
0.0525,0,0,-0.0155120625,0,0,-0.53955,0,-0,0.262500000087413
0.055,0,0,-0.01692225,0,0,-0.564075,0,-0,0.275000000058253
0.0575,0,0,-0.01839375,0,0,-0.5886,0,-0,0.28750000005825
0.06,0,0,-0.0199265625,0,0,-0.613125,0,-0,0.300000000058247
0.0625,0,0,-0.0215206875,0,0,-0.63765,0,-0,0.312500000029087
0.065,0,0,-0.023176125,0,0,-0.662175,0,-0,0.325000000029085
0.0675,0,0,-0.024892875,0,0,-0.6867,0,-0,0.337500000029082
0.07,0,0,-0.0266709375,0,0,-0.711225,0,-0,0.349999999999922
0.0725,0,0,-0.0285103125,0,0,-0.73575,0,-0,0.362499999970762
0.075,0,0,-0.030411,0,0,-0.760275,0,-0,0.374999999970759
0.0775,0,0,-0.032373,0,0,-0.7848,0,-0,0.387499999941599
0.08,0,0,-0.0343963125,0,0,-0.809325,0,-0,0.399999999912439
0.0825,0,0,-0.0364809375,0,0,-0.83385,0,-0,0.412499999912436
0.085,0,0,-0.038626875,0,0,-0.858375,0,-0,0.424999999912433
0.0875,0,0,-0.040834125,0,0,-0.8829,0,-0,0.43749999991243
0.09,0,0,-0.0431026875,0,0,-0.907425,0,-0,0.449999999912428
0.0925,0,0,-0.0454325625,0,0,-0.931950000000001,0,-0,0.462499999912425
0.095,0,0,-0.04782375,0,0,-0.956475000000001,0,-0,0.474999999883265
0.0975,0,0,-0.05027625,0,0,-0.981000000000001,0,-0,0.487499999824948
0.1,0,0,-0.0527900625,0,0,-1.005525,0,-0,0.499999999795788
0.1025,0,0,-0.0553651875,0,0,-1.03005,0,-0,0.512499999795785
0.105,0,0,-0.058001625,0,0,-1.054575,0,-0,0.524999999854097
0.1075,0,0,-0.060699375,0,0,-1.0791,0,-0,0.537499999883251
0.11,0,0,-0.0634584375,0,0,-1.103625,0,-0,0.549999999854091
0.1125,0,0,-0.0662788125,0,0,-1.12815,0,-0,0.562499999883246
0.115,0,0,-0.0691605,0,0,-1.152675,0,-0,0.5749999999124
0.1175,0,0,-0.0721035,0,0,-1.1772,0,-0,0.587499999941554
0.12,0,0,-0.0751078125,0,0,-1.201725,0,-0,0.599999999970709
0.1225,0,0,-0.0781734375,0,0,-1.22625,0,-0,0.612499999941549
0.125,0,0,-0.081300375,0,0,-1.250775,0,-0,0.624999999883232
0.1275,0,0,-0.084488625,0,0,-1.2753,0,-0,0.637499999854072
0.13,0,0,-0.0877381875,0,0,-1.299825,0,-0,0.649999999883226
0.1325,0,0,-0.0910490625,0,0,-1.32435,0,-0,0.662499999854066
0.135,0,0,-0.09442125,0,0,-1.348875,0,-0,0.674999999795749
0.1375,0,0,-0.09785475,0,0,-1.3734,0,-0,0.687499999824904
0.14,0,0,-0.1013495625,0,0,-1.397925,0,-0,0.699999999854058
0.1425,0,0,-0.1049056875,0,0,-1.42245,0,-0,0.712499999824898
0.145,0,0,-0.108523125,0,0,-1.446975,0,-0,0.724999999795738
0.1475,0,0,-0.112201875,0,0,-1.4715,0,-0,0.737499999766578
0.15,0,0,-0.1159419375,0,0,-1.496025,0,-0,0.749999999766575
0.1525,0,0,-0.1197433125,0,0,-1.52055,0,-0,0.762499999737415
0.155,0,0,-0.123606,0,0,-1.545075,0,-0,0.774999999708256
0.1575,0,0,-0.12753,0,0,-1.5696,0,-0,0.78749999973741
0.16,0,0,-0.1315153125,0,0,-1.594125,0,-0,0.799999999766564
0.1625,0,0,-0.1355619375,0,0,-1.61865,0,-0,0.812499999795719
0.165,0,0,-0.139669875,0,0,-1.643175,0,-0,0.824999999766559
0.1675,0,0,-0.143839125,0,0,-1.6677,0,-0,0.837499999737399
0.17,0,0,-0.1480696875,0,0,-1.692225,0,-0,0.849999999708239
0.1725,0,0,-0.1523615625,0,0,-1.71675,0,-0,0.862499999708236
0.175,0,0,-0.15671475,0,0,-1.741275,0,-0,0.874999999737391
0.1775,0,0,-0.16112925,0,0,-1.7658,0,-0,0.887499999766545
0.18,0,0,-0.1656050625,0,0,-1.790325,0,-0,0.899999999737385
0.1825,0,0,-0.1701421875,0,0,-1.81485,0,-0,0.912499999737382
0.185,0,0,-0.174740625,0,0,-1.839375,0,-0,0.924999999766536
0.1875,0,0,-0.179400375,0,0,-1.8639,0,-0,0.937499999766533
0.19,0,0,-0.1841214375,0,0,-1.888425,0,-0,0.949999999766531
0.1925,0,0,-0.1889038125,0,0,-1.91295,0,-0,0.962499999795685
0.195,0,0,-0.1937475,0,0,-1.937475,0,-0,0.97499999982484
0.1975,0,0,-0.1986525,0,0,-1.962,0,-0,0.987499999853994
0.2,0,0,-0.2036188125,0,0,-1.986525,0,-0,0.999999999912306
0.2025,0,0,-0.2086464375,0,0,-2.01105,0,-0,1.01249999994146
0.205,0,0,-0.213735375,0,0,-2.035575,0,-0,1.02499999997061
0.2075,0,0,-0.218885625,0,0,-2.0601,0,-0,1.03749999997061
0.21,0,0,-0.2240971875,0,0,-2.084625,0,-0,1.04999999997061
0.2125,0,0,-0.2293700625,0,0,-2.10915,0,-0,1.06249999994145
0.215,0,0,-0.23470425,0,0,-2.133675,0,-0,1.07499999994145
0.2175,0,0,-0.24009975,0,0,-2.1582,0,-0,1.08749999994144
0.22,0,0,-0.2455565625,0,0,-2.182725,0,-0,1.09999999991228
0.2225,0,0,-0.2510746875,0,0,-2.20725,0,-0,1.11249999988312
0.225,0,0,-0.256654125,0,0,-2.231775,0,-0,1.12499999985396
0.2275,0,0,-0.262294875,0,0,-2.2563,0,-0,1.13749999985396
0.23,0,0,-0.2679969375,0,0,-2.280825,0,-0,1.14999999985396
0.2325,0,0,-0.2737603125,0,0,-2.30535,0,-0,1.1624999998248
0.235,0,0,-0.279585,0,0,-2.329875,0,-0,1.17499999982479
0.2375,0,0,-0.285471,0,0,-2.3544,0,-0,1.18749999982479
0.24,0,0,-0.2914183125,0,0,-2.378925,0,-0,1.19999999985395
0.2425,0,0,-0.2974269375,0,0,-2.40345,0,-0,1.2124999998831
0.245,0,0,-0.303496875,0,0,-2.427975,0,-0,1.2249999998831
0.2475,0,0,-0.309628125,0,0,-2.4525,0,-0,1.2374999998831
0.25,0,0,-0.3158206875,0,0,-2.477025,0,-0,1.24999999988309
0.2525,0,0,-0.3220745625,0,0,-2.50155,0,-0,1.26249999988309
0.255,0,0,-0.32838975,0,0,-2.526075,0,-0,1.27499999988309
0.2575,0,0,-0.33476625,0,0,-2.5506,0,-0,1.28749999985393
0.26,0,0,-0.3412040625,0,0,-2.575125,0,-0,1.29999999982477
0.2625,0,0,-0.3477031875,0,0,-2.59965,0,-0,1.31249999979561
0.265,0,0,-0.354263625,0,0,-2.624175,0,-0,1.32499999976645
0.2675,0,0,-0.360885375,0,0,-2.6487,0,-0,1.33749999976644
0.27,0,0,-0.3675684375,0,0,-2.673225,0,-0,1.3499999997956
0.2725,0,0,-0.3743128125,0,0,-2.69775,0,-0,1.3624999997956
0.275,0,0,-0.3811185,0,0,-2.722275,0,-0,1.37499999979559
0.2775,0,0,-0.3879855,0,0,-2.7468,0,-0,1.38749999979559
0.28,0,0,-0.3949138125,0,0,-2.771325,0,-0,1.39999999979559
0.2825,0,0,-0.4019034375,0,0,-2.79585,0,-0,1.41249999979558
0.285,0,0,-0.408954375,0,0,-2.820375,0,-0,1.42499999982474
0.2875,0,0,-0.416066625,0,0,-2.8449,0,-0,1.43749999979558
0.29,0,0,-0.4232401875,0,0,-2.869425,0,-0,1.44999999979558
0.2925,0,0,-0.4304750625,0,0,-2.89395,0,-0,1.46249999979557
0.295,0,0,-0.43777125,0,0,-2.918475,0,-0,1.47499999982473
0.2975,0,0,-0.44512875,0,0,-2.943,0,-0,1.48749999985388
0.3,0,0,-0.4525475625,0,0,-2.967525,0,-0,1.49999999982472
0.3025,0,0,-0.4600276875,0,0,-2.99205,0,-0,1.51249999985388
0.305,0,0,-0.467569125,0,0,-3.016575,0,-0,1.52499999985387
0.3075,0,0,-0.475171875,0,0,-3.0411,0,-0,1.53749999985387
0.31,0,0,-0.4828359375,0,0,-3.065625,0,-0,1.54999999982471
0.3125,0,0,-0.4905613125,0,0,-3.09015,0,-0,1.56249999979555
0.315,0,0,-0.498348,0,0,-3.114675,0,-0,1.57499999979555
0.3175,0,0,-0.506196,0,0,-3.1392,0,-0,1.5874999998247
0.32,0,0,-0.5141053125,0,0,-3.163725,0,-0,1.5999999998247
0.3225,0,0,-0.5220759375,0,0,-3.18825,0,-0,1.6124999998247
0.325,0,0,-0.530107875,0,0,-3.212775,0,-0,1.62499999982469
0.3275,0,0,-0.538201125,0,0,-3.2373,0,-0,1.63749999982469
0.33,0,0,-0.5463556875,0,0,-3.261825,0,-0,1.64999999982469
0.3325,0,0,-0.5545715625,0,0,-3.28635,0,-0,1.66249999985384
0.335,0,0,-0.56284875,0,0,-3.310875,0,-0,1.67499999985384
0.3375,0,0,-0.57118725,0,0,-3.3354,0,-0,1.68749999985384
0.34,0,0,-0.5795870625,0,0,-3.359925,0,-0,1.69999999988299
0.3425,0,0,-0.5880481875,0,0,-3.38445,0,-0,1.7124999999413
0.345,0,0,-0.596570625,0,0,-3.408975,0,-0,1.72499999999961
0.3475,0,0,-0.605154375,0,0,-3.4335,0,-0,1.73750000002877
0.35,0,0,-0.6137994375,0,0,-3.458025,0,-0,1.75000000005792
0.3525,0,0,-0.6225058125,0,0,-3.48255,0,-0,1.76250000005792
0.355,0,0,-0.6312735,0,0,-3.507075,0,-0,1.77500000005792
0.3575,0,0,-0.6401025,0,0,-3.5316,0,-0,1.78750000002876
0.36,0,0,-0.6489928125,0,0,-3.55612500000001,0,-0,1.7999999999996
0.3625,0,0,-0.6579444375,0,0,-3.58065000000001,0,-0,1.81250000002875
0.365,0,0,-0.666957375,0,0,-3.60517500000001,0,-0,1.82500000005791
0.3675,0,0,-0.676031625,0,0,-3.62970000000001,0,-0,1.8375000000579
0.37,0,0,-0.6851671875,0,0,-3.65422500000001,0,-0,1.8500000000579
0.3725,0,0,-0.6943640625,0,0,-3.67875000000001,0,-0,1.86250000002874
0.375,0,0,-0.70362225,0,0,-3.70327500000001,0,-0,1.87500000002874
0.3775,0,0,-0.71294175,0,0,-3.72780000000001,0,-0,1.88750000005789
0.38,0,0,-0.7223225625,0,0,-3.75232500000001,0,-0,1.90000000002873
0.3825,0,0,-0.7317646875,0,0,-3.77685000000001,0,-0,1.91249999997042
0.385,0,0,-0.741268125,0,0,-3.80137500000001,0,-0,1.92499999994126
0.3875,0,0,-0.750832875,0,0,-3.82590000000001,0,-0,1.9374999999121
0.39,0,0,-0.7604589375,0,0,-3.85042500000001,0,-0,1.94999999988294
0.3925,0,0,-0.7701463125,0,0,-3.87495000000001,0,-0,1.96249999988293
0.395,0,0,-0.779895,0,0,-3.89947500000001,0,-0,1.97499999988293
0.3975,0,0,-0.789705,0,0,-3.92400000000001,0,-0,1.98749999985377
0.4,0,0,-0.7995763125,0,0,-3.94852500000001,0,-0,1.99999999985377
0.4025,0,0,-0.8095089375,0,0,-3.97305000000001,0,-0,2.01249999985376
0.405,0,0,-0.819502875,0,0,-3.99757500000001,0,-0,2.02499999985376
0.4075,0,0,-0.829558125,0,0,-4.02210000000001,0,-0,2.03749999985376
0.41,0,0,-0.839674687500001,0,0,-4.04662500000001,0,-0,2.04999999988291
0.4125,0,0,-0.849852562500001,0,0,-4.07115000000001,0,-0,2.06249999991207
0.415,0,0,-0.86009175,0,0,-4.09567500000001,0,-0,2.07499999994122
0.4175,0,0,-0.870392250000001,0,0,-4.12020000000001,0,-0,2.08749999994122
0.42,0,0,-0.880754062500001,0,0,-4.14472500000001,0,-0,2.09999999994122
0.4225,0,0,-0.891177187500001,0,0,-4.16925000000001,0,-0,2.11249999997037
0.425,0,0,-0.901661625000001,0,0,-4.193775,0,-0,2.12499999997037
0.4275,0,0,-0.912207375000001,0,0,-4.2183,0,-0,2.13749999997037
0.43,0,0,-0.922814437500001,0,0,-4.242825,0,-0,2.14999999999952
0.4325,0,0,-0.933482812500001,0,0,-4.26735,0,-0,2.16250000002867
0.435,0,0,-0.944212500000001,0,0,-4.291875,0,-0,2.17500000002867
0.4375,0,0,-0.955003500000001,0,0,-4.3164,0,-0,2.18750000002867
0.44,0,0,-0.965855812500001,0,0,-4.340925,0,-0,2.20000000002867
0.4425,0,0,-0.976769437500001,0,0,-4.36545,0,-0,2.21249999999951
0.445,0,0,-0.987744375000001,0,0,-4.389975,0,-0,2.2249999999995
0.4475,0,0,-0.998780625000001,0,0,-4.4145,0,-0,2.2374999999995
0.45,0,0,-1.0098781875,0,0,-4.439025,0,-0,2.2499999999995
0.4525,0,0,-1.0210370625,0,0,-4.46355,0,-0,2.26249999999949
0.455,0,0,-1.03225725,0,0,-4.488075,0,-0,2.27499999997033
0.4575,0,0,-1.04353875,0,0,-4.5126,0,-0,2.28749999999949
0.46,0,0,-1.0548815625,0,0,-4.537125,0,-0,2.29999999999949
0.4625,0,0,-1.0662856875,0,0,-4.56165,0,-0,2.31249999994117
0.465,0,0,-1.077751125,0,0,-4.586175,0,-0,2.32499999991201
0.4675,0,0,-1.089277875,0,0,-4.6107,0,-0,2.33749999994116
0.47,0,0,-1.1008659375,0,0,-4.635225,0,-0,2.34999999997032
0.4725,0,0,-1.1125153125,0,0,-4.65975,0,-0,2.36249999994116
0.475,0,0,-1.124226,0,0,-4.684275,0,-0,2.374999999912
0.4775,0,0,-1.135998,0,0,-4.7088,0,-0,2.38749999985368
0.48,0,0,-1.1478313125,0,0,-4.733325,0,-0,2.39999999985368
0.4825,0,0,-1.1597259375,0,0,-4.75785,0,-0,2.41249999985367
0.485,0,0,-1.171681875,0,0,-4.782375,0,-0,2.42499999979536
0.4875,0,0,-1.183699125,0,0,-4.8069,0,-0,2.43749999973704
0.49,0,0,-1.1957776875,0,0,-4.831425,0,-0,2.44999999970788
0.4925,0,0,-1.2079175625,0,0,-4.85595,0,-0,2.46249999976619
0.495,0,0,-1.22011875,0,0,-4.880475,0,-0,2.4749999998245
0.4975,0,0,-1.23238125,0,0,-4.905,0,-0,2.48749999985366
0.5,0,0,-1.2447050625,0,0,-4.929525,0,-0,2.49999999985365
0.5025,0,0,-1.2570901875,0,0,-4.95405,0,-0,2.51249999985365
0.505,0,0,-1.269536625,0,0,-4.97857499999999,0,-0,2.52499999988281
0.5075,0,0,-1.282044375,0,0,-5.00309999999999,0,-0,2.5374999998828
0.51,0,0,-1.2946134375,0,0,-5.02762499999999,0,-0,2.54999999994111
0.5125,0,0,-1.3072438125,0,0,-5.05214999999999,0,-0,2.56249999994111
0.515,0,0,-1.3199355,0,0,-5.07667499999999,0,-0,2.57499999994111
0.5175,0,0,-1.3326885,0,0,-5.10119999999999,0,-0,2.58749999994111
0.52,0,0,-1.3455028125,0,0,-5.12572499999999,0,-0,2.59999999991195
0.5225,0,0,-1.3583784375,0,0,-5.15024999999999,0,-0,2.61249999991194
0.525,0,0,-1.371315375,0,0,-5.17477499999999,0,-0,2.6249999999411
0.5275,0,0,-1.384313625,0,0,-5.19929999999999,0,-0,2.63749999997025
0.53,0,0,-1.3973731875,0,0,-5.22382499999999,0,-0,2.64999999997025
0.5325,0,0,-1.4104940625,0,0,-5.24834999999999,0,-0,2.6624999999994
0.535,0,0,-1.42367625,0,0,-5.27287499999999,0,-0,2.67499999997024
0.5375,0,0,-1.43691975,0,0,-5.29739999999999,0,-0,2.68749999994108
0.54,0,0,-1.4502245625,0,0,-5.32192499999999,0,-0,2.69999999997024
0.5425,0,0,-1.4635906875,0,0,-5.34644999999999,0,-0,2.71249999997024
0.545,0,0,-1.477018125,0,0,-5.37097499999999,0,-0,2.72499999994108
0.5475,0,0,-1.490506875,0,0,-5.39549999999999,0,-0,2.73749999994107
0.55,0,0,-1.5040569375,0,0,-5.42002499999999,0,-0,2.74999999997023
0.5525,0,0,-1.5176683125,0,0,-5.44454999999999,0,-0,2.76249999999938
0.555,0,0,-1.531341,0,0,-5.46907499999999,0,-0,2.77499999999938
0.5575,0,0,-1.545075,0,0,-5.49359999999999,0,-0,2.78749999997022
0.56,0,0,-1.5588703125,0,0,-5.51812499999999,0,-0,2.79999999997022
0.5625,0,0,-1.5727269375,0,0,-5.54264999999999,0,-0,2.81249999994106
0.565,0,0,-1.586644875,0,0,-5.56717499999999,0,-0,2.82499999994105
0.5675,0,0,-1.600624125,0,0,-5.59169999999999,0,-0,2.83749999994105
0.57,0,0,-1.6146646875,0,0,-5.61622499999999,0,-0,2.84999999994105
0.5725,0,0,-1.6287665625,0,0,-5.64074999999999,0,-0,2.86249999994104
0.575,0,0,-1.64292975,0,0,-5.66527499999999,0,-0,2.87499999994104
0.5775,0,0,-1.65715425,0,0,-5.68979999999999,0,-0,2.8874999999702
0.58,0,0,-1.6714400625,0,0,-5.71432499999999,0,-0,2.89999999999935
0.5825,0,0,-1.6857871875,0,0,-5.73884999999999,0,-0,2.91249999997019
0.585,0,0,-1.700195625,0,0,-5.76337499999998,0,-0,2.92499999994103
0.5875,0,0,-1.714665375,0,0,-5.78789999999998,0,-0,2.93749999991187
0.59,0,0,-1.7291964375,0,0,-5.81242499999998,0,-0,2.94999999991187
0.5925,0,0,-1.7437888125,0,0,-5.83694999999998,0,-0,2.96249999994102
0.595,0,0,-1.7584425,0,0,-5.86147499999998,0,-0,2.97499999994102
0.5975,0,0,-1.7731575,0,0,-5.88599999999998,0,-0,2.98749999991186
0.6,0,0,-1.7879338125,0,0,-5.91052499999998,0,-0,2.9999999998827
0.6025,0,0,-1.8027714375,0,0,-5.93504999999998,0,-0,3.01249999994101
0.605,0,0,-1.817670375,0,0,-5.95957499999998,0,-0,3.02499999997017
0.6075,0,0,-1.832630625,0,0,-5.98409999999998,0,-0,3.03749999999932
0.61,0,0,-1.8476521875,0,0,-6.00862499999998,0,-0,3.04999999999932
0.6125,0,0,-1.8627350625,0,0,-6.03314999999998,0,-0,3.06249999999931
0.615,0,0,-1.87787925,0,0,-6.05767499999998,0,-0,3.07499999999931
0.6175,0,0,-1.89308475,0,0,-6.08219999999998,0,-0,3.08749999997015
0.62,0,0,-1.9083515625,0,0,-6.10672499999998,0,-0,3.09999999994099
0.6225,0,0,-1.9236796875,0,0,-6.13124999999998,0,-0,3.11249999991183
0.625,0,0,-1.939069125,0,0,-6.15577499999998,0,-0,3.12499999988267
0.6275,0,0,-1.954519875,0,0,-6.18029999999998,0,-0,3.13749999982435
0.63,0,0,-1.9700319375,0,0,-6.20482499999998,0,-0,-3.13318530738439
0.6325,0,0,-1.9856053125,0,0,-6.22934999999998,0,-0,-3.12068530741355
0.635,0,0,-2.00124,0,0,-6.25387499999998,0,-0,-3.10818530744271
0.6375,0,0,-2.016936,0,0,-6.27839999999998,0,-0,-3.09568530744271
0.64,0,0,-2.0326933125,0,0,-6.30292499999998,0,-0,-3.08318530741356
0.6425,0,0,-2.0485119375,0,0,-6.32744999999998,0,-0,-3.07068530741356
0.645,0,0,-2.064391875,0,0,-6.35197499999998,0,-0,-3.05818530741357
0.6475,0,0,-2.080333125,0,0,-6.37649999999998,0,-0,-3.04568530744273
0.65,0,0,-2.0963356875,0,0,-6.40102499999998,0,-0,-3.03318530741357
0.6525,0,0,-2.1123995625,0,0,-6.42554999999998,0,-0,-3.02068530738442
0.655,0,0,-2.12852475,0,0,-6.45007499999998,0,-0,-3.00818530738442
0.6575,0,0,-2.14471125,0,0,-6.47459999999998,0,-0,-2.99568530738442
0.66,0,0,-2.1609590625,0,0,-6.49912499999998,0,-0,-2.98318530735527
0.6625,0,0,-2.1772681875,0,0,-6.52364999999998,0,-0,-2.97068530735527
0.665,0,0,-2.193638625,0,0,-6.54817499999997,0,-0,-2.95818530738443
0.6675,0,0,-2.210070375,0,0,-6.57269999999997,0,-0,-2.94568530744275
0.67,0,0,-2.2265634375,0,0,-6.59722499999997,0,-0,-2.93318530744275
0.6725,0,0,-2.2431178125,0,0,-6.62174999999997,0,-0,-2.9206853074136
0.675,0,0,-2.2597335,0,0,-6.64627499999997,0,-0,-2.90818530738444
0.6775,0,0,-2.2764105,0,0,-6.67079999999997,0,-0,-2.89568530738445
0.68,0,0,-2.2931488125,0,0,-6.69532499999997,0,-0,-2.88318530738445
0.6825,0,0,-2.3099484375,0,0,-6.71984999999997,0,-0,-2.87068530738445
0.685,0,0,-2.326809375,0,0,-6.74437499999997,0,-0,-2.85818530741361
0.6875,0,0,-2.343731625,0,0,-6.76889999999997,0,-0,-2.84568530744277
0.69,0,0,-2.3607151875,0,0,-6.79342499999997,0,-0,-2.83318530744277
0.6925,0,0,-2.3777600625,0,0,-6.81794999999997,0,-0,-2.82068530744278
0.695,0,0,-2.39486625,0,0,-6.84247499999997,0,-0,-2.80818530741362
0.6975,0,0,-2.41203375,0,0,-6.86699999999997,0,-0,-2.79568530738447
0.7,0,0,-2.4292625625,0,0,-6.89152499999997,0,-0,-2.78318530735531
0.7025,0,0,-2.4465526875,0,0,-6.91604999999997,0,-0,-2.77068530738447
0.705,0,0,-2.463904125,0,0,-6.94057499999997,0,-0,-2.75818530738448
0.7075,0,0,-2.481316875,0,0,-6.96509999999997,0,-0,-2.74568530738448
0.71,0,0,-2.4987909375,0,0,-6.98962499999997,0,-0,-2.73318530735532
0.7125,0,0,-2.5163263125,0,0,-7.01414999999997,0,-0,-2.72068530735533
0.715,0,0,-2.533923,0,0,-7.03867499999997,0,-0,-2.70818530735533
0.7175,0,0,-2.551581,0,0,-7.06319999999997,0,-0,-2.69568530732618
0.72,0,0,-2.5693003125,0,0,-7.08772499999997,0,-0,-2.68318530732618
0.7225,0,0,-2.5870809375,0,0,-7.11224999999997,0,-0,-2.67068530732618
0.725,0,0,-2.604922875,0,0,-7.13677499999997,0,-0,-2.6581853073845
0.7275,0,0,-2.622826125,0,0,-7.16129999999997,0,-0,-2.6456853073845
0.73,0,0,-2.6407906875,0,0,-7.18582499999997,0,-0,-2.6331853073845
0.7325,0,0,-2.6588165625,0,0,-7.21034999999997,0,-0,-2.62068530738451
0.735,0,0,-2.67690375,0,0,-7.23487499999997,0,-0,-2.60818530738451
0.7375,0,0,-2.69505225,0,0,-7.25939999999997,0,-0,-2.59568530735535
0.74,0,0,-2.7132620625,0,0,-7.28392499999997,0,-0,-2.58318530735536
0.7425,0,0,-2.7315331875,0,0,-7.30844999999997,0,-0,-2.5706853073262
0.745,0,0,-2.749865625,0,0,-7.33297499999996,0,-0,-2.55818530732621
0.7475,0,0,-2.768259375,0,0,-7.35749999999996,0,-0,-2.54568530732621
0.75,0,0,-2.7867144375,0,0,-7.38202499999996,0,-0,-2.53318530729705
0.7525,0,0,-2.8052308125,0,0,-7.40654999999996,0,-0,-2.5206853072679
0.755,0,0,-2.8238085,0,0,-7.43107499999996,0,-0,-2.50818530729706
0.7575,0,0,-2.8424475,0,0,-7.45559999999996,0,-0,-2.49568530729706
0.76,0,0,-2.8611478125,0,0,-7.48012499999996,0,-0,-2.48318530726791
0.7625,0,0,-2.8799094375,0,0,-7.50464999999996,0,-0,-2.47068530726791
0.765,0,0,-2.898732375,0,0,-7.52917499999996,0,-0,-2.45818530723876
0.7675,0,0,-2.917616625,0,0,-7.55369999999996,0,-0,-2.44568530718045
0.77,0,0,-2.93656218749999,0,0,-7.57822499999996,0,-0,-2.43318530712213
0.7725,0,0,-2.9555690625,0,0,-7.60274999999996,0,-0,-2.42068530712214
0.775,0,0,-2.97463724999999,0,0,-7.62727499999996,0,-0,-2.4081853071513
0.7775,0,0,-2.99376674999999,0,0,-7.65179999999996,0,-0,-2.39568530718046
0.78,0,0,-3.01295756249999,0,0,-7.67632499999996,0,-0,-2.38318530718046
0.7825,0,0,-3.03220968749999,0,0,-7.70084999999996,0,-0,-2.37068530715131
0.785,0,0,-3.05152312499999,0,0,-7.72537499999996,0,-0,-2.35818530709299
0.7875,0,0,-3.07089787499999,0,0,-7.74989999999996,0,-0,-2.345685307093
0.79,0,0,-3.09033393749999,0,0,-7.77442499999996,0,-0,-2.333185307093
0.7925,0,0,-3.10983131249999,0,0,-7.79894999999996,0,-0,-2.32068530715132
0.795,0,0,-3.12938999999999,0,0,-7.82347499999996,0,-0,-2.30818530715132
0.7975,0,0,-3.14900999999999,0,0,-7.84799999999996,0,-0,-2.29568530712216
0.8,0,0,-3.16869131249999,0,0,-7.87252499999996,0,-0,-2.28318530709301
0.8025,0,0,-3.18843393749999,0,0,-7.89704999999996,0,-0,-2.27068530706386
0.805,0,0,-3.20823787499999,0,0,-7.92157499999996,0,-0,-2.2581853070347
0.8075,0,0,-3.22810312499999,0,0,-7.94609999999996,0,-0,-2.2456853070347
0.81,0,0,-3.24802968749999,0,0,-7.97062499999996,0,-0,-2.23318530700555
0.8125,0,0,-3.26801756249999,0,0,-7.99514999999996,0,-0,-2.22068530700555
0.815,0,0,-3.28806674999999,0,0,-8.01967499999996,0,-0,-2.20818530703471
0.8175,0,0,-3.30817724999999,0,0,-8.04419999999996,0,-0,-2.19568530703472
0.82,0,0,-3.32834906249999,0,0,-8.06872499999996,0,-0,-2.18318530706388
0.8225,0,0,-3.34858218749999,0,0,-8.09324999999996,0,-0,-2.17068530709304
0.825,0,0,-3.36887662499999,0,0,-8.11777499999996,0,-0,-2.15818530706388
0.8275,0,0,-3.38923237499999,0,0,-8.14229999999996,0,-0,-2.14568530703473
0.83,0,0,-3.40964943749999,0,0,-8.16682499999996,0,-0,-2.13318530700557
0.8325,0,0,-3.43012781249999,0,0,-8.19134999999996,0,-0,-2.12068530700558
0.835,0,0,-3.45066749999999,0,0,-8.21587499999996,0,-0,-2.10818530706389
0.8375,0,0,-3.47126849999999,0,0,-8.24039999999996,0,-0,-2.09568530709305
0.84,0,0,-3.49193081249999,0,0,-8.26492499999996,0,-0,-2.08318530709306
0.8425,0,0,-3.51265443749999,0,0,-8.28944999999996,0,-0,-2.07068530709306
0.845,0,0,-3.53343937499999,0,0,-8.31397499999996,0,-0,-2.05818530709306
0.8475,0,0,-3.55428562499999,0,0,-8.33849999999996,0,-0,-2.04568530709306
0.85,0,0,-3.57519318749999,0,0,-8.36302499999996,0,-0,-2.03318530709307
0.8525,0,0,-3.59616206249999,0,0,-8.38754999999997,0,-0,-2.02068530712223
0.855,0,0,-3.61719224999999,0,0,-8.41207499999997,0,-0,-2.00818530712223
0.8575,0,0,-3.63828374999999,0,0,-8.43659999999997,0,-0,-1.99568530706392
0.86,0,0,-3.65943656249999,0,0,-8.46112499999997,0,-0,-1.98318530700561
0.8625,0,0,-3.68065068749999,0,0,-8.48564999999997,0,-0,-1.97068530694729
0.865,0,0,-3.70192612499999,0,0,-8.51017499999997,0,-0,-1.95818530691814
0.8675,0,0,-3.72326287499999,0,0,-8.53469999999997,0,-0,-1.94568530691814
0.87,0,0,-3.74466093749999,0,0,-8.55922499999997,0,-0,-1.93318530697646
0.8725,0,0,-3.76612031249999,0,0,-8.58374999999997,0,-0,-1.92068530697646
0.875,0,0,-3.78764099999999,0,0,-8.60827499999997,0,-0,-1.90818530697647
0.8775,0,0,-3.80922299999999,0,0,-8.63279999999997,0,-0,-1.89568530694731
0.88,0,0,-3.83086631249999,0,0,-8.65732499999997,0,-0,-1.88318530694731
0.8825,0,0,-3.85257093749999,0,0,-8.68184999999997,0,-0,-1.87068530697647
0.885,0,0,-3.87433687499999,0,0,-8.70637499999997,0,-0,-1.85818530694732
0.8875,0,0,-3.89616412499999,0,0,-8.73089999999997,0,-0,-1.84568530688901
0.89,0,0,-3.91805268749999,0,0,-8.75542499999997,0,-0,-1.83318530688901
0.8925,0,0,-3.94000256249999,0,0,-8.77994999999997,0,-0,-1.82068530691817
0.895,0,0,-3.96201374999999,0,0,-8.80447499999998,0,-0,-1.80818530694733
0.8975,0,0,-3.98408624999999,0,0,-8.82899999999998,0,-0,-1.79568530700565
0.9,0,0,-4.00622006249999,0,0,-8.85352499999998,0,-0,-1.78318530703481
0.9025,0,0,-4.02841518749999,0,0,-8.87804999999998,0,-0,-1.77068530706397
0.905,0,0,-4.05067162499999,0,0,-8.90257499999998,0,-0,-1.75818530703481
0.9075,0,0,-4.07298937499999,0,0,-8.92709999999998,0,-0,-1.74568530700566
0.91,0,0,-4.09536843749999,0,0,-8.95162499999998,0,-0,-1.73318530700566
0.9125,0,0,-4.11780881249999,0,0,-8.97614999999998,0,-0,-1.72068530700566
0.915,0,0,-4.14031049999999,0,0,-9.00067499999998,0,-0,-1.70818530697651
0.9175,0,0,-4.16287349999999,0,0,-9.02519999999998,0,-0,-1.6956853069182
0.92,0,0,-4.18549781249999,0,0,-9.04972499999998,0,-0,-1.6831853069182
0.9225,0,0,-4.20818343749999,0,0,-9.07424999999998,0,-0,-1.67068530694736
0.925,0,0,-4.23093037499999,0,0,-9.09877499999998,0,-0,-1.65818530697652
0.9275,0,0,-4.25373862499999,0,0,-9.12329999999998,0,-0,-1.64568530697652
0.93,0,0,-4.27660818749999,0,0,-9.14782499999998,0,-0,-1.63318530694737
0.9325,0,0,-4.29953906249999,0,0,-9.17234999999998,0,-0,-1.62068530694737
0.935,0,0,-4.32253124999999,0,0,-9.19687499999998,0,-0,-1.60818530700569
0.9375,0,0,-4.34558474999999,0,0,-9.22139999999998,0,-0,-1.59568530700569
0.94,0,0,-4.36869956249999,0,0,-9.24592499999999,0,-0,-1.58318530700569
0.9425,0,0,-4.39187568749999,0,0,-9.27044999999999,0,-0,-1.5706853070057
0.945,0,0,-4.41511312499999,0,0,-9.29497499999999,0,-0,-1.5581853070057
0.9475,0,0,-4.43841187499999,0,0,-9.31949999999999,0,-0,-1.54568530703486
0.95,0,0,-4.46177193749999,0,0,-9.34402499999999,0,-0,-1.53318530703486
0.9525,0,0,-4.48519331249999,0,0,-9.36854999999999,0,-0,-1.52068530706402
0.955,0,0,-4.50867599999999,0,0,-9.39307499999999,0,-0,-1.50818530706403
0.9575,0,0,-4.53221999999999,0,0,-9.41759999999999,0,-0,-1.49568530706403
0.96,0,0,-4.55582531249999,0,0,-9.44212499999999,0,-0,-1.48318530706403
0.9625,0,0,-4.57949193749999,0,0,-9.46664999999999,0,-0,-1.47068530709319
0.965,0,0,-4.60321987499999,0,0,-9.49117499999999,0,-0,-1.45818530712235
0.9675,0,0,-4.62700912499999,0,0,-9.51569999999999,0,-0,-1.44568530718067
0.97,0,0,-4.65085968749999,0,0,-9.54022499999999,0,-0,-1.43318530720983
0.9725,0,0,-4.67477156249999,0,0,-9.56474999999999,0,-0,-1.42068530720983
0.975,0,0,-4.69874474999999,0,0,-9.58927499999999,0,-0,-1.40818530723899
0.9775,0,0,-4.72277924999999,0,0,-9.61379999999999,0,-0,-1.39568530723899
0.98,0,0,-4.74687506249999,0,0,-9.63832499999999,0,-0,-1.38318530726815
0.9825,0,0,-4.77103218749999,0,0,-9.66285,0,-0,-1.37068530732647
0.985,0,0,-4.79525062499999,0,0,-9.687375,0,-0,-1.35818530738479
0.9875,0,0,-4.81953037499999,0,0,-9.7119,0,-0,-1.34568530744311
0.99,0,0,-4.84387143749999,0,0,-9.736425,0,-0,-1.33318530744311
0.9925,0,0,-4.86827381249999,0,0,-9.76095,0,-0,-1.32068530744311
0.995,0,0,-4.89273749999999,0,0,-9.785475,0,-0,-1.30818530747227
0.9975,0,0,-4.91726249999999,0,0,-9.81,0,-0,-1.29568530750143
1,0,0,-4.94184881249999,0,0,-9.834525,0,-0,-1.28318530753059
1.0025,0,0,-4.96649643749999,0,0,-9.85905,0,-0,-1.27068530755975
1.005,0,0,-4.99120537499999,0,0,-9.883575,0,-0,-1.25818530755975
1.0075,0,0,-5.01597562499999,0,0,-9.9081,0,-0,-1.24568530758892
1.01,0,0,-5.04080718749999,0,0,-9.932625,0,-0,-1.23318530758892
1.0125,0,0,-5.06570006249999,0,0,-9.95715,0,-0,-1.22068530753061
1.015,0,0,-5.09065424999999,0,0,-9.981675,0,-0,-1.20818530750145
1.0175,0,0,-5.11566974999999,0,0,-10.0062,0,-0,-1.1956853074723
1.02,0,0,-5.14074656249999,0,0,-10.030725,0,-0,-1.1831853074723
1.0225,0,0,-5.16588468749999,0,0,-10.05525,0,-0,-1.17068530753062
1.025,0,0,-5.19108412499999,0,0,-10.079775,0,-0,-1.15818530753062
1.0275,0,0,-5.21634487499999,0,0,-10.1043,0,-0,-1.14568530750147
1.03,0,0,-5.24166693749999,0,0,-10.128825,0,-0,-1.13318530750147
1.0325,0,0,-5.26705031249999,0,0,-10.15335,0,-0,-1.12068530750147
1.035,0,0,-5.29249499999999,0,0,-10.177875,0,-0,-1.10818530747232
1.0375,0,0,-5.31800099999999,0,0,-10.2024,0,-0,-1.09568530744316
1.04,0,0,-5.34356831249999,0,0,-10.226925,0,-0,-1.08318530744317
1.0425,0,0,-5.36919693749999,0,0,-10.25145,0,-0,-1.07068530741401
1.045,0,0,-5.39488687499999,0,0,-10.275975,0,-0,-1.05818530741401
1.0475,0,0,-5.42063812499999,0,0,-10.3005,0,-0,-1.04568530738486
1.05,0,0,-5.44645068749999,0,0,-10.325025,0,-0,-1.03318530741402
1.0525,0,0,-5.47232456249999,0,0,-10.34955,0,-0,-1.02068530750149
1.055,0,0,-5.49825974999999,0,0,-10.374075,0,-0,-1.00818530755981
1.0575,0,0,-5.52425624999999,0,0,-10.3986,0,-0,-0.995685307588971
1.06,0,0,-5.55031406249999,0,0,-10.423125,0,-0,-0.983185307647289
1.0625,0,0,-5.57643318749999,0,0,-10.44765,0,-0,-0.970685307676449
1.065,0,0,-5.60261362499999,0,0,-10.472175,0,-0,-0.958185307676451
1.0675,0,0,-5.62885537499999,0,0,-10.4967,0,-0,-0.945685307676454
1.07,0,0,-5.65515843749999,0,0,-10.521225,0,-0,-0.933185307734771
1.0725,0,0,-5.68152281249999,0,0,-10.54575,0,-0,-0.920685307734774
1.075,0,0,-5.70794849999999,0,0,-10.570275,0,-0,-0.90818530770562
1.0775,0,0,-5.73443549999999,0,0,-10.5948,0,-0,-0.895685307676465
1.08,0,0,-5.76098381249999,0,0,-10.619325,0,-0,-0.883185307676468
1.0825,0,0,-5.78759343749999,0,0,-10.64385,0,-0,-0.870685307676471
1.085,0,0,-5.81426437499999,0,0,-10.668375,0,-0,-0.858185307676473
1.0875,0,0,-5.84099662499999,0,0,-10.6929,0,-0,-0.845685307676476
1.09,0,0,-5.86779018749999,0,0,-10.717425,0,-0,-0.833185307618165
1.0925,0,0,-5.89464506249999,0,0,-10.74195,0,-0,-0.820685307589011
1.095,0,0,-5.92156124999999,0,0,-10.766475,0,-0,-0.808185307559856
1.0975,0,0,-5.94853874999999,0,0,-10.791,0,-0,-0.795685307559859
1.1,0,0,-5.97557756249999,0,0,-10.815525,0,-0,-0.783185307589019
1.1025,0,0,-6.00267768749999,0,0,-10.84005,0,-0,-0.770685307618179
1.105,0,0,-6.02983912499999,0,0,-10.864575,0,-0,-0.758185307647339
1.1075,0,0,-6.05706187499999,0,0,-10.8891,0,-0,-0.745685307618184
1.11,0,0,-6.08434593749999,0,0,-10.913625,0,-0,-0.73318530758903
1.1125,0,0,-6.11169131249999,0,0,-10.93815,0,-0,-0.72068530761819
1.115,0,0,-6.13909799999999,0,0,-10.962675,0,-0,-0.708185307618193
1.1175,0,0,-6.16656599999999,0,0,-10.9872,0,-0,-0.695685307618196
1.12,0,0,-6.19409531249999,0,0,-11.011725,0,-0,-0.683185307618198
1.1225,0,0,-6.22168593749999,0,0,-11.03625,0,-0,-0.670685307618201
1.125,0,0,-6.24933787499999,0,0,-11.060775,0,-0,-0.658185307618204
1.1275,0,0,-6.27705112499999,0,0,-11.0853,0,-0,-0.645685307618207
1.13,0,0,-6.30482568749999,0,0,-11.109825,0,-0,-0.633185307618209
1.1325,0,0,-6.33266156249999,0,0,-11.13435,0,-0,-0.620685307618213
1.135,0,0,-6.36055874999999,0,0,-11.158875,0,-0,-0.608185307618215
1.1375,0,0,-6.38851724999999,0,0,-11.1834,0,-0,-0.595685307589061
1.14,0,0,-6.41653706249999,0,0,-11.207925,0,-0,-0.583185307559907
1.1425,0,0,-6.44461818749999,0,0,-11.23245,0,-0,-0.570685307530752
1.145,0,0,-6.47276062499999,0,0,-11.256975,0,-0,-0.558185307530755
1.1475,0,0,-6.50096437499999,0,0,-11.2815,0,-0,-0.545685307501601
1.15,0,0,-6.52922943749999,0,0,-11.306025,0,-0,-0.533185307472446
1.1525,0,0,-6.55755581249999,0,0,-11.33055,0,-0,-0.520685307443292
1.155,0,0,-6.58594349999999,0,0,-11.355075,0,-0,-0.50818530738498
1.1575,0,0,-6.61439249999999,0,0,-11.3796,0,-0,-0.495685307384983
1.16,0,0,-6.64290281249999,0,0,-11.404125,0,-0,-0.483185307414143
1.1625,0,0,-6.67147443749999,0,0,-11.42865,0,-0,-0.470685307443303
1.165,0,0,-6.70010737499999,0,0,-11.453175,0,-0,-0.458185307472463
1.1675,0,0,-6.72880162499999,0,0,-11.4777,0,-0,-0.445685307501623
1.17,0,0,-6.75755718749999,0,0,-11.502225,0,-0,-0.433185307501626
1.1725,0,0,-6.78637406249999,0,0,-11.52675,0,-0,-0.420685307472471
1.175,0,0,-6.81525224999999,0,0,-11.551275,0,-0,-0.408185307472474
1.1775,0,0,-6.84419174999999,0,0,-11.5758,0,-0,-0.395685307472477
1.18,0,0,-6.87319256249999,0,0,-11.600325,0,-0,-0.38318530747248
1.1825,0,0,-6.90225468749999,0,0,-11.62485,0,-0,-0.370685307472483
1.185,0,0,-6.93137812499999,0,0,-11.649375,0,-0,-0.358185307501643
1.1875,0,0,-6.96056287499999,0,0,-11.6739,0,-0,-0.345685307530803
1.19,0,0,-6.98980893749999,0,0,-11.698425,0,-0,-0.333185307530805
1.1925,0,0,-7.01911631249999,0,0,-11.72295,0,-0,-0.320685307589123
1.195,0,0,-7.04848499999999,0,0,-11.747475,0,-0,-0.308185307589125
1.1975,0,0,-7.07791499999999,0,0,-11.772,0,-0,-0.295685307589128
1.2,0,0,-7.10740631249999,0,0,-11.796525,0,-0,-0.283185307559974
1.2025,0,0,-7.13695893749999,0,0,-11.82105,0,-0,-0.270685307559977
1.205,0,0,-7.16657287499999,0,0,-11.845575,0,-0,-0.258185307589137
1.2075,0,0,-7.19624812499999,0,0,-11.8701,0,-0,-0.245685307589139
1.21,0,0,-7.22598468749999,0,0,-11.894625,0,-0,-0.233185307618299
1.2125,0,0,-7.25578256249999,0,0,-11.91915,0,-0,-0.220685307676617
1.215,0,0,-7.28564174999999,0,0,-11.943675,0,-0,-0.208185307734934
1.2175,0,0,-7.31556224999999,0,0,-11.9682,0,-0,-0.195685307764094
1.22,0,0,-7.34554406249999,0,0,-11.992725,0,-0,-0.183185307764096
1.2225,0,0,-7.37558718749999,0,0,-12.0172500000001,0,-0,-0.170685307734942
1.225,0,0,-7.40569162499999,0,0,-12.0417750000001,0,-0,-0.158185307734945
1.2275,0,0,-7.43585737499999,0,0,-12.0663000000001,0,-0,-0.14568530770579
1.23,0,0,-7.46608443749999,0,0,-12.0908250000001,0,-0,-0.133185307676636
1.2325,0,0,-7.4963728125,0,0,-12.1153500000001,0,-0,-0.120685307647482
1.235,0,0,-7.5267225,0,0,-12.1398750000001,0,-0,-0.108185307676642
1.2375,0,0,-7.5571335,0,0,-12.1644000000001,0,-0,-0.0956853077349588
1.24,0,0,-7.5876058125,0,0,-12.1889250000001,0,-0,-0.0831853077641188
1.2425,0,0,-7.6181394375,0,0,-12.2134500000001,0,-0,-0.0706853077641216
1.245,0,0,-7.648734375,0,0,-12.2379750000001,0,-0,-0.0581853077641244
1.2475,0,0,-7.679390625,0,0,-12.2625000000001,0,-0,-0.04568530773497
1.25,0,0,-7.7101081875,0,0,-12.2870250000001,0,-0,-0.0331853077349728
1.2525,0,0,-7.7408870625,0,0,-12.3115500000001,0,-0,-0.0206853077349756
1.255,0,0,-7.77172725,0,0,-12.3360750000001,0,-0,-0.00818530770582126
1.2575,0,0,-7.80262875,0,0,-12.3606000000001,-0,-0,0.00431469229417594
1.26,0,0,-7.8335915625,0,0,-12.3851250000001,-0,-0,0.0168146922941732
1.2625,0,0,-7.8646156875,0,0,-12.4096500000001,-0,-0,0.0293146923524847
1.265,0,0,-7.895701125,0,0,-12.4341750000001,-0,-0,0.0418146923816391
1.2675,0,0,-7.926847875,0,0,-12.4587000000001,-0,-0,0.0543146923816363
1.27,0,0,-7.9580559375,0,0,-12.4832250000001,-0,-0,0.0668146923816335
1.2725,0,0,-7.9893253125,0,0,-12.5077500000001,-0,-0,0.0793146924107879
1.275,0,0,-8.020656,0,0,-12.5322750000001,-0,-0,0.0918146923816279
1.2775,0,0,-8.052048,0,0,-12.5568000000001,-0,-0,0.104314692323311
1.28,0,0,-8.0835013125,0,0,-12.5813250000001,-0,-0,0.116814692352465
1.2825,0,0,-8.1150159375,0,0,-12.6058500000001,-0,-0,0.129314692381619
1.285,0,0,-8.146591875,0,0,-12.6303750000001,-0,-0,0.141814692352459
1.2875,0,0,-8.178229125,0,0,-12.6549000000001,-0,-0,0.1543146923233
1.29,0,0,-8.2099276875,0,0,-12.6794250000001,-0,-0,0.16681469229414
1.2925,0,0,-8.2416875625,0,0,-12.7039500000001,-0,-0,0.17931469226498
1.295,0,0,-8.27350875,0,0,-12.7284750000001,-0,-0,0.191814692264977
1.2975,0,0,-8.30539125,0,0,-12.7530000000001,-0,-0,0.204314692264974
1.3,0,0,-8.3373350625,0,0,-12.7775250000001,-0,-0,0.216814692294128
1.3025,0,0,-8.3693401875,0,0,-12.8020500000001,-0,-0,0.229314692264968
1.305,0,0,-8.401406625,0,0,-12.8265750000001,-0,-0,0.241814692235808
1.3075,0,0,-8.433534375,0,0,-12.8511000000001,-0,-0,0.254314692235806
1.31,0,0,-8.4657234375,0,0,-12.8756250000001,-0,-0,0.266814692235803
1.3125,0,0,-8.4979738125,0,0,-12.9001500000001,-0,-0,0.2793146922358
1.315,0,0,-8.5302855,0,0,-12.9246750000001,-0,-0,0.29181469220664
1.3175,0,0,-8.5626585,0,0,-12.9492000000001,-0,-0,0.304314692148323
1.32,0,0,-8.5950928125,0,0,-12.9737250000001,-0,-0,0.31681469214832
1.3225,0,0,-8.6275884375,0,0,-12.9982500000001,-0,-0,0.329314692177474
1.325,0,0,-8.660145375,0,0,-13.0227750000001,-0,-0,0.341814692206629
1.3275,0,0,-8.692763625,0,0,-13.0473000000001,-0,-0,0.354314692235783
1.33,0,0,-8.7254431875,0,0,-13.0718250000001,-0,-0,0.366814692206623
1.3325,0,0,-8.7581840625,0,0,-13.0963500000001,-0,-0,0.379314692177463
1.335,0,0,-8.79098625,0,0,-13.1208750000001,-0,-0,0.391814692148303
1.3375,0,0,-8.82384975,0,0,-13.1454000000001,-0,-0,0.4043146921483
1.34,0,0,-8.8567745625,0,0,-13.1699250000001,-0,-0,0.416814692148298
1.3425,0,0,-8.8897606875,0,0,-13.1944500000001,-0,-0,0.429314692119138
1.345,0,0,-8.922808125,0,0,-13.2189750000001,-0,-0,0.441814692089978
1.3475,0,0,-8.955916875,0,0,-13.2435000000001,-0,-0,0.454314692060818
1.35,0,0,-8.9890869375,0,0,-13.2680250000001,-0,-0,0.466814692031658
1.3525,0,0,-9.0223183125,0,0,-13.2925500000001,-0,-0,0.479314692031655
1.355,0,0,-9.055611,0,0,-13.3170750000001,-0,-0,0.491814692002495
1.3575,0,0,-9.088965,0,0,-13.3416000000001,-0,-0,0.504314692002492
1.36,0,0,-9.1223803125,0,0,-13.3661250000001,-0,-0,0.516814692002489
1.3625,0,0,-9.1558569375,0,0,-13.3906500000001,-0,-0,0.529314691944172
1.365,0,0,-9.189394875,0,0,-13.4151750000001,-0,-0,0.541814691973326
1.3675,0,0,-9.222994125,0,0,-13.4397000000001,-0,-0,0.554314691973324
1.37,0,0,-9.2566546875,0,0,-13.4642250000001,-0,-0,0.566814691944164
1.3725,0,0,-9.2903765625,0,0,-13.4887500000001,-0,-0,0.579314691915004
1.375,0,0,-9.32415975000001,0,0,-13.5132750000001,-0,-0,0.591814691885844
1.3775,0,0,-9.35800425000001,0,0,-13.5378000000001,-0,-0,0.604314691856684
1.38,0,0,-9.39191006250001,0,0,-13.5623250000001,-0,-0,0.616814691827524
1.3825,0,0,-9.42587718750001,0,0,-13.5868500000001,-0,-0,0.629314691769207
1.385,0,0,-9.45990562500001,0,0,-13.6113750000001,-0,-0,0.641814691740047
1.3875,0,0,-9.49399537500001,0,0,-13.6359000000001,-0,-0,0.654314691769201
1.39,0,0,-9.52814643750001,0,0,-13.6604250000001,-0,-0,0.666814691769198
1.3925,0,0,-9.56235881250001,0,0,-13.6849500000001,-0,-0,0.679314691769196
1.395,0,0,-9.59663250000001,0,0,-13.7094750000001,-0,-0,0.69181469179835
1.3975,0,0,-9.63096750000001,0,0,-13.7340000000001,-0,-0,0.704314691798347
1.4,0,0,-9.66536381250001,0,0,-13.7585250000001,-0,-0,0.716814691827502
1.4025,0,0,-9.69982143750001,0,0,-13.7830500000001,-0,-0,0.729314691798342
1.405,0,0,-9.73434037500001,0,0,-13.8075750000001,-0,-0,0.741814691769182
1.4075,0,0,-9.76892062500001,0,0,-13.8321000000001,-0,-0,0.754314691769179
1.41,0,0,-9.80356218750001,0,0,-13.8566250000001,-0,-0,0.766814691769176
1.4125,0,0,-9.83826506250001,0,0,-13.8811500000001,-0,-0,0.779314691740016
1.415,0,0,-9.87302925000001,0,0,-13.9056750000001,-0,-0,0.791814691740014
1.4175,0,0,-9.90785475000001,0,0,-13.9302000000001,-0,-0,0.804314691710853
1.42,0,0,-9.94274156250001,0,0,-13.9547250000001,-0,-0,0.816814691681694
1.4225,0,0,-9.97768968750001,0,0,-13.9792500000001,-0,-0,0.829314691652534
1.425,0,0,-10.012699125,0,0,-14.0037750000001,-0,-0,0.841814691623374
1.4275,0,0,-10.047769875,0,0,-14.0283000000001,-0,-0,0.854314691565056
1.43,0,0,-10.0829019375,0,0,-14.0528250000001,-0,-0,0.866814691535897
1.4325,0,0,-10.1180953125,0,0,-14.0773500000001,-0,-0,0.879314691565051
1.435,0,0,-10.15335,0,0,-14.1018750000001,-0,-0,0.891814691565048
1.4375,0,0,-10.188666,0,0,-14.1264000000001,-0,-0,0.904314691506731
1.44,0,0,-10.2240433125,0,0,-14.1509250000001,-0,-0,0.916814691477571
1.4425,0,0,-10.2594819375,0,0,-14.1754500000001,-0,-0,0.929314691506726
1.445,0,0,-10.294981875,0,0,-14.1999750000001,-0,-0,0.941814691506723
1.4475,0,0,-10.330543125,0,0,-14.2245000000001,-0,-0,0.954314691535877
1.45,0,0,-10.3661656875,0,0,-14.2490250000001,-0,-0,0.966814691565032
1.4525,0,0,-10.4018495625,0,0,-14.2735500000001,-0,-0,0.979314691565029
1.455,0,0,-10.43759475,0,0,-14.2980750000001,-0,-0,0.991814691565026
1.4575,0,0,-10.47340125,0,0,-14.3226000000001,-0,-0,1.00431469153587
1.46,0,0,-10.5092690625,0,0,-14.3471250000001,-0,-0,1.01681469156502
1.4625,0,0,-10.5451981875,0,0,-14.3716500000001,-0,-0,1.02931469159417
1.465,0,0,-10.581188625,0,0,-14.3961750000001,-0,-0,1.04181469159417
1.4675,0,0,-10.617240375,0,0,-14.4207000000001,-0,-0,1.05431469159417
1.47,0,0,-10.6533534375,0,0,-14.4452250000001,-0,-0,1.06681469156501
1.4725,0,0,-10.6895278125,0,0,-14.4697500000001,-0,-0,1.07931469156501
1.475,0,0,-10.7257635,0,0,-14.4942750000001,-0,-0,1.09181469159416
1.4775,0,0,-10.7620605,0,0,-14.5188000000001,-0,-0,1.104314691565
1.48,0,0,-10.7984188125,0,0,-14.5433250000001,-0,-0,1.11681469153584
1.4825,0,0,-10.8348384375,0,0,-14.5678500000001,-0,-0,1.12931469153584
1.485,0,0,-10.871319375,0,0,-14.5923750000001,-0,-0,1.14181469150668
1.4875,0,0,-10.907861625,0,0,-14.6169000000001,-0,-0,1.15431469150668
1.49,0,0,-10.9444651875,0,0,-14.6414250000001,-0,-0,1.16681469150667
1.4925,0,0,-10.9811300625,0,0,-14.6659500000001,-0,-0,1.17931469147751
1.495,0,0,-11.01785625,0,0,-14.6904750000001,-0,-0,1.19181469144835
1.4975,0,0,-11.05464375,0,0,-14.7150000000001,-0,-0,1.20431469144835
1.5,0,0,-11.0914925625,0,0,-14.7395250000001,-0,-0,1.21681469144835
1.5025,0,0,-11.1284026875,0,0,-14.7640500000001,-0,-0,1.22931469144834
1.505,0,0,-11.165374125,0,0,-14.7885750000001,-0,-0,1.24181469144834
1.5075,0,0,-11.202406875,0,0,-14.8131000000001,-0,-0,1.25431469139002
1.51,0,0,-11.2395009375,0,0,-14.8376250000001,-0,-0,1.26681469139002
1.5125,0,0,-11.2766563125,0,0,-14.8621500000001,-0,-0,1.27931469141918
1.515,0,0,-11.313873,0,0,-14.8866750000001,-0,-0,1.29181469141917
1.5175,0,0,-11.351151,0,0,-14.9112000000001,-0,-0,1.30431469141917
1.52,0,0,-11.3884903125,0,0,-14.9357250000001,-0,-0,1.31681469141917
1.5225,0,0,-11.4258909375,0,0,-14.9602500000001,-0,-0,1.32931469141916
1.525,0,0,-11.463352875,0,0,-14.9847750000001,-0,-0,1.34181469144832
1.5275,0,0,-11.500876125,0,0,-15.0093000000001,-0,-0,1.35431469147747
1.53,0,0,-11.5384606875,0,0,-15.0338250000001,-0,-0,1.36681469144831
1.5325,0,0,-11.5761065625,0,0,-15.0583500000001,-0,-0,1.37931469144831
1.535,0,0,-11.61381375,0,0,-15.0828750000001,-0,-0,1.39181469147747
1.5375,0,0,-11.65158225,0,0,-15.1074000000001,-0,-0,1.40431469150662
1.54,0,0,-11.6894120625,0,0,-15.1319250000001,-0,-0,1.41681469150662
1.5425,0,0,-11.7273031875,0,0,-15.1564500000001,-0,-0,1.42931469150661
1.545,0,0,-11.765255625,0,0,-15.1809750000001,-0,-0,1.44181469150661
1.5475,0,0,-11.803269375,0,0,-15.2055000000001,-0,-0,1.45431469147745
1.55,0,0,-11.8413444375,0,0,-15.2300250000001,-0,-0,1.46681469147745
1.5525,0,0,-11.8794808125,0,0,-15.2545500000001,-0,-0,1.47931469147745
1.555,0,0,-11.9176785,0,0,-15.2790750000001,-0,-0,1.49181469144829
1.5575,0,0,-11.9559375,0,0,-15.3036000000001,-0,-0,1.50431469141913
1.56,0,0,-11.9942578125,0,0,-15.3281250000001,-0,-0,1.51681469141912
1.5625,0,0,-12.0326394375,0,0,-15.3526500000001,-0,-0,1.52931469138996
1.565,0,0,-12.071082375,0,0,-15.3771750000001,-0,-0,1.5418146913608
1.5675,0,0,-12.109586625,0,0,-15.4017000000001,-0,-0,1.55431469133164
1.57,0,0,-12.1481521875,0,0,-15.4262250000001,-0,-0,1.56681469133164
1.5725,0,0,-12.1867790625,0,0,-15.4507500000001,-0,-0,1.57931469133164
1.575,0,0,-12.22546725,0,0,-15.4752750000001,-0,-0,1.59181469130248
1.5775,0,0,-12.26421675,0,0,-15.4998000000001,-0,-0,1.60431469127332
1.58,0,0,-12.3030275625,0,0,-15.5243250000001,-0,-0,1.61681469127332
1.5825,0,0,-12.3418996875,0,0,-15.5488500000001,-0,-0,1.62931469127331
1.585,0,0,-12.380833125,0,0,-15.5733750000001,-0,-0,1.64181469127331
1.5875,0,0,-12.419827875,0,0,-15.5979000000001,-0,-0,1.65431469127331
1.59,0,0,-12.4588839375,0,0,-15.6224250000001,-0,-0,1.66681469130246
1.5925,0,0,-12.4980013125,0,0,-15.6469500000001,-0,-0,1.67931469136077
1.595,0,0,-12.53718,0,0,-15.6714750000001,-0,-0,1.69181469138993
1.5975,0,0,-12.57642,0,0,-15.6960000000001,-0,-0,1.70431469138992
1.6,0,0,-12.6157213125,0,0,-15.7205250000001,-0,-0,1.71681469138992
1.6025,0,0,-12.6550839375,0,0,-15.7450500000001,-0,-0,1.72931469138992
1.605,0,0,-12.694507875,0,0,-15.7695750000001,-0,-0,1.74181469138992
1.6075,0,0,-12.733993125,0,0,-15.7941000000001,-0,-0,1.75431469138991
1.61,0,0,-12.7735396875,0,0,-15.8186250000001,-0,-0,1.76681469141907
1.6125,0,0,-12.8131475625,0,0,-15.8431500000001,-0,-0,1.77931469141906
1.615,0,0,-12.85281675,0,0,-15.8676750000001,-0,-0,1.79181469144822
1.6175,0,0,-12.89254725,0,0,-15.8922000000001,-0,-0,1.80431469144822
1.62,0,0,-12.9323390625,0,0,-15.9167250000001,-0,-0,1.81681469141906
1.6225,0,0,-12.9721921875,0,0,-15.9412500000001,-0,-0,1.82931469141905
1.625,0,0,-13.012106625,0,0,-15.9657750000001,-0,-0,1.84181469141905
1.6275,0,0,-13.052082375,0,0,-15.9903000000001,-0,-0,1.85431469138989
1.63,0,0,-13.0921194375,0,0,-16.0148250000001,-0,-0,1.86681469138989
1.6325,0,0,-13.1322178125,0,0,-16.0393500000001,-0,-0,1.87931469138989
1.635,0,0,-13.1723775,0,0,-16.0638750000001,-0,-0,1.89181469141904
1.6375,0,0,-13.2125985,0,0,-16.0884000000001,-0,-0,1.90431469144819
1.64,0,0,-13.2528808125,0,0,-16.1129250000001,-0,-0,1.91681469147735
1.6425,0,0,-13.2932244375,0,0,-16.1374500000001,-0,-0,1.92931469147735
1.645,0,0,-13.333629375,0,0,-16.1619750000001,-0,-0,1.94181469144819
1.6475,0,0,-13.374095625,0,0,-16.1865000000001,-0,-0,1.95431469147734
1.65,0,0,-13.4146231875,0,0,-16.2110250000001,-0,-0,1.96681469150649
1.6525,0,0,-13.4552120625,0,0,-16.2355500000001,-0,-0,1.97931469156481
1.655,0,0,-13.49586225,0,0,-16.2600750000001,-0,-0,1.9918146915648
1.6575,0,0,-13.53657375,0,0,-16.2846000000002,-0,-0,2.00431469153564
1.66,0,0,-13.5773465625,0,0,-16.3091250000002,-0,-0,2.01681469150648
1.6625,0,0,-13.6181806875,0,0,-16.3336500000002,-0,-0,2.02931469147732
1.665,0,0,-13.659076125,0,0,-16.3581750000002,-0,-0,2.04181469144816
1.6675,0,0,-13.700032875,0,0,-16.3827000000002,-0,-0,2.05431469144816
1.67,0,0,-13.7410509375,0,0,-16.4072250000002,-0,-0,2.06681469144816
1.6725,0,0,-13.7821303125,0,0,-16.4317500000002,-0,-0,2.07931469144815
1.675,0,0,-13.823271,0,0,-16.4562750000002,-0,-0,2.09181469144815
1.6775,0,0,-13.864473,0,0,-16.4808000000002,-0,-0,2.10431469144815
1.68,0,0,-13.9057363125,0,0,-16.5053250000002,-0,-0,2.11681469144815
1.6825,0,0,-13.9470609375,0,0,-16.5298500000002,-0,-0,2.12931469141899
1.685,0,0,-13.988446875,0,0,-16.5543750000002,-0,-0,2.14181469141898
1.6875,0,0,-14.029894125,0,0,-16.5789000000002,-0,-0,2.15431469147729
1.69,0,0,-14.0714026875,0,0,-16.6034250000002,-0,-0,2.16681469153561
1.6925,0,0,-14.1129725625,0,0,-16.6279500000002,-0,-0,2.1793146915356
1.695,0,0,-14.15460375,0,0,-16.6524750000002,-0,-0,2.1918146915356
1.6975,0,0,-14.19629625,0,0,-16.6770000000002,-0,-0,2.20431469156475
1.7,0,0,-14.2380500625,0,0,-16.7015250000002,-0,-0,2.21681469156475
1.7025,0,0,-14.2798651875,0,0,-16.7260500000002,-0,-0,2.22931469153559
1.705,0,0,-14.321741625,0,0,-16.7505750000002,-0,-0,2.24181469150643
1.7075,0,0,-14.363679375,0,0,-16.7751000000002,-0,-0,2.25431469153559
1.71,0,0,-14.4056784375,0,0,-16.7996250000002,-0,-0,2.2668146915939
1.7125,0,0,-14.4477388125,0,0,-16.8241500000002,-0,-0,2.27931469159389
1.715,0,0,-14.4898605,0,0,-16.8486750000002,-0,-0,2.29181469159389
1.7175,0,0,-14.5320435,0,0,-16.8732000000002,-0,-0,2.30431469162305
1.72,0,0,-14.5742878125,0,0,-16.8977250000002,-0,-0,2.31681469159389
1.7225,0,0,-14.6165934375,0,0,-16.9222500000002,-0,-0,2.32931469153557
1.725,0,0,-14.658960375,0,0,-16.9467750000002,-0,-0,2.34181469153557
1.7275,0,0,-14.701388625,0,0,-16.9713000000002,-0,-0,2.35431469156472
1.73,0,0,-14.7438781875,0,0,-16.9958250000002,-0,-0,2.36681469156472
1.7325,0,0,-14.7864290625,0,0,-17.0203500000002,-0,-0,2.37931469153556
1.735,0,0,-14.82904125,0,0,-17.0448750000002,-0,-0,2.39181469153556
1.7375,0,0,-14.8717147500001,0,0,-17.0694000000002,-0,-0,2.40431469153555
1.74,0,0,-14.9144495625001,0,0,-17.0939250000002,-0,-0,2.41681469150639
1.7425,0,0,-14.9572456875001,0,0,-17.1184500000002,-0,-0,2.42931469147723
1.745,0,0,-15.0001031250001,0,0,-17.1429750000002,-0,-0,2.44181469141892
1.7475,0,0,-15.0430218750001,0,0,-17.1675000000002,-0,-0,2.45431469138976
1.75,0,0,-15.0860019375001,0,0,-17.1920250000002,-0,-0,2.4668146913606
1.7525,0,0,-15.1290433125001,0,0,-17.2165500000002,-0,-0,2.47931469133144
1.755,0,0,-15.1721460000001,0,0,-17.2410750000002,-0,-0,2.49181469133143
1.7575,0,0,-15.2153100000001,0,0,-17.2656000000002,-0,-0,2.50431469136059
1.76,0,0,-15.2585353125001,0,0,-17.2901250000002,-0,-0,2.51681469138974
1.7625,0,0,-15.3018219375001,0,0,-17.3146500000002,-0,-0,2.5293146914189
1.765,0,0,-15.3451698750001,0,0,-17.3391750000002,-0,-0,2.54181469138974
1.7675,0,0,-15.3885791250001,0,0,-17.3637000000002,-0,-0,2.55431469136058
1.77,0,0,-15.4320496875001,0,0,-17.3882250000002,-0,-0,2.56681469133142
1.7725,0,0,-15.4755815625001,0,0,-17.4127500000002,-0,-0,2.57931469133141
1.775,0,0,-15.5191747500001,0,0,-17.4372750000002,-0,-0,2.59181469133141
1.7775,0,0,-15.5628292500001,0,0,-17.4618000000002,-0,-0,2.60431469130225
1.78,0,0,-15.6065450625001,0,0,-17.4863250000002,-0,-0,2.61681469130225
1.7825,0,0,-15.6503221875001,0,0,-17.5108500000002,-0,-0,2.62931469130224
1.785,0,0,-15.6941606250001,0,0,-17.5353750000002,-0,-0,2.64181469130224
1.7875,0,0,-15.7380603750001,0,0,-17.5599000000002,-0,-0,2.65431469130224
1.79,0,0,-15.7820214375001,0,0,-17.5844250000002,-0,-0,2.66681469127308
1.7925,0,0,-15.8260438125001,0,0,-17.6089500000002,-0,-0,2.67931469127308
1.795,0,0,-15.8701275000001,0,0,-17.6334750000002,-0,-0,2.69181469127307
1.7975,0,0,-15.9142725000001,0,0,-17.6580000000002,-0,-0,2.70431469127307
1.8,0,0,-15.9584788125001,0,0,-17.6825250000002,-0,-0,2.71681469130223
1.8025,0,0,-16.0027464375001,0,0,-17.7070500000002,-0,-0,2.72931469133138
1.805,0,0,-16.0470753750001,0,0,-17.7315750000002,-0,-0,2.74181469136053
1.8075,0,0,-16.0914656250001,0,0,-17.7561000000002,-0,-0,2.75431469138969
1.81,0,0,-16.1359171875001,0,0,-17.7806250000002,-0,-0,2.76681469138969
1.8125,0,0,-16.1804300625001,0,0,-17.8051500000002,-0,-0,2.77931469136053
1.815,0,0,-16.2250042500001,0,0,-17.8296750000002,-0,-0,2.79181469136052
1.8175,0,0,-16.2696397500001,0,0,-17.8542000000002,-0,-0,2.80431469138968
1.82,0,0,-16.3143365625001,0,0,-17.8787250000002,-0,-0,2.81681469138967
1.8225,0,0,-16.3590946875001,0,0,-17.9032500000002,-0,-0,2.82931469138967
1.825,0,0,-16.4039141250001,0,0,-17.9277750000002,-0,-0,2.84181469141883
1.8275,0,0,-16.4487948750001,0,0,-17.9523000000002,-0,-0,2.85431469141882
1.83,0,0,-16.4937369375001,0,0,-17.9768250000002,-0,-0,2.86681469136051
1.8325,0,0,-16.5387403125001,0,0,-18.0013500000002,-0,-0,2.87931469133135
1.835,0,0,-16.5838050000001,0,0,-18.0258750000002,-0,-0,2.8918146913605
1.8375,0,0,-16.6289310000001,0,0,-18.0504000000002,-0,-0,2.9043146913605
1.84,0,0,-16.6741183125001,0,0,-18.0749250000002,-0,-0,2.91681469138965
1.8425,0,0,-16.7193669375001,0,0,-18.0994500000002,-0,-0,2.92931469144796
1.845,0,0,-16.7646768750001,0,0,-18.1239750000002,-0,-0,2.94181469144796
1.8475,0,0,-16.8100481250001,0,0,-18.1485000000002,-0,-0,2.9543146914188
1.85,0,0,-16.8554806875001,0,0,-18.1730250000002,-0,-0,2.9668146914188
1.8525,0,0,-16.9009745625001,0,0,-18.1975500000002,-0,-0,2.97931469141879
1.855,0,0,-16.9465297500001,0,0,-18.2220750000002,-0,-0,2.99181469141879
1.8575,0,0,-16.9921462500001,0,0,-18.2466000000002,-0,-0,3.00431469138963
1.86,0,0,-17.0378240625001,0,0,-18.2711250000002,-0,-0,3.01681469138963
1.8625,0,0,-17.0835631875001,0,0,-18.2956500000002,-0,-0,3.02931469141878
1.865,0,0,-17.1293636250001,0,0,-18.3201750000002,-0,-0,3.04181469144794
1.8675,0,0,-17.1752253750001,0,0,-18.3447000000002,-0,-0,3.05431469147709
1.87,0,0,-17.2211484375001,0,0,-18.3692250000002,-0,-0,3.06681469150625
1.8725,0,0,-17.2671328125001,0,0,-18.3937500000002,-0,-0,3.07931469150624
1.875,0,0,-17.3131785000001,0,0,-18.4182750000002,-0,-0,3.09181469150624
1.8775,0,0,-17.3592855000001,0,0,-18.4428000000002,-0,-0,3.10431469150624
1.88,0,0,-17.4054538125001,0,0,-18.4673250000002,-0,-0,3.11681469153539
1.8825,0,0,-17.4516834375001,0,0,-18.4918500000002,-0,-0,3.12931469156455
1.885,0,0,-17.4979743750001,0,0,-18.5163750000002,0,0,-3.14137061558589
1.8875,0,0,-17.5443266250001,0,0,-18.5409000000002,0,0,-3.12887061555673
1.89,0,0,-17.5907401875001,0,0,-18.5654250000002,0,0,-3.11637061558589
1.8925,0,0,-17.6372150625001,0,0,-18.5899500000002,0,0,-3.10387061558589
1.895,0,0,-17.6837512500001,0,0,-18.6144750000002,0,0,-3.09137061555674
1.8975,0,0,-17.7303487500001,0,0,-18.6390000000002,0,0,-3.07887061555674
1.9,0,0,-17.7770075625001,0,0,-18.6635250000002,0,0,-3.06637061552759
1.9025,0,0,-17.8237276875001,0,0,-18.6880500000002,0,0,-3.05387061549843
1.905,0,0,-17.8705091250001,0,0,-18.7125750000002,0,0,-3.04137061549844
1.9075,0,0,-17.9173518750001,0,0,-18.7371000000002,0,0,-3.02887061549844
1.91,0,0,-17.9642559375001,0,0,-18.7616250000002,0,0,-3.01637061555676
1.9125,0,0,-18.0112213125001,0,0,-18.7861500000002,0,0,-3.00387061561507
1.915,0,0,-18.0582480000001,0,0,-18.8106750000002,0,0,-2.99137061564423
1.9175,0,0,-18.1053360000001,0,0,-18.8352000000002,0,0,-2.97887061564424
1.92,0,0,-18.1524853125001,0,0,-18.8597250000002,0,0,-2.96637061564424
1.9225,0,0,-18.1996959375001,0,0,-18.8842500000002,0,0,-2.95387061564424
1.925,0,0,-18.2469678750001,0,0,-18.9087750000002,0,0,-2.9413706156734
1.9275,0,0,-18.2943011250001,0,0,-18.9333000000002,0,0,-2.9288706156734
1.93,0,0,-18.3416956875001,0,0,-18.9578250000002,0,0,-2.91637061567341
1.9325,0,0,-18.3891515625001,0,0,-18.9823500000002,0,0,-2.90387061567341
1.935,0,0,-18.4366687500001,0,0,-19.0068750000002,0,0,-2.89137061570257
1.9375,0,0,-18.4842472500001,0,0,-19.0314000000002,0,0,-2.87887061570257
1.94,0,0,-18.5318870625001,0,0,-19.0559250000002,0,0,-2.86637061567342
1.9425,0,0,-18.5795881875001,0,0,-19.0804500000002,0,0,-2.85387061567342
1.945,0,0,-18.6273506250001,0,0,-19.1049750000002,0,0,-2.84137061564427
1.9475,0,0,-18.6751743750001,0,0,-19.1295000000002,0,0,-2.82887061561511
1.95,0,0,-18.7230594375001,0,0,-19.1540250000002,0,0,-2.81637061561512
1.9525,0,0,-18.7710058125001,0,0,-19.1785500000002,0,0,-2.80387061558596
1.955,0,0,-18.8190135000001,0,0,-19.2030750000002,0,0,-2.79137061552765
1.9575,0,0,-18.8670825000001,0,0,-19.2276000000002,0,0,-2.77887061549849
1.96,0,0,-18.9152128125001,0,0,-19.2521250000002,0,0,-2.76637061546934
1.9625,0,0,-18.9634044375001,0,0,-19.2766500000002,0,0,-2.75387061544019
1.965,0,0,-19.0116573750001,0,0,-19.3011750000002,0,0,-2.74137061544019
1.9675,0,0,-19.0599716250001,0,0,-19.3257000000002,0,0,-2.72887061541103
1.97,0,0,-19.1083471875001,0,0,-19.3502250000002,0,0,-2.71637061538188
1.9725,0,0,-19.1567840625001,0,0,-19.3747500000002,0,0,-2.70387061538188
1.975,0,0,-19.2052822500001,0,0,-19.3992750000002,0,0,-2.69137061535273
1.9775,0,0,-19.2538417500001,0,0,-19.4238000000002,0,0,-2.67887061532357
1.98,0,0,-19.3024625625001,0,0,-19.4483250000002,0,0,-2.66637061532358
1.9825,0,0,-19.3511446875001,0,0,-19.4728500000002,0,0,-2.65387061529442
1.985,0,0,-19.3998881250001,0,0,-19.4973750000002,0,0,-2.64137061529443
1.9875,0,0,-19.4486928750001,0,0,-19.5219000000002,0,0,-2.62887061529443
1.99,0,0,-19.4975589375001,0,0,-19.5464250000002,0,0,-2.61637061526527
1.9925,0,0,-19.5464863125001,0,0,-19.5709500000002,0,0,-2.60387061526528
1.995,0,0,-19.5954750000001,0,0,-19.5954750000002,0,0,-2.59137061526528
1.9975,0,0,-19.6445250000001,0,0,-19.6200000000002,0,0,-2.57887061529444
2,0,0,-19.6936363125001,0,0,-19.6445250000002,0,0,-2.5663706153236
2.0025,0,0,-19.7428089375001,0,0,-19.6690500000002,0,0,-2.5538706153236
2.005,0,0,-19.7920428750001,0,0,-19.6935750000002,0,0,-2.54137061535276
2.0075,0,0,-19.8413381250001,0,0,-19.7181000000002,0,0,-2.52887061532361
2.01,0,0,-19.8906946875001,0,0,-19.7426250000002,0,0,-2.51637061529445
2.0125,0,0,-19.9401125625001,0,0,-19.7671500000002,0,0,-2.50387061529446
2.015,0,0,-19.9895917500001,0,0,-19.7916750000002,0,0,-2.49137061529446
2.0175,0,0,-20.0391322500001,0,0,-19.8162000000002,0,0,-2.47887061529446
2.02,0,0,-20.0887340625001,0,0,-19.8407250000002,0,0,-2.46637061526531
2.0225,0,0,-20.1383971875001,0,0,-19.8652500000002,0,0,-2.45387061526531
2.025,0,0,-20.1881216250001,0,0,-19.8897750000002,0,0,-2.44137061532363
2.0275,0,0,-20.2379073750001,0,0,-19.9143000000002,0,0,-2.42887061535279
2.03,0,0,-20.2877544375001,0,0,-19.9388250000002,0,0,-2.41637061538195
2.0325,0,0,-20.3376628125001,0,0,-19.9633500000002,0,0,-2.40387061538195
2.035,0,0,-20.3876325000001,0,0,-19.9878750000002,0,0,-2.39137061538195
2.0375,0,0,-20.4376635000001,0,0,-20.0124000000002,0,0,-2.37887061538196
2.04,0,0,-20.4877558125001,0,0,-20.0369250000002,0,0,-2.36637061538196
2.0425,0,0,-20.5379094375001,0,0,-20.0614500000002,0,0,-2.3538706153528
2.045,0,0,-20.5881243750001,0,0,-20.0859750000002,0,0,-2.34137061529449
2.0475,0,0,-20.6384006250001,0,0,-20.1105000000002,0,0,-2.32887061526534
2.05,0,0,-20.6887381875001,0,0,-20.1350250000002,0,0,-2.31637061523618
2.0525,0,0,-20.7391370625001,0,0,-20.1595500000002,0,0,-2.30387061520703
2.055,0,0,-20.7895972500001,0,0,-20.1840750000002,0,0,-2.29137061520703
2.0575,0,0,-20.8401187500001,0,0,-20.2086000000002,0,0,-2.27887061523619
2.06,0,0,-20.8907015625001,0,0,-20.2331250000002,0,0,-2.26637061523619
2.0625,0,0,-20.9413456875001,0,0,-20.2576500000002,0,0,-2.25387061520704
2.065,0,0,-20.9920511250001,0,0,-20.2821750000002,0,0,-2.24137061520704
2.0675,0,0,-21.0428178750001,0,0,-20.3067000000002,0,0,-2.22887061520705
2.07,0,0,-21.0936459375001,0,0,-20.3312250000002,0,0,-2.21637061520705
2.0725,0,0,-21.1445353125001,0,0,-20.3557500000002,0,0,-2.20387061520705
2.075,0,0,-21.1954860000001,0,0,-20.3802750000002,0,0,-2.19137061520705
2.0775,0,0,-21.2464980000001,0,0,-20.4048000000002,0,0,-2.17887061520706
2.08,0,0,-21.2975713125001,0,0,-20.4293250000002,0,0,-2.16637061514875
2.0825,0,0,-21.3487059375001,0,0,-20.4538500000002,0,0,-2.15387061514875
2.085,0,0,-21.3999018750001,0,0,-20.4783750000002,0,0,-2.14137061514875
2.0875,0,0,-21.4511591250001,0,0,-20.5029000000002,0,0,-2.1288706151196
2.09,0,0,-21.5024776875001,0,0,-20.5274250000002,0,0,-2.11637061514876
2.0925,0,0,-21.5538575625001,0,0,-20.5519500000003,0,0,-2.10387061517792
2.095,0,0,-21.6052987500001,0,0,-20.5764750000003,0,0,-2.09137061517792
2.0975,0,0,-21.6568012500001,0,0,-20.6010000000003,0,0,-2.07887061517792
2.1,0,0,-21.7083650625001,0,0,-20.6255250000003,0,0,-2.06637061517793
2.1025,0,0,-21.7599901875001,0,0,-20.6500500000003,0,0,-2.05387061520709
2.105,0,0,-21.8116766250001,0,0,-20.6745750000003,0,0,-2.04137061523625
2.1075,0,0,-21.8634243750001,0,0,-20.6991000000003,0,0,-2.02887061529456
2.11,0,0,-21.9152334375001,0,0,-20.7236250000003,0,0,-2.01637061529457
2.1125,0,0,-21.9671038125001,0,0,-20.7481500000003,0,0,-2.00387061529457
2.115,0,0,-22.0190355000001,0,0,-20.7726750000003,0,0,-1.99137061532373
2.1175,0,0,-22.0710285000001,0,0,-20.7972000000003,0,0,-1.97887061532373
2.12,0,0,-22.1230828125001,0,0,-20.8217250000003,0,0,-1.96637061532373
2.1225,0,0,-22.1751984375001,0,0,-20.8462500000003,0,0,-1.95387061529458
2.125,0,0,-22.2273753750001,0,0,-20.8707750000003,0,0,-1.94137061529458
2.1275,0,0,-22.2796136250001,0,0,-20.8953000000003,0,0,-1.92887061529458
2.13,0,0,-22.3319131875001,0,0,-20.9198250000003,0,0,-1.91637061532374
2.1325,0,0,-22.3842740625001,0,0,-20.9443500000003,0,0,-1.9038706153529
2.135,0,0,-22.4366962500001,0,0,-20.9688750000003,0,0,-1.89137061538207
2.1375,0,0,-22.4891797500001,0,0,-20.9934000000003,0,0,-1.87887061541123
2.14,0,0,-22.5417245625001,0,0,-21.0179250000003,0,0,-1.86637061541123
2.1425,0,0,-22.5943306875001,0,0,-21.0424500000003,0,0,-1.85387061541123
2.145,0,0,-22.6469981250001,0,0,-21.0669750000003,0,0,-1.84137061541123
2.1475,0,0,-22.6997268750001,0,0,-21.0915000000003,0,0,-1.82887061541124
2.15,0,0,-22.7525169375001,0,0,-21.1160250000003,0,0,-1.81637061541124
2.1525,0,0,-22.8053683125001,0,0,-21.1405500000003,0,0,-1.80387061541124
2.155,0,0,-22.8582810000001,0,0,-21.1650750000003,0,0,-1.79137061541124
2.1575,0,0,-22.9112550000001,0,0,-21.1896000000003,0,0,-1.77887061544041
2.16,0,0,-22.9642903125001,0,0,-21.2141250000003,0,0,-1.76637061544041
2.1625,0,0,-23.0173869375001,0,0,-21.2386500000003,0,0,-1.75387061544041
2.165,0,0,-23.0705448750001,0,0,-21.2631750000003,0,0,-1.74137061546957
2.1675,0,0,-23.1237641250001,0,0,-21.2877000000003,0,0,-1.72887061546957
2.17,0,0,-23.1770446875001,0,0,-21.3122250000003,0,0,-1.71637061544042
2.1725,0,0,-23.2303865625001,0,0,-21.3367500000003,0,0,-1.70387061541127
2.175,0,0,-23.2837897500001,0,0,-21.3612750000003,0,0,-1.69137061544042
2.1775,0,0,-23.3372542500001,0,0,-21.3858000000003,0,0,-1.67887061544043
2.18,0,0,-23.3907800625001,0,0,-21.4103250000003,0,0,-1.66637061541127
2.1825,0,0,-23.4443671875001,0,0,-21.4348500000003,0,0,-1.65387061544043
2.185,0,0,-23.4980156250001,0,0,-21.4593750000003,0,0,-1.64137061546959
2.1875,0,0,-23.5517253750001,0,0,-21.4839000000003,0,0,-1.6288706154696
2.19,0,0,-23.6054964375001,0,0,-21.5084250000003,0,0,-1.61637061549876
2.1925,0,0,-23.6593288125001,0,0,-21.5329500000003,0,0,-1.6038706154696
2.195,0,0,-23.7132225000001,0,0,-21.5574750000003,0,0,-1.59137061544045
2.1975,0,0,-23.7671775000001,0,0,-21.5820000000003,0,0,-1.57887061541129
2.2,0,0,-23.8211938125001,0,0,-21.6065250000003,0,0,-1.56637061538214
2.2025,0,0,-23.8752714375001,0,0,-21.6310500000003,0,0,-1.55387061532383
2.205,0,0,-23.9294103750001,0,0,-21.6555750000003,0,0,-1.54137061529467
