time,x,y,z,vx,vy,vz,pitch,roll,yaw
0,10,0,0,-0,1.0471975511966,0,0,0,0
0.0025,9.99999965730541,0.00261799384808575,0,-0.000274155674676315,1.0471975153097,0,0,0,0.015
0.005,9.99999862922164,0.00523598751673703,0,-0.000548311330562297,1.04719740764902,0,0,0,0.03
0.0075,9.99999691574878,0.00785398082651939,0,-0.000822466948867613,1.04719722821457,0,0,0,0.045
0.01,9.99999451688694,0.0104719735979984,0,-0.00109662251080193,1.04719697700634,0,0,0,0.06
0.0125,9.99999143263629,0.0130899656517396,0,-0.00137077799757493,1.04719665402437,0,0,0,0.075
0.015,9.99998766299704,0.0157079568083088,0,-0.00164493339039629,1.04719625926867,0,0,0,0.09
0.0175,9.99998320796943,0.0183259468882716,0,-0.00191908867047569,1.04719579273927,0,0,0,0.105
0.02,9.99997806755379,0.0209439357121937,0,-0.00219324381902283,1.0471952544362,0,0,0,0.12
0.0225,9.99997224175046,0.0235619231006412,0,-0.0024673988172474,1.0471946443595,0,0,0,0.135
0.025,9.99996573055985,0.0261799088741799,0,-0.00274155364635913,1.04719396250922,0,0,0,0.15
0.0275,9.99995853398239,0.028797892853376,0,-0.00301570828756774,1.04719320888539,0,0,0,0.165
0.03,9.99995065201858,0.0314158748587956,0,-0.00328986272208296,1.04719238348807,0,0,0,0.18
0.0325,9.99994208466897,0.0340338547110052,0,-0.00356401693111454,1.04719148631731,0,0,0,0.195
0.035,9.99993283193413,0.0366518322305711,0,-0.00383817089587226,1.04719051737319,0,0,0,0.21
0.0375,9.99992289381471,0.03926980723806,0,-0.00411232459756589,1.04718947665576,0,0,0,0.225
0.04,9.99991227031138,0.0418877795540388,0,-0.00438647801740524,1.04718836416509,0,0,0,0.24
0.0425,9.99990096142487,0.0445057489990745,0,-0.00466063113660012,1.04718717990126,0,0,0,0.255
0.045,9.99988896715596,0.0471237153937342,0,-0.00493478393636039,1.04718592386436,0,0,0,0.27
0.0475,9.99987628750547,0.0497416785585855,0,-0.0052089363978959,1.04718459605447,0,0,0,0.285
0.05,9.99986292247427,0.0523596383141958,0,-0.00548308850241654,1.04718319647167,0,0,0,0.3
0.0525,9.99984887206327,0.0549775944811331,0,-0.00575724023113222,1.04718172511607,0,0,0,0.315
0.055,9.99983413627344,0.0575955468799656,0,-0.00603139156525288,1.04718018198777,0,0,0,0.33
0.0575,9.99981871510579,0.0602134953312615,0,-0.00630554248598848,1.04717856708687,0,0,0,0.345
0.06,9.99980260856137,0.0628314396555895,0,-0.00657969297454901,1.04717688041348,0,0,0,0.36
0.0625,9.99978581664129,0.0654493796735186,0,-0.00685384301214451,1.04717512196772,0,0,0,0.375
0.065,9.9997683393467,0.0680673152056179,0,-0.007127992579985,1.04717329174971,0,0,0,0.39
0.0675,9.9997501766788,0.0706852460724571,0,-0.0074021416592806,1.04717138975958,0,0,0,0.405
0.07,9.99973132863883,0.0733031720946058,0,-0.0076762902312414,1.04716941599745,0,0,0,0.42
0.0725,9.99971179522808,0.0759210930926344,0,-0.00795043827707757,1.04716737046346,0,0,0,0.435
0.075,9.9996915764479,0.0785390088871133,0,-0.00822458577799929,1.04716525315775,0,0,0,0.45
0.0775,9.99967067229966,0.0811569192986135,0,-0.0084987327152168,1.04716306408046,0,0,0,0.465
0.08,9.99964908278481,0.0837748241477061,0,-0.00877287906994035,1.04716080323176,0,0,0,0.48
0.0825,9.99962680790481,0.0863927232549629,0,-0.00904702482338025,1.04715847061178,0,0,0,0.495
0.085,9.99960384766121,0.0890106164409558,0,-0.00932116995674685,1.04715606622069,0,0,0,0.51
0.0875,9.99958020205556,0.0916285035262572,0,-0.00959531445125054,1.04715359005866,0,0,0,0.525
0.09,9.9995558710895,0.0942463843314401,0,-0.00986945828810174,1.04715104212585,0,0,0,0.54
0.0925,9.99953085476468,0.0968642586770776,0,-0.010143601448511,1.04714842242244,0,0,0,0.555
0.095,9.99950515308283,0.0994821263837436,0,-0.0104177439136887,1.04714573094861,0,0,0,0.57
0.0975,9.99947876604571,0.102099987272012,0,-0.0106918856648455,1.04714296770454,0,0,0,0.585
0.1,9.99945169365512,0.104717841162458,0,-0.010966026683192,1.04714013269043,0,0,0,0.6
0.1025,9.99942393591292,0.107335687875656,0,-0.0112401669499389,1.04713722590647,0,0,0,0.615
0.105,9.99939549282101,0.109953527232182,0,-0.011514306446297,1.04713424735285,0,0,0,0.63
0.1075,9.99936636438135,0.112571359052612,0,-0.0117884451534769,1.04713119702978,0,0,0,0.645
0.11,9.99933655059592,0.115189183157523,0,-0.0120625830526895,1.04712807493747,0,0,0,0.66
0.1125,9.99930605146677,0.117806999367492,0,-0.0123367201251457,1.04712488107613,0,0,0,0.675
0.115,9.999274866996,0.120424807503097,0,-0.0126108563520565,1.04712161544599,0,0,0,0.69
0.1175,9.99924299718573,0.123042607384915,0,-0.0128849917146327,1.04711827804726,0,0,0,0.705
0.12,9.99921044203816,0.125660398833526,0,-0.0131591261940856,1.04711486888018,0,0,0,0.72
0.1225,9.99917720155551,0.128278181669509,0,-0.0134332597716262,1.04711138794498,0,0,0,0.735
0.125,9.99914327574007,0.130895955713444,0,-0.0137073924284657,1.04710783524189,0,0,0,0.75
0.1275,9.99910866459416,0.133513720785912,0,-0.0139815241458154,1.04710421077117,0,0,0,0.765
0.13,9.99907336812014,0.136131476707494,0,-0.0142556549048865,1.04710051453305,0,0,0,0.78
0.1325,9.99903738632044,0.138749223298772,0,-0.0145297846868904,1.0470967465278,0,0,0,0.795
0.135,9.99900071919754,0.141366960380327,0,-0.0148039134730385,1.04709290675567,0,0,0,0.81
0.1375,9.99896336675392,0.143984687772744,0,-0.0150780412445425,1.04708899521692,0,0,0,0.825
0.14,9.99892532899217,0.146602405296607,0,-0.0153521679826138,1.04708501191182,0,0,0,0.84
0.1425,9.99888660591489,0.149220112772499,0,-0.0156262936684641,1.04708095684065,0,0,0,0.855
0.145,9.99884719752472,0.151837810021005,0,-0.0159004182833051,1.04707683000369,0,0,0,0.87
0.1475,9.99880710382438,0.154455496862712,0,-0.0161745418083486,1.0470726314012,0,0,0,0.885
0.15,9.99876632481661,0.157073173118207,0,-0.0164486642248065,1.0470683610335,0,0,0,0.9
0.1525,9.9987248605042,0.159690838608076,0,-0.0167227855138908,1.04706401890085,0,0,0,0.915
0.155,9.99868271088999,0.162308493152907,0,-0.0169969056568134,1.04705960500358,0,0,0,0.93
0.1575,9.99863987597688,0.16492613657329,0,-0.0172710246347865,1.04705511934196,0,0,0,0.945
0.16,9.9985963557678,0.167543768689814,0,-0.0175451424290222,1.04705056191633,0,0,0,0.96
0.1625,9.99855215026574,0.170161389323069,0,-0.0178192590207328,1.04704593272698,0,0,0,0.975
0.165,9.99850725947372,0.172778998293646,0,-0.0180933743911307,1.04704123177423,0,0,0,0.99
0.1675,9.99846168339482,0.175396595422137,0,-0.0183674885214282,1.04703645905841,0,0,0,1.005
0.17,9.99841542203216,0.178014180529135,0,-0.018641601392838,1.04703161457984,0,0,0,1.02
0.1725,9.99836847538892,0.180631753435234,0,-0.0189157129865725,1.04702669833885,0,0,0,1.035
0.175,9.99832084346831,0.183249313961028,0,-0.0191898232838445,1.04702171033579,0,0,0,1.05
0.1775,9.9982725262736,0.185866861927112,0,-0.0194639322658668,1.04701665057099,0,0,0,1.065
0.18,9.99822352380809,0.188484397154082,0,-0.0197380399138521,1.04701151904481,0,0,0,1.08
0.1825,9.99817383607515,0.191101919462535,0,-0.0200121462090136,1.04700631575758,0,0,0,1.095
0.185,9.99812346307819,0.193719428673069,0,-0.0202862511325642,1.04700104070967,0,0,0,1.11
0.1875,9.99807240482065,0.196336924606283,0,-0.0205603546657171,1.04699569390145,0,0,0,1.125
0.19,9.99802066130603,0.198954407082776,0,-0.0208344567896855,1.04699027533327,0,0,0,1.14
0.1925,9.99796823253789,0.20157187592315,0,-0.0211085574856827,1.04698478500551,0,0,0,1.155
0.195,9.99791511851981,0.204189330948005,0,-0.0213826567349222,1.04697922291854,0,0,0,1.17
0.1975,9.99786131925544,0.206806771977943,0,-0.0216567545186176,1.04697358907275,0,0,0,1.185
0.2,9.99780683474846,0.20942419883357,0,-0.0219308508179824,1.04696788346852,0,0,0,1.2
0.2025,9.9977516650026,0.212041611335488,0,-0.0222049456142303,1.04696210610624,0,0,0,1.215
0.205,9.99769581002165,0.214659009304303,0,-0.0224790388885754,1.04695625698632,0,0,0,1.23
0.2075,9.99763926980944,0.217276392560622,0,-0.0227531306222314,1.04695033610914,0,0,0,1.245
0.21,9.99758204436984,0.219893760925051,0,-0.0230272207964124,1.04694434347512,0,0,0,1.26
0.2125,9.99752413370677,0.2225111142182,0,-0.0233013093923326,1.04693827908466,0,0,0,1.275
0.215,9.99746553782421,0.225128452260678,0,-0.0235753963912062,1.04693214293819,0,0,0,1.29
0.2175,9.99740625672617,0.227745774873095,0,-0.0238494817742476,1.04692593503612,0,0,0,1.305
0.22,9.9973462904167,0.230363081876062,0,-0.0241235655226714,1.04691965537888,0,0,0,1.32
0.2225,9.99728563889993,0.232980373090193,0,-0.024397647617692,1.04691330396689,0,0,0,1.335
0.225,9.99722430218,0.235597648336102,0,-0.0246717280405243,1.0469068808006,0,0,0,1.35
0.2275,9.99716228026113,0.238214907434402,0,-0.024945806772383,1.04690038588045,0,0,0,1.365
0.23,9.99709957314757,0.240832150205709,0,-0.025219883794483,1.04689381920687,0,0,0,1.38
0.2325,9.9970361808436,0.243449376470642,0,-0.0254939590880395,1.04688718078032,0,0,0,1.395
0.235,9.99697210335358,0.246066586049817,0,-0.0257680326342675,1.04688047060126,0,0,0,1.41
0.2375,9.9969073406819,0.248683778763855,0,-0.0260421044143825,1.04687368867014,0,0,0,1.425
0.24,9.996841892833,0.251300954433375,0,-0.0263161744095998,1.04686683498743,0,0,0,1.44
0.2425,9.99677575981136,0.253918112878999,0,-0.0265902426011349,1.0468599095536,0,0,0,1.455
0.245,9.99670894162151,0.256535253921351,0,-0.0268643089702036,1.04685291236912,0,0,0,1.47
0.2475,9.99664143826804,0.259152377381053,0,-0.0271383734980215,1.04684584343447,0,0,0,1.485
0.25,9.99657324975557,0.261769483078732,0,-0.0274124361658047,1.04683870275015,0,0,0,1.5
0.2525,9.99650437608878,0.264386570835013,0,-0.0276864969547691,1.04683149031662,0,0,0,1.515
0.255,9.99643481727238,0.267003640470524,0,-0.027960555846131,1.0468242061344,0,0,0,1.53
0.2575,9.99636457331114,0.269620691805895,0,-0.0282346128211065,1.04681685020399,0,0,0,1.545
0.26,9.99629364420989,0.272237724661754,0,-0.0285086678609123,1.04680942252587,0,0,0,1.56
0.2625,9.99622202997347,0.274854738858735,0,-0.0287827209467647,1.04680192310057,0,0,0,1.575
0.265,9.9961497306068,0.277471734217468,0,-0.0290567720598806,1.0467943519286,0,0,0,1.59
0.2675,9.99607674611483,0.280088710558589,0,-0.0293308211814767,1.04678670901047,0,0,0,1.605
0.27,9.99600307650257,0.282705667702733,0,-0.0296048682927701,1.04677899434671,0,0,0,1.62
0.2725,9.99592872177505,0.285322605470535,0,-0.0298789133749777,1.04677120793786,0,0,0,1.635
0.275,9.9958536819374,0.287939523682635,0,-0.030152956409317,1.04676334978443,0,0,0,1.65
0.2775,9.99577795699473,0.290556422159671,0,-0.0304269973770052,1.04675541988698,0,0,0,1.665
0.28,9.99570154695225,0.293173300722283,0,-0.0307010362592599,1.04674741824604,0,0,0,1.68
0.2825,9.99562445181519,0.295790159191115,0,-0.0309750730372988,1.04673934486217,0,0,0,1.695
0.285,9.99554667158883,0.298406997386809,0,-0.0312491076923396,1.04673119973591,0,0,0,1.71
0.2875,9.99546820627851,0.30102381513001,0,-0.0315231402056004,1.04672298286783,0,0,0,1.725
0.29,9.99538905588961,0.303640612241364,0,-0.0317971705582992,1.04671469425849,0,0,0,1.74
0.2925,9.99530922042754,0.306257388541518,0,-0.0320711987316543,1.04670633390845,0,0,0,1.755
0.295,9.99522869989778,0.308874143851122,0,-0.0323452247068841,1.04669790181829,0,0,0,1.77
0.2975,9.99514749430585,0.311490877990827,0,-0.0326192484652072,1.04668939798859,0,0,0,1.785
0.3,9.99506560365732,0.314107590781283,0,-0.0328932699878423,1.04668082241993,0,0,0,1.8
0.3025,9.99498302795779,0.316724282043144,0,-0.0331672892560081,1.0466721751129,0,0,0,1.815
0.305,9.99489976721293,0.319340951597066,0,-0.0334413062509239,1.04666345606808,0,0,0,1.83
0.3075,9.99481582142844,0.321957599263704,0,-0.0337153209538086,1.04665466528609,0,0,0,1.845
0.31,9.99473119061009,0.324574224863716,0,-0.0339893333458817,1.04664580276751,0,0,0,1.86
0.3125,9.99464587476366,0.327190828217761,0,-0.0342633434083627,1.04663686851297,0,0,0,1.875
0.315,9.994559873895,0.329807409146501,0,-0.0345373511224711,1.04662786252306,0,0,0,1.89
0.3175,9.99447318801002,0.332423967470598,0,-0.0348113564694268,1.04661878479841,0,0,0,1.905
0.32,9.99438581711464,0.335040503010715,0,-0.0350853594304497,1.04660963533965,0,0,0,1.92
0.3225,9.99429776121487,0.337657015587518,0,-0.03535935998676,1.04660041414739,0,0,0,1.935
0.325,9.99420902031673,0.340273505021675,0,-0.0356333581195781,1.04659112122226,0,0,0,1.95
0.3275,9.99411959442631,0.342889971133853,0,-0.0359073538101243,1.04658175656492,0,0,0,1.965
0.33,9.99402948354973,0.345506413744723,0,-0.0361813470396192,1.04657232017599,0,0,0,1.98
0.3325,9.99393868769318,0.348122832674957,0,-0.0364553377892838,1.04656281205612,0,0,0,1.995
0.335,9.99384720686287,0.350739227745228,0,-0.0367293260403389,1.04655323220598,0,0,0,2.01
0.3375,9.99375504106507,0.353355598776212,0,-0.0370033117740057,1.0465435806262,0,0,0,2.025
0.34,9.99366219030611,0.355971945588585,0,-0.0372772949715055,1.04653385731746,0,0,0,2.04
0.3425,9.99356865459234,0.358588268003026,0,-0.0375512756140598,1.04652406228042,0,0,0,2.055
0.345,9.99347443393018,0.361204565840214,0,-0.0378252536828902,1.04651419551575,0,0,0,2.07
0.3475,9.99337952832609,0.363820838920832,0,-0.0380992291592187,1.04650425702413,0,0,0,2.085
0.35,9.99328393778656,0.366437087065563,0,-0.0383732020242672,1.04649424680624,0,0,0,2.1
0.3525,9.99318766231816,0.369053310095092,0,-0.0386471722592579,1.04648416486276,0,0,0,2.115
0.355,9.99309070192747,0.371669507830106,0,-0.0389211398454131,1.04647401119439,0,0,0,2.13
0.3575,9.99299305662115,0.374285680091294,0,-0.0391951047639556,1.04646378580183,0,0,0,2.145
0.36,9.99289472640589,0.376901826699345,0,-0.0394690669961079,1.04645348868576,0,0,0,2.16
0.3625,9.99279571128843,0.379517947474953,0,-0.039743026523093,1.04644311984691,0,0,0,2.175
0.365,9.99269601127555,0.382134042238812,0,-0.0400169833261341,1.04643267928598,0,0,0,2.19
0.3675,9.99259562637408,0.384750110811615,0,-0.0402909373864543,1.04642216700368,0,0,0,2.205
0.37,9.99249455659092,0.387366153014063,0,-0.0405648886852773,1.04641158300073,0,0,0,2.22
0.3725,9.99239280193297,0.389982168666853,0,-0.0408388372038267,1.04640092727787,0,0,0,2.235
0.375,9.99229036240723,0.392598157590686,0,-0.0411127829233262,1.04639019983582,0,0,0,2.25
0.3775,9.9921872380207,0.395214119606266,0,-0.0413867258250001,1.04637940067532,0,0,0,2.265
0.38,9.99208342878047,0.397830054534298,0,-0.0416606658900726,1.0463685297971,0,0,0,2.28
0.3825,9.99197893469363,0.400445962195488,0,-0.041934603099768,1.04635758720192,0,0,0,2.295
0.385,9.99187375576737,0.403061842410544,0,-0.0422085374353111,1.04634657289051,0,0,0,2.31
0.3875,9.99176789200887,0.405677695000177,0,-0.0424824688779266,1.04633548686365,0,0,0,2.325
0.39,9.9916613434254,0.4082935197851,0,-0.0427563974088396,1.04632432912208,0,0,0,2.34
0.3925,9.99155411002427,0.410909316586026,0,-0.0430303230092754,1.04631309966657,0,0,0,2.355
0.395,9.99144619181281,0.413525085223672,0,-0.0433042456604594,1.0463017984979,0,0,0,2.37
0.3975,9.99133758879844,0.416140825518755,0,-0.0435781653436171,1.04629042561682,0,0,0,2.385
0.4,9.99122830098858,0.418756537291996,0,-0.0438520820399745,1.04627898102414,0,0,0,2.4
0.4025,9.99111832839074,0.421372220364117,0,-0.0441259957307577,1.04626746472062,0,0,0,2.415
0.405,9.99100767101245,0.423987874555841,0,-0.0443999063971927,1.04625587670707,0,0,0,2.43
0.4075,9.99089632886129,0.426603499687895,0,-0.0446738140205062,1.04624421698426,0,0,0,2.445
0.41,9.9907843019449,0.429219095581005,0,-0.0449477185819247,1.04623248555301,0,0,0,2.46
0.4125,9.99067159027095,0.431834662055903,0,-0.0452216200626752,1.04622068241412,0,0,0,2.475
0.415,9.99055819384717,0.43445019893332,0,-0.0454955184439848,1.04620880756839,0,0,0,2.49
0.4175,9.99044411268133,0.43706570603399,0,-0.0457694137070807,1.04619686101664,0,0,0,2.505
0.42,9.99032934678125,0.439681183178649,0,-0.0460433058331904,1.04618484275968,0,0,0,2.52
0.4225,9.99021389615479,0.442296630188035,0,-0.0463171948035417,1.04617275279835,0,0,0,2.535
0.425,9.99009776080987,0.444912046882888,0,-0.0465910805993626,1.04616059113347,0,0,0,2.55
0.4275,9.98998094075446,0.44752743308395,0,-0.0468649632018812,1.04614835776588,0,0,0,2.565
0.43,9.98986343599654,0.450142788611966,0,-0.0471388425923258,1.0461360526964,0,0,0,2.58
0.4325,9.98974524654419,0.452758113287681,0,-0.0474127187519252,1.04612367592589,0,0,0,2.595
0.435,9.98962637240549,0.455373406931845,0,-0.047686591661908,1.0461112274552,0,0,0,2.61
0.4375,9.9895068135886,0.457988669365208,0,-0.0479604613035034,1.04609870728517,0,0,0,2.625
0.44,9.98938657010171,0.460603900408522,0,-0.0482343276579406,1.04608611541667,0,0,0,2.64
0.4425,9.98926564195307,0.463219099882543,0,-0.0485081907064491,1.04607345185056,0,0,0,2.655
0.445,9.98914402915095,0.465834267608028,0,-0.0487820504302587,1.0460607165877,0,0,0,2.67
0.4475,9.9890217317037,0.468449403405735,0,-0.0490559068105993,1.04604790962897,0,0,0,2.685
0.45,9.9888987496197,0.471064507096427,0,-0.049329759828701,1.04603503097525,0,0,0,2.7
0.4525,9.98877508290738,0.473679578500866,0,-0.0496036094657944,1.04602208062742,0,0,0,2.715
0.455,9.9886507315752,0.476294617439819,0,-0.0498774557031099,1.04600905858637,0,0,0,2.73
0.4575,9.98852569563171,0.478909623734054,0,-0.0501512985218786,1.04599596485298,0,0,0,2.745
0.46,9.98839997508546,0.481524597204341,0,-0.0504251379033315,1.04598279942817,0,0,0,2.76
0.4625,9.98827356994507,0.484139537671453,0,-0.0506989738286999,1.04596956231282,0,0,0,2.775
0.465,9.98814648021921,0.486754444956164,0,-0.0509728062792154,1.04595625350785,0,0,0,2.79
0.4675,9.98801870591659,0.489369318879252,0,-0.0512466352361099,1.04594287301417,0,0,0,2.805
0.47,9.98789024704596,0.491984159261495,0,-0.0515204606806155,1.04592942083269,0,0,0,2.82
0.4725,9.98776110361613,0.494598965923676,0,-0.0517942825939643,1.04591589696434,0,0,0,2.835
0.475,9.98763127563595,0.497213738686579,0,-0.052068100957389,1.04590230141005,0,0,0,2.85
0.4775,9.98750076311431,0.499828477370989,0,-0.0523419157521224,1.04588863417075,0,0,0,2.865
0.48,9.98736956606017,0.502443181797696,0,-0.0526157269593974,1.04587489524736,0,0,0,2.88
0.4825,9.98723768448252,0.50505785178749,0,-0.0528895345604474,1.04586108464085,0,0,0,2.895
0.485,9.98710511839039,0.507672487161165,0,-0.0531633385365058,1.04584720235214,0,0,0,2.91
0.4875,9.98697186779287,0.510287087739516,0,-0.0534371388688065,1.0458332483822,0,0,0,2.925
0.49,9.9868379326991,0.512901653343342,0,-0.0537109355385834,1.04581922273198,0,0,0,2.94
0.4925,9.98670331311825,0.515516183793443,0,-0.0539847285270709,1.04580512540244,0,0,0,2.955
0.495,9.98656800905955,0.518130678910622,0,-0.0542585178155034,1.04579095639454,0,0,0,2.97
0.4975,9.98643202053227,0.520745138515685,0,-0.0545323033851158,1.04577671570927,0,0,0,2.985
0.5,9.98629534754574,0.523359562429438,0,-0.0548060852171431,1.04576240334759,0,0,0,3
0.5025,9.98615799010932,0.525973950472693,0,-0.0550798632928205,1.04574801931048,0,0,0,3.015
0.505,9.98601994823242,0.528588302466262,0,-0.0553536375933836,1.04573356359894,0,0,0,3.03
0.5075,9.98588122192451,0.53120261823096,0,-0.0556274081000683,1.04571903621394,0,0,0,3.045
0.51,9.9857418111951,0.533816897587605,0,-0.0559011747941105,1.0457044371565,0,0,0,3.06
0.5125,9.98560171605373,0.536431140357016,0,-0.0561749376567466,1.0456897664276,0,0,0,3.075
0.515,9.98546093651002,0.539045346360017,0,-0.0564486966692132,1.04567502402826,0,0,0,3.09
0.5175,9.98531947257361,0.541659515417433,0,-0.0567224518127472,1.04566020995948,0,0,0,3.105
0.52,9.9851773242542,0.544273647350091,0,-0.0569962030685856,1.04564532422228,0,0,0,3.12
0.5225,9.98503449156152,0.546887741978822,0,-0.0572699504179659,1.04563036681768,0,0,0,3.135
0.525,9.98489097450538,0.549501799124458,0,-0.0575436938421257,1.0456153377467,0,0,0,3.15
0.5275,9.9847467730956,0.552115818607834,0,-0.0578174333223029,1.04560023701038,0,0,0,3.165
0.53,9.98460188734207,0.554729800249789,0,-0.0580911688397357,1.04558506460975,0,0,0,3.18
0.5325,9.98445631725472,0.557343743871163,0,-0.0583649003756626,1.04556982054585,0,0,0,3.195
0.535,9.98431006284352,0.5599576492928,0,-0.0586386279113223,1.04555450481973,0,0,0,3.21
0.5375,9.98416312411851,0.562571516335544,0,-0.0589123514279539,1.04553911743243,0,0,0,3.225
0.54,9.98401550108975,0.565185344820245,0,-0.0591860709067966,1.04552365838501,0,0,0,3.24
0.5425,9.98386719376736,0.567799134567754,0,-0.0594597863290899,1.04550812767852,0,0,0,3.255
0.545,9.9837182021615,0.570412885398923,0,-0.0597334976760738,1.04549252531404,0,0,0,3.27
0.5475,9.98356852628239,0.57302659713461,0,-0.0600072049289883,1.04547685129263,0,0,0,3.285
0.55,9.98341816614028,0.575640269595673,0,-0.0602809080690738,1.04546110561537,0,0,0,3.3
0.5525,9.98326712174549,0.578253902602974,0,-0.0605546070775711,1.04544528828334,0,0,0,3.315
0.555,9.98311539310835,0.580867495977378,0,-0.060828301935721,1.04542939929761,0,0,0,3.33
0.5575,9.98296298023928,0.583481049539752,0,-0.0611019926247649,1.04541343865929,0,0,0,3.345
0.56,9.98280988314872,0.586094563110965,0,-0.0613756791259442,1.04539740636945,0,0,0,3.36
0.5625,9.98265610184716,0.58870803651189,0,-0.0616493614205009,1.04538130242921,0,0,0,3.375
0.565,9.98250163634514,0.591321469563403,0,-0.061923039489677,1.04536512683967,0,0,0,3.39
0.5675,9.98234648665325,0.593934862086382,0,-0.0621967133147148,1.04534887960192,0,0,0,3.405
0.57,9.98219065278212,0.596548213901707,0,-0.0624703828768572,1.0453325607171,0,0,0,3.42
0.5725,9.98203413474243,0.599161524830262,0,-0.062744048157347,1.04531617018631,0,0,0,3.435
0.575,9.98187693254492,0.601774794692935,0,-0.0630177091374277,1.04529970801068,0,0,0,3.45
0.5775,9.98171904620034,0.604388023310613,0,-0.0632913657983426,1.04528317419134,0,0,0,3.465
0.58,9.98156047571954,0.607001210504189,0,-0.0635650181213357,1.04526656872942,0,0,0,3.48
0.5825,9.98140122111337,0.609614356094559,0,-0.0638386660876513,1.04524989162607,0,0,0,3.495
0.585,9.98124128239274,0.612227459902619,0,-0.0641123096785336,1.04523314288241,0,0,0,3.51
0.5875,9.98108065956864,0.614840521749272,0,-0.0643859488752276,1.0452163224996,0,0,0,3.525
0.59,9.98091935265205,0.617453541455419,0,-0.0646595836589782,1.0451994304788,0,0,0,3.54
0.5925,9.98075736165404,0.620066518841968,0,-0.0649332140110308,1.04518246682115,0,0,0,3.555
0.595,9.9805946865857,0.622679453729828,0,-0.0652068399126311,1.04516543152783,0,0,0,3.57
0.5975,9.9804313274582,0.625292345939912,0,-0.0654804613450252,1.0451483246,0,0,0,3.585
0.6,9.98026728428272,0.627905195293134,0,-0.0657540782894591,1.04513114603884,0,0,0,3.6
0.6025,9.9801025570705,0.630518001610412,0,-0.0660276907271796,1.04511389584551,0,0,0,3.615
0.605,9.97993714583285,0.633130764712669,0,-0.0663012986394336,1.04509657402121,0,0,0,3.63
0.6075,9.97977105058109,0.635743484420827,0,-0.0665749020074683,1.04507918056712,0,0,0,3.645
0.61,9.97960427132662,0.638356160555814,0,-0.0668485008125311,1.04506171548443,0,0,0,3.66
0.6125,9.97943680808085,0.64096879293856,0,-0.0671220950358699,1.04504417877435,0,0,0,3.675
0.615,9.97926866085527,0.643581381389997,0,-0.0673956846587329,1.04502657043806,0,0,0,3.69
0.6175,9.97909982966141,0.646193925731063,0,-0.0676692696623685,1.04500889047678,0,0,0,3.705
0.62,9.97893031451082,0.648806425782695,0,-0.0679428500280255,1.04499113889172,0,0,0,3.72
0.6225,9.97876011541515,0.651418881365836,0,-0.068216425736953,1.0449733156841,0,0,0,3.735
0.625,9.97858923238604,0.654031292301431,0,-0.0684899967704005,1.04495542085514,0,0,0,3.75
0.6275,9.97841766543521,0.656643658410428,0,-0.0687635631096175,1.04493745440606,0,0,0,3.765
0.63,9.97824541457442,0.659255979513779,0,-0.0690371247358543,1.0449194163381,0,0,0,3.78
0.6325,9.97807247981547,0.661868255432437,0,-0.0693106816303612,1.04490130665249,0,0,0,3.795
0.635,9.97789886117022,0.664480485987361,0,-0.069584233774389,1.04488312535048,0,0,0,3.81
0.6375,9.97772455865057,0.66709267099951,0,-0.0698577811491885,1.0448648724333,0,0,0,3.825
0.64,9.97754957226847,0.669704810289849,0,-0.0701313237360112,1.04484654790222,0,0,0,3.84
0.6425,9.9773739020359,0.672316903679344,0,-0.0704048615161088,1.04482815175848,0,0,0,3.855
0.645,9.97719754796491,0.674928950988965,0,-0.0706783944707333,1.04480968400336,0,0,0,3.87
0.6475,9.97702051006758,0.677540952039686,0,-0.070951922581137,1.0447911446381,0,0,0,3.885
0.65,9.97684278835605,0.680152906652482,0,-0.0712254458285727,1.04477253366399,0,0,0,3.9
0.6525,9.97666438284251,0.682764814648332,0,-0.0714989641942933,1.0447538510823,0,0,0,3.915
0.655,9.97648529353917,0.685376675848221,0,-0.0717724776595522,1.04473509689431,0,0,0,3.93
0.6575,9.97630552045831,0.687988490073133,0,-0.072045986205603,1.0447162711013,0,0,0,3.945
0.66,9.97612506361225,0.690600257144058,0,-0.0723194898136998,1.04469737370458,0,0,0,3.96
0.6625,9.97594392301337,0.693211976881988,0,-0.072592988465097,1.04467840470542,0,0,0,3.975
0.665,9.97576209867407,0.695823649107917,0,-0.0728664821410492,1.04465936410513,0,0,0,3.99
0.6675,9.97557959060683,0.698435273642847,0,-0.0731399708228115,1.04464025190502,0,0,0,4.005
0.67,9.97539639882414,0.701046850307777,0,-0.0734134544916392,1.0446210681064,0,0,0,4.02
0.6725,9.97521252333856,0.703658378923714,0,-0.0736869331287881,1.04460181271058,0,0,0,4.035
0.675,9.9750279641627,0.706269859311667,0,-0.0739604067155143,1.04458248571888,0,0,0,4.05
0.6775,9.97484272130921,0.708881291292647,0,-0.0742338752330742,1.04456308713262,0,0,0,4.065
0.68,9.97465679479078,0.711492674687669,0,-0.0745073386627245,1.04454361695314,0,0,0,4.08
0.6825,9.97447018462015,0.714104009317752,0,-0.0747807969857223,1.04452407518177,0,0,0,4.095
0.685,9.97428289081012,0.716715295003919,0,-0.0750542501833251,1.04450446181985,0,0,0,4.11
0.6875,9.97409491337352,0.719326531567194,0,-0.0753276982367908,1.04448477686872,0,0,0,4.125
0.69,9.97390625232324,0.721937718828606,0,-0.0756011411273774,1.04446502032973,0,0,0,4.14
0.6925,9.9737169076722,0.724548856609187,0,-0.0758745788363436,1.04444519220424,0,0,0,4.155
0.695,9.97352687943339,0.727159944729973,0,-0.0761480113449481,1.04442529249361,0,0,0,4.17
0.6975,9.97333616761983,0.729770983012002,0,-0.0764214386344503,1.04440532119919,0,0,0,4.185
0.7,9.97314477224458,0.732381971276317,0,-0.0766948606861096,1.04438527832237,0,0,0,4.2
0.7025,9.97295269332077,0.734992909343963,0,-0.0769682774811861,1.0443651638645,0,0,0,4.215
0.705,9.97275993086157,0.73760379703599,0,-0.0772416890009401,1.04434497782698,0,0,0,4.23
0.7075,9.97256648488018,0.740214634173449,0,-0.0775150952266322,1.04432472021118,0,0,0,4.245
0.71,9.97237235538987,0.742825420577398,0,-0.0777884961395234,1.04430439101849,0,0,0,4.26
0.7125,9.97217754240393,0.745436156068896,0,-0.0780618917208752,1.04428399025031,0,0,0,4.275
0.715,9.97198204593572,0.748046840469005,0,-0.0783352819519494,1.04426351790803,0,0,0,4.29
0.7175,9.97178586599864,0.750657473598792,0,-0.078608666814008,1.04424297399306,0,0,0,4.305
0.72,9.97158900260614,0.753268055279327,0,-0.0788820462883135,1.04422235850681,0,0,0,4.32
0.7225,9.97139145577171,0.755878585331685,0,-0.0791554203561289,1.04420167145068,0,0,0,4.335
0.725,9.97119322550888,0.75848906357694,0,-0.0794287889987173,1.0441809128261,0,0,0,4.35
0.7275,9.97099431183125,0.761099489836176,0,-0.0797021521973423,1.04416008263449,0,0,0,4.365
0.73,9.97079471475245,0.763709863930475,0,-0.079975509933268,1.04413918087727,0,0,0,4.38
0.7325,9.97059443428615,0.766320185680925,0,-0.0802488621877587,1.04411820755589,0,0,0,4.395
0.735,9.97039347044609,0.768930454908618,0,-0.0805222089420791,1.04409716267177,0,0,0,4.41
0.7375,9.97019182324604,0.77154067143465,0,-0.0807955501774944,1.04407604622636,0,0,0,4.425
0.74,9.96998949269982,0.774150835080117,0,-0.08106888587527,1.04405485822111,0,0,0,4.44
0.7425,9.96978647882129,0.776760945666123,0,-0.0813422160166718,1.04403359865746,0,0,0,4.455
0.745,9.96958278162438,0.779371003013774,0,-0.081615540582966,1.04401226753688,0,0,0,4.47
0.7475,9.96937840112304,0.781981006944178,0,-0.0818888595554193,1.04399086486083,0,0,0,4.485
0.75,9.96917333733128,0.784590957278449,0,-0.0821621729152987,1.04396939063077,0,0,0,4.5
0.7525,9.96896759026315,0.787200853837705,0,-0.0824354806438715,1.04394784484818,0,0,0,4.515
0.755,9.96876115993277,0.789810696443065,0,-0.0827087827224057,1.04392622751454,0,0,0,4.53
0.7575,9.96855404635427,0.792420484915653,0,-0.0829820791321692,1.04390453863131,0,0,0,4.545
0.76,9.96834624954185,0.795030219076598,0,-0.0832553698544308,1.0438827782,0,0,0,4.56
0.7625,9.96813776950975,0.797639898747031,0,-0.0835286548704593,1.04386094622209,0,0,0,4.575
0.765,9.96792860627227,0.800249523748087,0,-0.0838019341615241,1.04383904269908,0,0,0,4.59
0.7675,9.96771875984373,0.802859093900906,0,-0.0840752077088949,1.04381706763247,0,0,0,4.605
0.77,9.96750823023852,0.805468609026631,0,-0.0843484754938418,1.04379502102377,0,0,0,4.62
0.7725,9.96729701747108,0.808078068946408,0,-0.0846217374976354,1.04377290287449,0,0,0,4.635
0.775,9.96708512155587,0.810687473481388,0,-0.0848949937015466,1.04375071318613,0,0,0,4.65
0.7775,9.96687254250742,0.813296822452724,0,-0.0851682440868467,1.04372845196024,0,0,0,4.665
0.78,9.9666592803403,0.815906115681576,0,-0.0854414886348074,1.04370611919832,0,0,0,4.68
0.7825,9.96644533506912,0.818515352989104,0,-0.0857147273267008,1.04368371490191,0,0,0,4.695
0.785,9.96623070670856,0.821124534196474,0,-0.0859879601437995,1.04366123907255,0,0,0,4.71
0.7875,9.96601539527332,0.823733659124857,0,-0.0862611870673763,1.04363869171178,0,0,0,4.725
0.79,9.96579940077815,0.826342727595425,0,-0.0865344080787046,1.04361607282114,0,0,0,4.74
0.7925,9.96558272323787,0.828951739429356,0,-0.0868076231590582,1.04359338240218,0,0,0,4.755
0.795,9.96536536266731,0.83156069444783,0,-0.087080832289711,1.04357062045646,0,0,0,4.77
0.7975,9.96514731908139,0.834169592472034,0,-0.0873540354519378,1.04354778698554,0,0,0,4.785
0.8,9.96492859249504,0.836778433323155,0,-0.0876272326270134,1.04352488199098,0,0,0,4.8
0.8025,9.96470918292326,0.839387216822387,0,-0.0879004237962131,1.04350190547435,0,0,0,4.815
0.805,9.96448909038108,0.841995942790926,0,-0.0881736089408129,1.04347885743723,0,0,0,4.83
0.8075,9.96426831488359,0.844604611049974,0,-0.0884467880420888,1.04345573788119,0,0,0,4.845
0.81,9.96404685644592,0.847213221420735,0,-0.0887199610813174,1.04343254680783,0,0,0,4.86
0.8125,9.96382471508325,0.849821773724417,0,-0.0889931280397758,1.04340928421873,0,0,0,4.875
0.815,9.96360189081081,0.852430267782233,0,-0.0892662888987415,1.04338595011549,0,0,0,4.89
0.8175,9.96337838364386,0.8550387034154,0,-0.0895394436394921,1.0433625444997,0,0,0,4.905
0.82,9.96315419359773,0.857647080445139,0,-0.0898125922433061,1.04333906737297,0,0,0,4.92
0.8225,9.96292932068777,0.860255398692674,0,-0.0900857346914621,1.0433155187369,0,0,0,4.935
0.825,9.96270376492941,0.862863657979234,0,-0.0903588709652392,1.04329189859312,0,0,0,4.95
0.8275,9.96247752633811,0.865471858126051,0,-0.090632001045917,1.04326820694324,0,0,0,4.965
0.83,9.96225060492936,0.868079998954363,0,-0.0909051249147754,1.04324444378889,0,0,0,4.98
0.8325,9.96202300071872,0.87068808028541,0,-0.0911782425530948,1.04322060913168,0,0,0,4.995
0.835,9.9617947137218,0.873296101940437,0,-0.091451353942156,1.04319670297327,0,0,0,5.01
0.8375,9.96156574395424,0.875904063740693,0,-0.0917244590632403,1.04317272531528,0,0,0,5.025
0.84,9.96133609143173,0.878511965507432,0,-0.0919975578976293,1.04314867615936,0,0,0,5.04
0.8425,9.96110575617,0.88111980706191,0,-0.0922706504266051,1.04312455550716,0,0,0,5.055
0.845,9.96087473818486,0.883727588225389,0,-0.0925437366314502,1.04310036336032,0,0,0,5.07
0.8475,9.96064303749213,0.886335308819134,0,-0.0928168164934478,1.04307609972052,0,0,0,5.085
0.85,9.9604106541077,0.888942968664415,0,-0.093089889993881,1.04305176458941,0,0,0,5.1
0.8525,9.96017758804748,0.891550567582506,0,-0.0933629571140338,1.04302735796866,0,0,0,5.115
0.855,9.95994383932746,0.894158105394685,0,-0.0936360178351904,1.04300287985994,0,0,0,5.13
0.8575,9.95970940796365,0.896765581922234,0,-0.0939090721386356,1.04297833026493,0,0,0,5.145
0.86,9.95947429397213,0.899372996986439,0,-0.0941821200056544,1.04295370918531,0,0,0,5.16
0.8625,9.959238497369,0.901980350408592,0,-0.0944551614175326,1.04292901662277,0,0,0,5.175
0.865,9.95900201817044,0.904587642009985,0,-0.0947281963555562,1.04290425257901,0,0,0,5.19
0.8675,9.95876485639264,0.90719487161192,0,-0.0950012248010115,1.04287941705571,0,0,0,5.205
0.87,9.95852701205186,0.909802039035699,0,-0.0952742467351856,1.04285451005459,0,0,0,5.22
0.8725,9.9582884851644,0.91240914410263,0,-0.0955472621393658,1.04282953157734,0,0,0,5.235
0.875,9.95804927574662,0.915016186634024,0,-0.0958202709948399,1.04280448162569,0,0,0,5.25
0.8775,9.9578093838149,0.917623166451198,0,-0.0960932732828962,1.04277936020135,0,0,0,5.265
0.88,9.95756880938569,0.920230083375472,0,-0.0963662689848235,1.04275416730603,0,0,0,5.28
0.8825,9.95732755247548,0.92283693722817,0,-0.0966392580819108,1.04272890294147,0,0,0,5.295
0.885,9.9570856131008,0.925443727830623,0,-0.0969122405554479,1.0427035671094,0,0,0,5.31
0.8875,9.95684299127824,0.928050455004162,0,-0.0971852163867247,1.04267815981156,0,0,0,5.325
0.89,9.95659968702442,0.930657118570127,0,-0.0974581855570319,1.04265268104968,0,0,0,5.34
0.8925,9.95635570035602,0.933263718349859,0,-0.0977311480476604,1.04262713082551,0,0,0,5.355
0.895,9.95611103128976,0.935870254164704,0,-0.0980041038399016,1.04260150914081,0,0,0,5.37
0.8975,9.95586567984242,0.938476725836014,0,-0.0982770529150475,1.04257581599732,0,0,0,5.385
0.9,9.9556196460308,0.941083133185143,0,-0.0985499952543904,1.04255005139682,0,0,0,5.4
0.9025,9.95537292987177,0.943689476033452,0,-0.0988229308392231,1.04252421534106,0,0,0,5.415
0.905,9.95512553138225,0.946295754202304,0,-0.099095859650839,1.04249830783182,0,0,0,5.43
0.9075,9.95487745057918,0.948901967513068,0,-0.0993687816705318,1.04247232887087,0,0,0,5.445
0.91,9.95462868747957,0.951508115787117,0,-0.0996416968795958,1.04244627846,0,0,0,5.46
0.9125,9.95437924210047,0.954114198845828,0,-0.0999146052593255,1.04242015660099,0,0,0,5.475
0.915,9.95412911445898,0.956720216510583,0,-0.100187506791016,1.04239396329562,0,0,0,5.49
0.9175,9.95387830457224,0.959326168602769,0,-0.100460401455963,1.0423676985457,0,0,0,5.505
0.92,9.95362681245744,0.961932054943776,0,-0.100733289235463,1.04234136235302,0,0,0,5.52
0.9225,9.95337463813182,0.964537875355,0,-0.101006170110813,1.0423149547194,0,0,0,5.535
0.925,9.95312178161265,0.96714362965784,0,-0.101279044063308,1.04228847564663,0,0,0,5.55
0.9275,9.95286824291729,0.969749317673702,0,-0.101551911074247,1.04226192513654,0,0,0,5.565
0.93,9.95261402206308,0.972354939223993,0,-0.101824771124928,1.04223530319094,0,0,0,5.58
0.9325,9.95235911906748,0.974960494130128,0,-0.10209762419665,1.04220860981166,0,0,0,5.595
0.935,9.95210353394793,0.977565982213525,0,-0.10237047027071,1.04218184500053,0,0,0,5.61
0.9375,9.95184726672197,0.980171403295606,0,-0.102643309328409,1.04215500875938,0,0,0,5.625
0.94,9.95159031740715,0.982776757197799,0,-0.102916141351047,1.04212810109005,0,0,0,5.64
0.9425,9.95133268602109,0.985382043741534,0,-0.103188966319923,1.04210112199439,0,0,0,5.655
0.945,9.95107437258145,0.98798726274825,0,-0.10346178421634,1.04207407147425,0,0,0,5.67
0.9475,9.95081537710592,0.990592414039387,0,-0.103734595021597,1.04204694953148,0,0,0,5.685
0.95,9.95055569961226,0.99319749743639,0,-0.104007398716998,1.04201975616793,0,0,0,5.7
0.9525,9.95029534011828,0.995802512760711,0,-0.104280195283844,1.04199249138548,0,0,0,5.715
0.955,9.9500342986418,0.998407459833803,0,-0.104552984703437,1.04196515518599,0,0,0,5.73
0.9575,9.94977257520073,1.00101233847713,0,-0.104825766957083,1.04193774757133,0,0,0,5.745
0.96,9.949510169813,1.00361714851215,0,-0.105098542026083,1.04191026854338,0,0,0,5.76
0.9625,9.9492470824966,1.00622188976034,0,-0.105371309891744,1.04188271810403,0,0,0,5.775
0.965,9.94898331326956,1.00882656204316,0,-0.105644070535368,1.04185509625517,0,0,0,5.79
0.9675,9.94871886214996,1.0114311651821,0,-0.105916823938262,1.04182740299868,0,0,0,5.805
0.97,9.94845372915592,1.01403569899865,0,-0.106189570081732,1.04179963833647,0,0,0,5.82
0.9725,9.94818791430562,1.01664016331428,0,-0.106462308947083,1.04177180227044,0,0,0,5.835
0.975,9.94792141761726,1.0192445579505,0,-0.106735040515622,1.0417438948025,0,0,0,5.85
0.9775,9.94765423910913,1.0218488827288,0,-0.107007764768658,1.04171591593455,0,0,0,5.865
0.98,9.94738637879953,1.02445313747067,0,-0.107280481687496,1.04168786566853,0,0,0,5.88
0.9825,9.94711783670682,1.02705732199764,0,-0.107553191253447,1.04165974400634,0,0,0,5.895
0.985,9.94684861284941,1.02966143613121,0,-0.107825893447818,1.04163155094992,0,0,0,5.91
0.9875,9.94657870724574,1.0322654796929,0,-0.108098588251918,1.0416032865012,0,0,0,5.925
0.99,9.94630811991432,1.03486945250423,0,-0.108371275647059,1.04157495066211,0,0,0,5.94
0.9925,9.9460368508737,1.03747335438672,0,-0.108643955614549,1.04154654343461,0,0,0,5.955
0.995,9.94576490014246,1.04007718516191,0,-0.1089166281357,1.04151806482063,0,0,0,5.97
0.9975,9.94549226773924,1.04268094465133,0,-0.109189293191823,1.04148951482212,0,0,0,5.985
1,9.94521895368273,1.04528463267653,0,-0.10946195076423,1.04146089344105,0,0,0,6
1.0025,9.94494495799167,1.04788824905906,0,-0.109734600834233,1.04143220067938,0,0,0,6.015
1.005,9.94467028068483,1.05049179362045,0,-0.110007243383146,1.04140343653907,0,0,0,6.03
1.0075,9.94439492178104,1.05309526618227,0,-0.11027987839228,1.0413746010221,0,0,0,6.045
1.01,9.94411888129917,1.05569866656608,0,-0.110552505842951,1.04134569413043,0,0,0,6.06
1.0125,9.94384215925814,1.05830199459345,0,-0.110825125716473,1.04131671586606,0,0,0,6.075
1.015,9.94356475567692,1.06090525008594,0,-0.111097737994161,1.04128766623097,0,0,0,6.09
1.0175,9.94328667057451,1.06350843286513,0,-0.111370342657329,1.04125854522714,0,0,0,6.105
1.02,9.94300790396999,1.0661115427526,0,-0.111642939687295,1.04122935285658,0,0,0,6.12
1.0225,9.94272845588245,1.06871457956994,0,-0.111915529065374,1.04120008912128,0,0,0,6.135
1.025,9.94244832633105,1.07131754313874,0,-0.112188110772884,1.04117075402326,0,0,0,6.15
1.0275,9.942167515335,1.07392043328059,0,-0.112460684791142,1.04114134756452,0,0,0,6.165
1.03,9.94188602291352,1.07652324981709,0,-0.112733251101466,1.04111186974707,0,0,0,6.18
1.0325,9.94160384908593,1.07912599256986,0,-0.113005809685175,1.04108232057295,0,0,0,6.195
1.035,9.94132099387155,1.0817286613605,0,-0.113278360523589,1.04105270004416,0,0,0,6.21
1.0375,9.94103745728978,1.08433125601062,0,-0.113550903598025,1.04102300816275,0,0,0,6.225
1.04,9.94075323936005,1.08693377634185,0,-0.113823438889806,1.04099324493075,0,0,0,6.24
1.0425,9.94046834010183,1.08953622217582,0,-0.114095966380251,1.04096341035019,0,0,0,6.255
1.045,9.94018275953466,1.09213859333415,0,-0.114368486050682,1.04093350442313,0,0,0,6.27
1.0475,9.93989649767811,1.09474088963848,0,-0.11464099788242,1.04090352715162,0,0,0,6.285
1.05,9.9396095545518,1.09734311091045,0,-0.114913501856788,1.04087347853769,0,0,0,6.3
1.0525,9.93932193017539,1.09994525697172,0,-0.115185997955109,1.04084335858343,0,0,0,6.315
1.055,9.9390336245686,1.10254732764392,0,-0.115458486158707,1.04081316729089,0,0,0,6.33
1.0575,9.93874463775119,1.10514932274872,0,-0.115730966448904,1.04078290466214,0,0,0,6.345
1.06,9.93845496974297,1.10775124210779,0,-0.116003438807026,1.04075257069925,0,0,0,6.36
1.0625,9.93816462056378,1.11035308554278,0,-0.116275903214398,1.04072216540431,0,0,0,6.375
1.065,9.93787359023353,1.11295485287537,0,-0.116548359652345,1.04069168877939,0,0,0,6.39
1.0675,9.93758187877218,1.11555654392723,0,-0.116820808102194,1.04066114082659,0,0,0,6.405
1.07,9.9372894861997,1.11815815852006,0,-0.117093248545271,1.040630521548,0,0,0,6.42
1.0725,9.93699641253614,1.12075969647554,0,-0.117365680962903,1.04059983094572,0,0,0,6.435
1.075,9.93670265780158,1.12336115761536,0,-0.117638105336418,1.04056906902185,0,0,0,6.45
1.0775,9.93640822201617,1.12596254176121,0,-0.117910521647144,1.04053823577851,0,0,0,6.465
1.08,9.93611310520008,1.12856384873482,0,-0.118182929876411,1.0405073312178,0,0,0,6.48
1.0825,9.93581730737354,1.13116507835787,0,-0.118455330005547,1.04047635534183,0,0,0,6.495
1.085,9.93552082855682,1.1337662304521,0,-0.118727722015884,1.04044530815275,0,0,0,6.51
1.0875,9.93522366877025,1.13636730483921,0,-0.11900010588875,1.04041418965267,0,0,0,6.525
1.09,9.93492582803417,1.13896830134094,0,-0.119272481605478,1.04038299984372,0,0,0,6.54
1.0925,9.93462730636903,1.14156921977901,0,-0.119544849147399,1.04035173872805,0,0,0,6.555
1.095,9.93432810379527,1.14417005997516,0,-0.119817208495845,1.04032040630779,0,0,0,6.57
1.0975,9.93402822033339,1.14677082175113,0,-0.120089559632149,1.0402890025851,0,0,0,6.585
1.1,9.93372765600397,1.14937150492867,0,-0.120361902537645,1.04025752756213,0,0,0,6.6
1.1025,9.93342641082758,1.15197210932952,0,-0.120634237193666,1.04022598124103,0,0,0,6.615
1.105,9.93312448482489,1.15457263477546,0,-0.120906563581546,1.04019436362396,0,0,0,6.63
1.1075,9.93282187801658,1.15717308108823,0,-0.121178881682622,1.0401626747131,0,0,0,6.645
1.11,9.93251859042339,1.15977344808961,0,-0.121451191478228,1.04013091451061,0,0,0,6.66
1.1125,9.93221462206612,1.16237373560138,0,-0.1217234929497,1.04009908301867,0,0,0,6.675
1.115,9.9319099729656,1.1649739434453,0,-0.121995786078376,1.04006718023946,0,0,0,6.69
1.1175,9.9316046431427,1.16757407144317,0,-0.122268070845593,1.04003520617518,0,0,0,6.705
1.12,9.93129863261835,1.17017411941677,0,-0.122540347232688,1.04000316082801,0,0,0,6.72
1.1225,9.93099194141353,1.17277408718791,0,-0.122812615221,1.03997104420014,0,0,0,6.735
1.125,9.93068456954926,1.17537397457838,0,-0.123084874791869,1.03993885629378,0,0,0,6.75
1.1275,9.93037651704661,1.17797378140998,0,-0.123357125926633,1.03990659711114,0,0,0,6.765
1.13,9.93006778392667,1.18057350750454,0,-0.123629368606633,1.03987426665442,0,0,0,6.78
1.1325,9.92975837021063,1.18317315268386,0,-0.12390160281321,1.03984186492585,0,0,0,6.795
1.135,9.92944827591969,1.18577271676978,0,-0.124173828527705,1.03980939192764,0,0,0,6.81
1.1375,9.92913750107509,1.18837219958411,0,-0.124446045731459,1.03977684766201,0,0,0,6.825
1.14,9.92882604569814,1.1909716009487,0,-0.124718254405817,1.03974423213121,0,0,0,6.84
1.1425,9.92851390981018,1.19357092068538,0,-0.12499045453212,1.03971154533746,0,0,0,6.855
1.145,9.92820109343261,1.196170158616,0,-0.125262646091712,1.039678787283,0,0,0,6.87
1.1475,9.92788759658688,1.19876931456241,0,-0.125534829065938,1.03964595797009,0,0,0,6.885
1.15,9.92757341929446,1.20136838834647,0,-0.125807003436143,1.03961305740096,0,0,0,6.9
1.1525,9.92725856157688,1.20396737979004,0,-0.126079169183671,1.03958008557788,0,0,0,6.915
1.155,9.92694302345574,1.20656628871498,0,-0.12635132628987,1.0395470425031,0,0,0,6.93
1.1575,9.92662680495265,1.20916511494318,0,-0.126623474736085,1.03951392817889,0,0,0,6.945
1.16,9.92630990608929,1.21176385829651,0,-0.126895614503664,1.03948074260752,0,0,0,6.96
1.1625,9.92599232688738,1.21436251859685,0,-0.127167745573955,1.03944748579127,0,0,0,6.975
1.165,9.92567406736868,1.21696109566609,0,-0.127439867928306,1.03941415773241,0,0,0,6.99
1.1675,9.92535512755502,1.21955958932614,0,-0.127711981548066,1.03938075843322,0,0,0,7.005
1.17,9.92503550746824,1.22215799939889,0,-0.127984086414586,1.039347287896,0,0,0,7.02
1.1725,9.92471520713025,1.22475632570626,0,-0.128256182509214,1.03931374612304,0,0,0,7.035
1.175,9.92439422656302,1.22735456807015,0,-0.128528269813302,1.03928013311664,0,0,0,7.05
1.1775,9.92407256578853,1.22995272631248,0,-0.128800348308201,1.03924644887911,0,0,0,7.065
1.18,9.92375022482883,1.23255080025519,0,-0.129072417975264,1.03921269341274,0,0,0,7.08
1.1825,9.92342720370602,1.23514878972019,0,-0.129344478795843,1.03917886671986,0,0,0,7.095
1.185,9.92310350244224,1.23774669452943,0,-0.129616530751291,1.03914496880279,0,0,0,7.11
1.1875,9.92277912105967,1.24034451450485,0,-0.129888573822962,1.03911099966384,0,0,0,7.125
1.19,9.92245405958055,1.2429422494684,0,-0.13016060799221,1.03907695930535,0,0,0,7.14
1.1925,9.92212831802714,1.24553989924203,0,-0.130432633240391,1.03904284772964,0,0,0,7.155
1.195,9.92180189642179,1.2481374636477,0,-0.130704649548861,1.03900866493907,0,0,0,7.17
1.1975,9.92147479478686,1.25073494250738,0,-0.130976656898975,1.03897441093596,0,0,0,7.185
1.2,9.92114701314478,1.25333233564304,0,-0.131248655272091,1.03894008572267,0,0,0,7.2
1.2025,9.920818551518,1.25592964287666,0,-0.131520644649565,1.03890568930154,0,0,0,7.215
1.205,9.92048940992904,1.25852686403021,0,-0.131792625012757,1.03887122167495,0,0,0,7.23
1.2075,9.92015958840046,1.2611239989257,0,-0.132064596343025,1.03883668284524,0,0,0,7.245
1.21,9.91982908695487,1.2637210473851,0,-0.132336558621728,1.03880207281479,0,0,0,7.26
1.2125,9.91949790561491,1.26631800923044,0,-0.132608511830227,1.03876739158597,0,0,0,7.275
1.215,9.91916604440329,1.2689148842837,0,-0.132880455949881,1.03873263916116,0,0,0,7.29
1.2175,9.91883350334275,1.27151167236692,0,-0.133152390962053,1.03869781554273,0,0,0,7.305
1.22,9.91850028245609,1.27410837330209,0,-0.133424316848103,1.03866292073308,0,0,0,7.32
1.2225,9.91816638176613,1.27670498691126,0,-0.133696233589395,1.03862795473459,0,0,0,7.335
1.225,9.91783180129578,1.27930151301644,0,-0.133968141167292,1.03859291754967,0,0,0,7.35
1.2275,9.91749654106795,1.28189795143969,0,-0.134240039563157,1.03855780918071,0,0,0,7.365
1.23,9.91716060110563,1.28449430200303,0,-0.134511928758355,1.03852262963012,0,0,0,7.38
1.2325,9.91682398143184,1.28709056452852,0,-0.134783808734251,1.03848737890031,0,0,0,7.395
1.235,9.91648668206965,1.28968673883822,0,-0.135055679472211,1.0384520569937,0,0,0,7.41
1.2375,9.91614870304219,1.29228282475418,0,-0.1353275409536,1.03841666391271,0,0,0,7.425
1.24,9.91581004437262,1.29487882209847,0,-0.135599393159785,1.03838119965976,0,0,0,7.44
1.2425,9.91547070608414,1.29747473069317,0,-0.135871236072135,1.03834566423729,0,0,0,7.455
1.245,9.91513068820002,1.30007055036035,0,-0.136143069672017,1.03831005764773,0,0,0,7.47
1.2475,9.91478999074355,1.3026662809221,0,-0.136414893940801,1.03827437989352,0,0,0,7.485
1.25,9.9144486137381,1.30526192220052,0,-0.136686708859854,1.0382386309771,0,0,0,7.5
1.2525,9.91410655720706,1.30785747401769,0,-0.136958514410549,1.03820281090094,0,0,0,7.515
1.255,9.91376382117388,1.31045293619572,0,-0.137230310574255,1.03816691966747,0,0,0,7.53
1.2575,9.91342040566203,1.31304830855673,0,-0.137502097332344,1.03813095727917,0,0,0,7.545
1.26,9.91307631069507,1.31564359092283,0,-0.137773874666188,1.03809492373849,0,0,0,7.56
1.2625,9.91273153629657,1.31823878311613,0,-0.13804564255716,1.03805881904791,0,0,0,7.575
1.265,9.91238608249016,1.32083388495878,0,-0.138317400986632,1.03802264320989,0,0,0,7.59
1.2675,9.91203994929953,1.32342889627289,0,-0.138589149935979,1.03798639622693,0,0,0,7.605
1.27,9.9116931367484,1.32602381688062,0,-0.138860889386576,1.03795007810151,0,0,0,7.62
1.2725,9.91134564486053,1.32861864660412,0,-0.139132619319797,1.0379136888361,0,0,0,7.635
1.275,9.91099747365975,1.33121338526552,0,-0.139404339717019,1.03787722843322,0,0,0,7.65
1.2775,9.91064862316991,1.333808032687,0,-0.139676050559618,1.03784069689535,0,0,0,7.665
1.28,9.91029909341493,1.33640258869072,0,-0.139947751828972,1.037804094225,0,0,0,7.68
1.2825,9.90994888441876,1.33899705309885,0,-0.140219443506458,1.03776742042468,0,0,0,7.695
1.285,9.9095979962054,1.34159142573357,0,-0.140491125573455,1.0377306754969,0,0,0,7.71
1.2875,9.90924642879891,1.34418570641707,0,-0.140762798011342,1.03769385944419,0,0,0,7.725
1.29,9.90889418222339,1.34677989497153,0,-0.141034460801499,1.03765697226905,0,0,0,7.74
1.2925,9.90854125650296,1.34937399121915,0,-0.141306113925307,1.03762001397404,0,0,0,7.755
1.295,9.90818765166183,1.35196799498213,0,-0.141577757364146,1.03758298456166,0,0,0,7.77
1.2975,9.90783336772423,1.35456190608269,0,-0.141849391099399,1.03754588403448,0,0,0,7.785
1.3,9.90747840471444,1.35715572434304,0,-0.142121015112448,1.03750871239501,0,0,0,7.8
1.3025,9.90712276265678,1.35974944958541,0,-0.142392629384676,1.03747146964583,0,0,0,7.815
1.305,9.90676644157564,1.36234308163202,0,-0.142664233897467,1.03743415578946,0,0,0,7.83
1.3075,9.90640944149544,1.3649366203051,0,-0.142935828632206,1.03739677082849,0,0,0,7.845
1.31,9.90605176244065,1.36753006542691,0,-0.143207413570278,1.03735931476546,0,0,0,7.86
1.3125,9.90569340443577,1.37012341681968,0,-0.143478988693068,1.03732178760294,0,0,0,7.875
1.315,9.90533436750538,1.37271667430568,0,-0.143750553981964,1.03728418934351,0,0,0,7.89
1.3175,9.90497465167407,1.37530983770715,0,-0.144022109418352,1.03724651998975,0,0,0,7.905
1.32,9.90461425696651,1.37790290684638,0,-0.14429365498362,1.03720877954422,0,0,0,7.92
1.3225,9.9042531834074,1.38049588154563,0,-0.144565190659158,1.03717096800953,0,0,0,7.935
1.325,9.90389143102147,1.38308876162719,0,-0.144836716426353,1.03713308538827,0,0,0,7.95
1.3275,9.90352899983354,1.38568154691334,0,-0.145108232266596,1.03709513168302,0,0,0,7.965
1.33,9.90316588986843,1.38827423722637,0,-0.145379738161278,1.03705710689639,0,0,0,7.98
1.3325,9.90280210115103,1.39086683238859,0,-0.14565123409179,1.03701901103099,0,0,0,7.995
1.335,9.90243763370629,1.3934593322223,0,-0.145922720039523,1.03698084408943,0,0,0,8.01
1.3375,9.90207248755917,1.39605173654981,0,-0.146194195985872,1.03694260607432,0,0,0,8.025
1.34,9.90170666273471,1.39864404519344,0,-0.146465661912228,1.03690429698828,0,0,0,8.04
1.3425,9.90134015925798,1.40123625797552,0,-0.146737117799985,1.03686591683395,0,0,0,8.055
1.345,9.90097297715409,1.40382837471839,0,-0.14700856363054,1.03682746561395,0,0,0,8.07
1.3475,9.90060511644822,1.40642039524437,0,-0.147279999385286,1.03678894333091,0,0,0,8.085
1.35,9.90023657716558,1.40901231937583,0,-0.14755142504562,1.03675034998748,0,0,0,8.1
1.3525,9.89986735933142,1.4116041469351,0,-0.14782284059294,1.0367116855863,0,0,0,8.115
1.355,9.89949746297105,1.41419587774455,0,-0.148094246008641,1.03667295013002,0,0,0,8.13
1.3575,9.89912688810983,1.41678751162654,0,-0.148365641274123,1.0366341436213,0,0,0,8.145
1.36,9.89875563477316,1.41937904840344,0,-0.148637026370784,1.0365952660628,0,0,0,8.16
1.3625,9.89838370298647,1.42197048789764,0,-0.148908401280025,1.03655631745717,0,0,0,8.175
1.365,9.89801109277526,1.42456182993153,0,-0.149179765983244,1.0365172978071,0,0,0,8.19
1.3675,9.89763780416507,1.42715307432748,0,-0.149451120461843,1.03647820711525,0,0,0,8.205
1.37,9.89726383718149,1.4297442209079,0,-0.149722464697224,1.03643904538431,0,0,0,8.22
1.3725,9.89688919185014,1.4323352694952,0,-0.14999379867079,1.03639981261695,0,0,0,8.235
1.375,9.8965138681967,1.43492621991179,0,-0.150265122363942,1.03636050881588,0,0,0,8.25
1.3775,9.8961378662469,1.43751707198009,0,-0.150536435758085,1.03632113398377,0,0,0,8.265
1.38,9.89576118602651,1.44010782552252,0,-0.150807738834624,1.03628168812333,0,0,0,8.28
1.3825,9.89538382756134,1.44269848036152,0,-0.151079031574964,1.03624217123727,0,0,0,8.295
1.385,9.89500579087726,1.44528903631952,0,-0.151350313960509,1.03620258332828,0,0,0,8.31
1.3875,9.89462707600018,1.44787949321898,0,-0.151621585972668,1.03616292439909,0,0,0,8.325
1.39,9.89424768295606,1.45046985088234,0,-0.151892847592848,1.03612319445242,0,0,0,8.34
1.3925,9.8938676117709,1.45306010913206,0,-0.152164098802455,1.03608339349098,0,0,0,8.355
1.395,9.89348686247074,1.45565026779061,0,-0.1524353395829,1.03604352151751,0,0,0,8.37
1.3975,9.89310543508169,1.45824032668047,0,-0.152706569915592,1.03600357853473,0,0,0,8.385
1.4,9.89272332962988,1.46083028562412,0,-0.15297778978194,1.03596356454539,0,0,0,8.4
1.4025,9.89234054614152,1.46342014444403,0,-0.153248999163356,1.03592347955222,0,0,0,8.415
1.405,9.89195708464282,1.46600990296271,0,-0.153520198041251,1.03588332355798,0,0,0,8.43
1.4075,9.89157294516008,1.46859956100265,0,-0.153791386397038,1.03584309656542,0,0,0,8.445
1.41,9.89118812771962,1.47118911838637,0,-0.154062564212129,1.03580279857728,0,0,0,8.46
1.4125,9.89080263234782,1.47377857493638,0,-0.154333731467939,1.03576242959635,0,0,0,8.475
1.415,9.89041645907109,1.4763679304752,0,-0.154604888145882,1.03572198962538,0,0,0,8.49
1.4175,9.89002960791592,1.47895718482535,0,-0.154876034227372,1.03568147866714,0,0,0,8.505
1.42,9.8896420789088,1.48154633780938,0,-0.155147169693827,1.03564089672441,0,0,0,8.52
1.4225,9.88925387207631,1.48413538924982,0,-0.155418294526662,1.03560024379998,0,0,0,8.535
1.425,9.88886498744505,1.48672433896923,0,-0.155689408707296,1.03555951989662,0,0,0,8.55
1.4275,9.88847542504167,1.48931318679016,0,-0.155960512217146,1.03551872501714,0,0,0,8.565
1.43,9.88808518489287,1.49190193253517,0,-0.15623160503763,1.03547785916432,0,0,0,8.58
1.4325,9.8876942670254,1.49449057602684,0,-0.15650268715017,1.03543692234096,0,0,0,8.595
1.435,9.88730267146606,1.49707911708774,0,-0.156773758536184,1.03539591454988,0,0,0,8.61
1.4375,9.88691039824167,1.49966755554045,0,-0.157044819177095,1.03535483579389,0,0,0,8.625
1.44,9.88651744737914,1.50225589120757,0,-0.157315869054323,1.03531368607579,0,0,0,8.64
1.4425,9.88612381890539,1.5048441239117,0,-0.157586908149292,1.03527246539841,0,0,0,8.655
1.445,9.88572951284739,1.50743225347543,0,-0.157857936443424,1.03523117376457,0,0,0,8.67
1.4475,9.88533452923219,1.51002027972139,0,-0.158128953918144,1.03518981117711,0,0,0,8.685
1.45,9.88493886808684,1.51260820247219,0,-0.158399960554877,1.03514837763886,0,0,0,8.7
1.4525,9.88454252943846,1.51519602155046,0,-0.158670956335047,1.03510687315266,0,0,0,8.715
1.455,9.88414551331422,1.51778373677883,0,-0.158941941240082,1.03506529772135,0,0,0,8.73
1.4575,9.88374781974134,1.52037134797995,0,-0.159212915251407,1.03502365134778,0,0,0,8.745
1.46,9.88334944874706,1.52295885497646,0,-0.159483878350452,1.03498193403482,0,0,0,8.76
1.4625,9.88295040035869,1.52554625759101,0,-0.159754830518644,1.03494014578531,0,0,0,8.775
1.465,9.88255067460359,1.52813355564627,0,-0.160025771737413,1.03489828660212,0,0,0,8.79
1.4675,9.88215027150915,1.53072074896491,0,-0.160296701988188,1.03485635648812,0,0,0,8.805
1.47,9.88174919110281,1.53330783736961,0,-0.1605676212524,1.03481435544618,0,0,0,8.82
1.4725,9.88134743341206,1.53589482068304,0,-0.160838529511482,1.03477228347919,0,0,0,8.835
1.475,9.88094499846443,1.5384816987279,0,-0.161109426746864,1.03473014059002,0,0,0,8.85
1.4775,9.88054188628752,1.54106847132689,0,-0.16138031293998,1.03468792678157,0,0,0,8.865
1.48,9.88013809690895,1.54365513830271,0,-0.161651188072265,1.03464564205673,0,0,0,8.88
1.4825,9.87973363035639,1.54624169947808,0,-0.161922052125151,1.03460328641839,0,0,0,8.895
1.485,9.87932848665757,1.54882815467571,0,-0.162192905080075,1.03456085986946,0,0,0,8.91
1.4875,9.87892266584026,1.55141450371834,0,-0.162463746918473,1.03451836241285,0,0,0,8.925
1.49,9.87851616793226,1.55400074642869,0,-0.162734577621781,1.03447579405147,0,0,0,8.94
1.4925,9.87810899296144,1.55658688262951,0,-0.163005397171437,1.03443315478823,0,0,0,8.955
1.495,9.87770114095571,1.55917291214355,0,-0.163276205548879,1.03439044462607,0,0,0,8.97
1.4975,9.87729261194302,1.56175883479356,0,-0.163547002735547,1.0343476635679,0,0,0,8.985
1.5,9.87688340595138,1.56434465040231,0,-0.16381778871288,1.03430481161666,0,0,0,9
1.5025,9.87647352300882,1.56693035879257,0,-0.164088563462318,1.03426188877529,0,0,0,9.015
1.505,9.87606296314344,1.56951595978711,0,-0.164359326965304,1.03421889504672,0,0,0,9.03
1.5075,9.87565172638338,1.57210145320873,0,-0.16463007920328,1.03417583043391,0,0,0,9.045
1.51,9.87523981275682,1.57468683888021,0,-0.164900820157687,1.03413269493981,0,0,0,9.06
1.5125,9.87482722229201,1.57727211662436,0,-0.165171549809971,1.03408948856737,0,0,0,9.075
1.515,9.87441395501721,1.57985728626399,0,-0.165442268141575,1.03404621131955,0,0,0,9.09
1.5175,9.87400001096075,1.5824423476219,0,-0.165712975133945,1.03400286319933,0,0,0,9.105
1.52,9.873585390151,1.58502730052093,0,-0.165983670768527,1.03395944420966,0,0,0,9.12
1.5225,9.87317009261639,1.58761214478389,0,-0.166254355026767,1.03391595435354,0,0,0,9.135
1.525,9.87275411838537,1.59019688023364,0,-0.166525027890114,1.03387239363393,0,0,0,9.15
1.5275,9.87233746748645,1.59278150669301,0,-0.166795689340015,1.03382876205382,0,0,0,9.165
1.53,9.87192013994819,1.59536602398486,0,-0.16706633935792,1.03378505961621,0,0,0,9.18
1.5325,9.8715021357992,1.59795043193205,0,-0.167336977925279,1.03374128632409,0,0,0,9.195
1.535,9.87108345506812,1.60053473035744,0,-0.167607605023542,1.03369744218046,0,0,0,9.21
1.5375,9.87066409778366,1.60311891908391,0,-0.167878220634161,1.03365352718832,0,0,0,9.225
1.54,9.87024406397454,1.60570299793434,0,-0.168148824738588,1.03360954135069,0,0,0,9.24
1.5425,9.86982335366957,1.60828696673163,0,-0.168419417318277,1.03356548467058,0,0,0,9.255
1.545,9.86940196689757,1.61087082529866,0,-0.16868999835468,1.033521357151,0,0,0,9.27
1.5475,9.86897990368743,1.61345457345835,0,-0.168960567829254,1.03347715879499,0,0,0,9.285
1.55,9.86855716406807,1.61603821103361,0,-0.169231125723453,1.03343288960557,0,0,0,9.3
1.5525,9.86813374806848,1.61862173784736,0,-0.169501672018733,1.03338854958578,0,0,0,9.315
1.555,9.86770965571766,1.62120515372252,0,-0.169772206696552,1.03334413873866,0,0,0,9.33
1.5575,9.86728488704469,1.62378845848203,0,-0.170042729738368,1.03329965706724,0,0,0,9.345
1.56,9.86685944207868,1.62637165194884,0,-0.170313241125639,1.03325510457458,0,0,0,9.36
1.5625,9.86643332084879,1.62895473394589,0,-0.170583740839824,1.03321048126374,0,0,0,9.375
1.565,9.86600652338422,1.63153770429614,0,-0.170854228862384,1.03316578713776,0,0,0,9.39
1.5675,9.86557904971424,1.63412056282257,0,-0.17112470517478,1.03312102219972,0,0,0,9.405
1.57,9.86515089986812,1.63670330934813,0,-0.171395169758473,1.03307618645268,0,0,0,9.42
1.5725,9.86472207387523,1.63928594369582,0,-0.171665622594927,1.03303127989972,0,0,0,9.435
1.575,9.86429257176495,1.64186846568863,0,-0.171936063665605,1.0329863025439,0,0,0,9.45
1.5775,9.86386239356673,1.64445087514954,0,-0.172206492951971,1.03294125438833,0,0,0,9.465
1.58,9.86343153931003,1.64703317190157,0,-0.172476910435489,1.03289613543608,0,0,0,9.48
1.5825,9.8630000090244,1.64961535576773,0,-0.172747316097627,1.03285094569024,0,0,0,9.495
1.585,9.86256780273941,1.65219742657103,0,-0.173017709919851,1.03280568515391,0,0,0,9.51
1.5875,9.86213492048468,1.65477938413451,0,-0.173288091883627,1.0327603538302,0,0,0,9.525
1.59,9.86170136228989,1.6573612282812,0,-0.173558461970426,1.03271495172221,0,0,0,9.54
1.5925,9.86126712818474,1.65994295883414,0,-0.173828820161714,1.03266947883306,0,0,0,9.555
1.595,9.86083221819901,1.66252457561638,0,-0.174099166438964,1.03262393516585,0,0,0,9.57
1.5975,9.86039663236249,1.66510607845099,0,-0.174369500783644,1.03257832072372,0,0,0,9.585
1.6,9.85996037070505,1.66768746716102,0,-0.174639823177228,1.03253263550978,0,0,0,9.6
1.6025,9.85952343325658,1.67026874156956,0,-0.174910133601187,1.03248687952718,0,0,0,9.615
1.605,9.85908582004703,1.67284990149969,0,-0.175180432036994,1.03244105277904,0,0,0,9.63
1.6075,9.8586475311064,1.67543094677449,0,-0.175450718466124,1.0323951552685,0,0,0,9.645
1.61,9.85820856646472,1.67801187721706,0,-0.175720992870052,1.03234918699872,0,0,0,9.66
1.6125,9.85776892615209,1.68059269265052,0,-0.175991255230252,1.03230314797284,0,0,0,9.675
1.615,9.85732861019862,1.68317339289797,0,-0.176261505528202,1.03225703819402,0,0,0,9.69
1.6175,9.85688761863451,1.68575397778253,0,-0.176531743745379,1.03221085766541,0,0,0,9.705
1.62,9.85644595148998,1.68833444712734,0,-0.176801969863261,1.03216460639019,0,0,0,9.72
1.6225,9.85600360879529,1.69091480075553,0,-0.177072183863327,1.03211828437153,0,0,0,9.735
1.625,9.85556059058078,1.69349503849025,0,-0.177342385727057,1.03207189161259,0,0,0,9.75
1.6275,9.85511689687679,1.69607516015464,0,-0.177612575435932,1.03202542811656,0,0,0,9.765
1.63,9.85467252771374,1.69865516557188,0,-0.177882752971433,1.03197889388662,0,0,0,9.78
1.6325,9.85422748312209,1.70123505456514,0,-0.178152918315042,1.03193228892597,0,0,0,9.795
1.635,9.85378176313234,1.70381482695757,0,-0.178423071448243,1.03188561323779,0,0,0,9.81
1.6375,9.85333536777504,1.70639448257239,0,-0.178693212352519,1.03183886682529,0,0,0,9.825
1.64,9.85288829708079,1.70897402123277,0,-0.178963341009356,1.03179204969166,0,0,0,9.84
1.6425,9.85244055108022,1.71155344276191,0,-0.179233457400238,1.03174516184013,0,0,0,9.855
1.645,9.85199212980402,1.71413274698304,0,-0.179503561506654,1.03169820327389,0,0,0,9.87
1.6475,9.85154303328294,1.71671193371936,0,-0.179773653310089,1.03165117399618,0,0,0,9.885
1.65,9.85109326154774,1.7192910027941,0,-0.180043732792032,1.03160407401021,0,0,0,9.9
1.6525,9.85064281462926,1.72186995403049,0,-0.180313799933973,1.03155690331921,0,0,0,9.915
1.655,9.85019169255837,1.72444878725177,0,-0.1805838547174,1.03150966192642,0,0,0,9.93
