time,x,y,z,vx,vy,vz,pitch,roll,yaw
0,50,0,0,-0,4.36332312998582,0,0,0,-0
0.0025,49.9999988100882,0.0109083077384317,0,-0.00095192942928205,4.36332302614643,0,0,0,-0.0125
0.005,49.9999952403529,0.0218166149576665,0,-0.00190385881325562,4.36332271462826,0,0,0,-0.025
0.0075,49.9999892907942,0.0327249211385074,0,-0.00285578810661222,4.36332219543132,0,0,0,-0.0375
0.01,49.9999809614125,0.0436332257617575,0,-0.00380771726404339,4.36332146855564,0,0,0,-0.05
0.0125,49.9999702522081,0.05454152830822,0,-0.00475964624024066,4.36332053400125,0,0,0,-0.0625
0.015,49.9999571631815,0.0654498282586982,0,-0.00571157498989555,4.3633193917682,0,0,0,-0.075
0.0175,49.9999416943333,0.0763581250939955,0,-0.00666350346769963,4.36331804185654,0,0,0,-0.0875
0.02,49.9999238456644,0.0872664182949154,0,-0.00761543162834445,4.36331648426634,0,0,0,-0.1
0.0225,49.9999036171755,0.0981747073422618,0,-0.0085673594265216,4.36331471899767,0,0,0,-0.1125
0.025,49.9998810088676,0.109082991716838,0,-0.00951928681692267,4.36331274605062,0,0,0,-0.125
0.0275,49.9998560207418,0.11999127089945,0,-0.0104712137542393,4.36331056542527,0,0,0,-0.1375
0.03,49.9998286527992,0.1308995443709,0,-0.011423140193163,4.36330817712174,0,0,0,-0.15
0.0325,49.9997989050413,0.141807811611993,0,-0.0123750660883857,4.36330558114013,0,0,0,-0.1625
0.035,49.9997667774693,0.152716072103535,0,-0.0133269913945988,4.36330277748057,0,0,0,-0.175
0.0375,49.9997322700848,0.163624325326331,0,-0.0142789160664941,4.36329976614319,0,0,0,-0.1875
0.04,49.9996953828895,0.174532570761187,0,-0.0152308400587635,4.36329654712814,0,0,0,-0.2
0.0425,49.9996561158851,0.185440807888907,0,-0.0161827633260985,4.36329312043557,0,0,0,-0.2125
0.045,49.9996144690735,0.1963490361903,0,-0.0171346858231912,4.36328948606565,0,0,0,-0.225
0.0475,49.9995704424567,0.207257255146171,0,-0.0180866075047333,4.36328564401854,0,0,0,-0.2375
0.05,49.9995240360367,0.218165464237329,0,-0.0190385283254166,4.36328159429442,0,0,0,-0.25
0.0525,49.9994752498158,0.229073662944579,0,-0.0199904482399332,4.3632773368935,0,0,0,-0.2625
0.055,49.9994240837963,0.239981850748732,0,-0.020942367202975,4.36327287181597,0,0,0,-0.275
0.0575,49.9993705379806,0.250890027130596,0,-0.021894285169234,4.36326819906205,0,0,0,-0.2875
0.06,49.9993146123713,0.261798191570979,0,-0.0228462020934022,4.36326331863196,0,0,0,-0.3
0.0625,49.9992563069711,0.272706343550692,0,-0.0237981179301719,4.36325823052593,0,0,0,-0.3125
0.065,49.9991956217826,0.283614482550546,0,-0.0247500326342351,4.3632529347442,0,0,0,-0.325
0.0675,49.9991325568089,0.29452260805135,0,-0.0257019461602841,4.36324743128703,0,0,0,-0.3375
0.07,49.9990671120529,0.305430719533918,0,-0.0266538584630112,4.36324172015467,0,0,0,-0.35
0.0725,49.9989992875176,0.316338816479061,0,-0.0276057694971086,4.36323580134741,0,0,0,-0.3625
0.075,49.9989290832065,0.327246898367593,0,-0.0285576792172688,4.36322967486551,0,0,0,-0.375
0.0775,49.9988564991227,0.338154964680327,0,-0.0295095875781842,4.36322334070928,0,0,0,-0.3875
0.08,49.9987815352697,0.349063014898078,0,-0.0304614945345474,4.36321679887901,0,0,0,-0.4
0.0825,49.9987041916512,0.359971048501661,0,-0.0314134000410509,4.36321004937502,0,0,0,-0.4125
0.085,49.9986244682708,0.370879064971892,0,-0.0323653040523874,4.36320309219762,0,0,0,-0.425
0.0875,49.9985423651322,0.381787063789588,0,-0.0333172065232496,4.36319592734715,0,0,0,-0.4375
0.09,49.9984578822395,0.392695044435567,0,-0.0342691074083304,4.36318855482395,0,0,0,-0.45
0.0925,49.9983710195966,0.403603006390647,0,-0.0352210066623225,4.36318097462837,0,0,0,-0.4625
0.095,49.9982817772076,0.414510949135649,0,-0.036172904239919,4.36317318676077,0,0,0,-0.475
0.0975,49.9981901550768,0.425418872151391,0,-0.0371248000958129,4.36316519122152,0,0,0,-0.4875
0.1,49.9980961532086,0.436326774918697,0,-0.0380766941846974,4.363156988011,0,0,0,-0.5
0.1025,49.9979997716074,0.447234656918387,0,-0.0390285864612655,4.36314857712961,0,0,0,-0.5125
0.105,49.9979010102778,0.458142517631286,0,-0.0399804768802106,4.36313995857773,0,0,0,-0.525
0.1075,49.9977998692246,0.469050356538217,0,-0.040932365396226,4.36313113235579,0,0,0,-0.5375
0.11,49.9976963484525,0.479958173120007,0,-0.0418842519640053,4.36312209846421,0,0,0,-0.55
0.1125,49.9975904479664,0.490865966857481,0,-0.042836136538242,4.3631128569034,0,0,0,-0.5625
0.115,49.9974821677715,0.501773737231467,0,-0.0437880190736297,4.36310340767382,0,0,0,-0.575
0.1175,49.9973715078728,0.512681483722793,0,-0.0447398995248623,4.36309375077591,0,0,0,-0.5875
0.12,49.9972584682756,0.52358920581229,0,-0.0456917778466334,4.36308388621013,0,0,0,-0.6
0.1225,49.9971430489854,0.534496902980787,0,-0.0466436539936372,4.36307381397695,0,0,0,-0.6125
0.125,49.9970252500075,0.545404574709119,0,-0.0475955279205676,4.36306353407686,0,0,0,-0.625
0.1275,49.9969050713476,0.556312220478116,0,-0.0485473995821188,4.36305304651033,0,0,0,-0.6375
0.13,49.9967825130115,0.567219839768615,0,-0.049499268932985,4.36304235127788,0,0,0,-0.65
0.1325,49.9966575750049,0.578127432061451,0,-0.0504511359278608,4.36303144838,0,0,0,-0.6625
0.135,49.9965302573339,0.589034996837461,0,-0.0514030005214404,4.36302033781722,0,0,0,-0.675
0.1375,49.9964005600044,0.599942533577484,0,-0.0523548626684186,4.36300901959006,0,0,0,-0.6875
0.14,49.9962684830226,0.610850041762359,0,-0.0533067223234901,4.36299749369907,0,0,0,-0.7
0.1425,49.9961340263949,0.621757520872926,0,-0.0542585794413497,4.3629857601448,0,0,0,-0.7125
0.145,49.9959971901275,0.63266497039003,0,-0.0552104339766923,4.3629738189278,0,0,0,-0.725
0.1475,49.9958579742272,0.643572389794513,0,-0.0561622858842131,4.36296167004863,0,0,0,-0.7375
0.15,49.9957163787004,0.654479778567222,0,-0.0571141351186072,4.36294931350789,0,0,0,-0.75
0.1525,49.9955724035538,0.665387136189002,0,-0.05806598163457,4.36293674930615,0,0,0,-0.7625
0.155,49.9954260487945,0.676294462140702,0,-0.059017825386797,4.36292397744401,0,0,0,-0.775
0.1575,49.9952773144292,0.687201755903172,0,-0.0599696663299837,4.36291099792209,0,0,0,-0.7875
0.16,49.9951262004652,0.698109016957264,0,-0.0609215044188259,4.362897810741,0,0,0,-0.8
0.1625,49.9949727069096,0.709016244783829,0,-0.0618733396080194,4.36288441590137,0,0,0,-0.8125
0.165,49.9948168337696,0.719923438863722,0,-0.0628251718522603,4.36287081340383,0,0,0,-0.825
0.1675,49.9946585810528,0.7308305986778,0,-0.0637770011062446,4.36285700324904,0,0,0,-0.8375
0.17,49.9944979487666,0.74173772370692,0,-0.0647288273246688,4.36284298543764,0,0,0,-0.85
0.1725,49.9943349369187,0.752644813431942,0,-0.0656806504622291,4.36282875997032,0,0,0,-0.8625
0.175,49.9941695455169,0.763551867333726,0,-0.0666324704736223,4.36281432684774,0,0,0,-0.875
0.1775,49.994001774569,0.774458884893135,0,-0.0675842873135449,4.36279968607059,0,0,0,-0.8875
0.18,49.993831624083,0.785365865591034,0,-0.0685361009366939,4.36278483763956,0,0,0,-0.9
0.1825,49.993659094067,0.796272808908288,0,-0.0694879112977663,4.36276978155538,0,0,0,-0.9125
0.185,49.9934841845293,0.807179714325767,0,-0.0704397183514593,4.36275451781874,0,0,0,-0.925
0.1875,49.9933068954781,0.818086581324339,0,-0.0713915220524703,4.36273904643039,0,0,0,-0.9375
0.19,49.9931272269219,0.828993409384876,0,-0.0723433223554967,4.36272336739104,0,0,0,-0.95
0.1925,49.9929451788692,0.839900197988252,0,-0.0732951192152363,4.36270748070146,0,0,0,-0.9625
0.195,49.9927607513287,0.850806946615343,0,-0.0742469125863867,4.3626913863624,0,0,0,-0.975
0.1975,49.9925739443092,0.861713654747024,0,-0.0751987024236461,4.36267508437462,0,0,0,-0.9875
0.2,49.9923847578196,0.872620321864176,0,-0.0761504886817126,4.3626585747389,0,0,0,-1
0.2025,49.9921931918688,0.883526947447679,0,-0.0771022713152845,4.36264185745602,0,0,0,-1.0125
0.205,49.991999246466,0.894433530978417,0,-0.0780540502790604,4.36262493252678,0,0,0,-1.025
0.2075,49.9918029216205,0.905340071937275,0,-0.0790058255277388,4.36260779995199,0,0,0,-1.0375
0.21,49.9916042173415,0.91624656980514,0,-0.0799575970160187,4.36259045973246,0,0,0,-1.05
0.2125,49.9914031336386,0.927153024062901,0,-0.0809093646985991,4.36257291186902,0,0,0,-1.0625
0.215,49.9911996705213,0.938059434191449,0,-0.0818611285301793,4.3625551563625,0,0,0,-1.075
0.2175,49.9909938279992,0.948965799671678,0,-0.0828128884654585,4.36253719321375,0,0,0,-1.0875
0.22,49.9907856060822,0.959872119984483,0,-0.0837646444591365,4.36251902242362,0,0,0,-1.1
0.2225,49.9905750047802,0.970778394610762,0,-0.0847163964659129,4.36250064399297,0,0,0,-1.1125
0.225,49.9903620241032,0.981684623031415,0,-0.0856681444404877,4.36248205792269,0,0,0,-1.125
0.2275,49.9901466640614,0.992590804727344,0,-0.0866198883375612,4.36246326421366,0,0,0,-1.1375
0.23,49.989928924665,1.00349693917945,0,-0.0875716281118336,4.36244426286676,0,0,0,-1.15
0.2325,49.9897088059243,1.01440302586865,0,-0.0885233637180055,4.36242505388291,0,0,0,-1.1625
0.235,49.9894863078499,1.02530906427584,0,-0.0894750951107776,4.36240563726302,0,0,0,-1.175
0.2375,49.9892614304523,1.03621505388193,0,-0.0904268222448508,4.36238601300802,0,0,0,-1.1875
0.24,49.9890341737423,1.04712099416785,0,-0.0913785450749264,4.36236618111883,0,0,0,-1.2
0.2425,49.9888045377306,1.0580268846145,0,-0.0923302635557057,4.3623461415964,0,0,0,-1.2125
0.245,49.9885725224282,1.0689327247028,0,-0.0932819776418902,4.36232589444169,0,0,0,-1.225
0.2475,49.9883381278461,1.07983851391368,0,-0.0942336872881817,4.36230543965566,0,0,0,-1.2375
0.25,49.9881013539955,1.09074425172806,0,-0.0951853924492821,4.36228477723928,0,0,0,-1.25
0.2525,49.9878622008876,1.10164993762685,0,-0.0961370930798938,4.36226390719354,0,0,0,-1.2625
0.255,49.9876206685339,1.112555571091,0,-0.097088789134719,4.36224282951942,0,0,0,-1.275
0.2575,49.9873767569458,1.12346115160143,0,-0.0980404805684604,4.36222154421794,0,0,0,-1.2875
0.26,49.9871304661349,1.13436667863907,0,-0.0989921673358208,4.36220005129011,0,0,0,-1.3
0.2625,49.986881796113,1.14527215168486,0,-0.0999438493915034,4.36217835073694,0,0,0,-1.3125
0.265,49.9866307468919,1.15617757021973,0,-0.100895526690211,4.36215644255948,0,0,0,-1.325
0.2675,49.9863773184836,1.16708293372463,0,-0.101847199186648,4.36213432675876,0,0,0,-1.3375
0.27,49.9861215109,1.17798824168051,0,-0.102798866835518,4.36211200333584,0,0,0,-1.35
0.2725,49.9858633241535,1.1888934935683,0,-0.103750529591524,4.36208947229178,0,0,0,-1.3625
0.275,49.9856027582562,1.19979868886895,0,-0.104702187409371,4.36206673362765,0,0,0,-1.375
0.2775,49.9853398132206,1.21070382706342,0,-0.105653840243763,4.36204378734453,0,0,0,-1.3875
0.28,49.9850744890592,1.22160890763266,0,-0.106605488049406,4.36202063344352,0,0,0,-1.4
0.2825,49.9848067857846,1.23251393005762,0,-0.107557130781003,4.36199727192572,0,0,0,-1.4125
0.285,49.9845367034095,1.24341889381927,0,-0.10850876839326,4.36197370279224,0,0,0,-1.425
0.2875,49.9842642419469,1.25432379839857,0,-0.109460400840883,4.3619499260442,0,0,0,-1.4375
0.29,49.9839894014097,1.26522864327648,0,-0.110412028078577,4.36192594168274,0,0,0,-1.45
0.2925,49.9837121818109,1.27613342793398,0,-0.111363650061048,4.36190174970899,0,0,0,-1.4625
0.295,49.9834325831638,1.28703815185202,0,-0.112315266743002,4.36187735012411,0,0,0,-1.475
0.2975,49.9831506054816,1.29794281451159,0,-0.113266878079146,4.36185274292926,0,0,0,-1.4875
0.3,49.9828662487779,1.30884741539366,0,-0.114218484024186,4.3618279281256,0,0,0,-1.5
0.3025,49.982579513066,1.31975195397921,0,-0.115170084532829,4.36180290571433,0,0,0,-1.5125
0.305,49.9822903983598,1.33065642974922,0,-0.116121679559783,4.36177767569663,0,0,0,-1.525
0.3075,49.9819989046728,1.34156084218469,0,-0.117073269059754,4.3617522380737,0,0,0,-1.5375
0.31,49.9817050320191,1.35246519076659,0,-0.118024852987451,4.36172659284676,0,0,0,-1.55
0.3125,49.9814087804126,1.36336947497592,0,-0.118976431297581,4.36170074001701,0,0,0,-1.5625
0.315,49.9811101498673,1.37427369429367,0,-0.119928003944853,4.36167467958571,0,0,0,-1.575
0.3175,49.9808091403976,1.38517784820085,0,-0.120879570883975,4.36164841155408,0,0,0,-1.5875
0.32,49.9805057520177,1.39608193617844,0,-0.121831132069656,4.36162193592337,0,0,0,-1.6
0.3225,49.9801999847421,1.40698595770747,0,-0.122782687456605,4.36159525269485,0,0,0,-1.6125
0.325,49.9798918385853,1.41788991226892,0,-0.123734236999531,4.36156836186978,0,0,0,-1.625
0.3275,49.979581313562,1.42879379934382,0,-0.124685780653144,4.36154126344945,0,0,0,-1.6375
0.33,49.979268409687,1.43969761841317,0,-0.125637318372154,4.36151395743514,0,0,0,-1.65
0.3325,49.9789531269751,1.450601368958,0,-0.126588850111271,4.36148644382816,0,0,0,-1.6625
0.335,49.9786354654414,1.46150505045932,0,-0.127540375825205,4.36145872262981,0,0,0,-1.675
0.3375,49.9783154251011,1.47240866239816,0,-0.128491895468667,4.36143079384141,0,0,0,-1.6875
0.34,49.9779930059692,1.48331220425554,0,-0.129443408996369,4.3614026574643,0,0,0,-1.7
0.3425,49.9776682080612,1.49421567551249,0,-0.130394916363021,4.36137431349981,0,0,0,-1.7125
0.345,49.9773410313926,1.50511907565005,0,-0.131346417523335,4.36134576194929,0,0,0,-1.725
0.3475,49.9770114759788,1.51602240414925,0,-0.132297912432023,4.36131700281411,0,0,0,-1.7375
0.35,49.9766795418356,1.52692566049113,0,-0.133249401043797,4.36128803609562,0,0,0,-1.75
0.3525,49.9763452289789,1.53782884415674,0,-0.13420088331337,4.3612588617952,0,0,0,-1.7625
0.355,49.9760085374244,1.54873195462713,0,-0.135152359195454,4.36122947991426,0,0,0,-1.775
0.3575,49.9756694671883,1.55963499138333,0,-0.136103828644763,4.36119989045418,0,0,0,-1.7875
0.36,49.9753280182866,1.57053795390641,0,-0.137055291616009,4.36117009341637,0,0,0,-1.8
0.3625,49.9749841907356,1.58144084167743,0,-0.138006748063908,4.36114008880225,0,0,0,-1.8125
0.365,49.9746379845517,1.59234365417745,0,-0.138958197943172,4.36110987661325,0,0,0,-1.825
0.3675,49.9742893997514,1.60324639088752,0,-0.139909641208516,4.36107945685081,0,0,0,-1.8375
0.37,49.9739384363512,1.61414905128872,0,-0.140861077814655,4.36104882951638,0,0,0,-1.85
0.3725,49.9735850943679,1.62505163486213,0,-0.141812507716304,4.36101799461141,0,0,0,-1.8625
0.375,49.9732293738183,1.63595414108881,0,-0.142763930868178,4.36098695213737,0,0,0,-1.875
0.3775,49.9728712747192,1.64685656944984,0,-0.143715347224992,4.36095570209573,0,0,0,-1.8875
0.38,49.9725107970879,1.65775891942631,0,-0.144666756741463,4.36092424448799,0,0,0,-1.9
0.3825,49.9721479409413,1.66866119049931,0,-0.145618159372306,4.36089257931565,0,0,0,-1.9125
0.385,49.9717827062968,1.67956338214992,0,-0.14656955507224,4.36086070658021,0,0,0,-1.925
0.3875,49.9714150931717,1.69046549385924,0,-0.147520943795979,4.36082862628318,0,0,0,-1.9375
0.39,49.9710451015836,1.70136752510837,0,-0.148472325498242,4.36079633842609,0,0,0,-1.95
0.3925,49.9706727315501,1.71226947537841,0,-0.149423700133746,4.36076384301049,0,0,0,-1.9625
0.395,49.9702979830889,1.72317134415046,0,-0.150375067657209,4.36073114003791,0,0,0,-1.975
0.3975,49.9699208562178,1.73407313090564,0,-0.15132642802335,4.36069822950992,0,0,0,-1.9875
0.4,49.9695413509548,1.74497483512505,0,-0.152277781186886,4.36066511142808,0,0,0,-2
0.4025,49.9691594673179,1.75587645628982,0,-0.153229127102538,4.36063178579397,0,0,0,-2.0125
0.405,49.9687752053254,1.76677799388106,0,-0.154180465725024,4.36059825260916,0,0,0,-2.025
0.4075,49.9683885649954,1.7776794473799,0,-0.155131797009063,4.36056451187527,0,0,0,-2.0375
0.41,49.9679995463465,1.78858081626748,0,-0.156083120909376,4.36053056359389,0,0,0,-2.05
0.4125,49.967608149397,1.79948210002492,0,-0.157034437380684,4.36049640776664,0,0,0,-2.0625
0.415,49.9672143741658,1.81038329813336,0,-0.157985746377706,4.36046204439515,0,0,0,-2.075
0.4175,49.9668182206714,1.82128441007394,0,-0.158937047855164,4.36042747348105,0,0,0,-2.0875
0.42,49.9664196889328,1.83218543532781,0,-0.15988834176778,4.36039269502599,0,0,0,-2.1
0.4225,49.9660187789689,1.84308637337612,0,-0.160839628070274,4.36035770903162,0,0,0,-2.1125
0.425,49.9656154907988,1.85398722370002,0,-0.16179090671737,4.36032251549961,0,0,0,-2.125
0.4275,49.9652098244418,1.86488798578067,0,-0.16274217766379,4.36028711443163,0,0,0,-2.1375
0.43,49.964801779917,1.87578865909924,0,-0.163693440864256,4.36025150582937,0,0,0,-2.15
0.4325,49.9643913572439,1.88668924313688,0,-0.164644696273492,4.36021568969452,0,0,0,-2.1625
0.435,49.9639785564421,1.89758973737477,0,-0.165595943846221,4.36017966602879,0,0,0,-2.175
0.4375,49.9635633775313,1.90849014129408,0,-0.166547183537167,4.36014343483389,0,0,0,-2.1875
0.44,49.9631458205311,1.919390454376,0,-0.167498415301056,4.36010699611155,0,0,0,-2.2
0.4425,49.9627258854614,1.9302906761017,0,-0.16844963909261,4.3600703498635,0,0,0,-2.2125
0.445,49.9623035723423,1.94119080595238,0,-0.169400854866557,4.36003349609149,0,0,0,-2.225
0.4475,49.9618788811938,1.95209084340922,0,-0.17035206257762,4.35999643479726,0,0,0,-2.2375
0.45,49.9614518120361,1.96299078795343,0,-0.171303262180526,4.35995916598259,0,0,0,-2.25
0.4525,49.9610223648897,1.9738906390662,0,-0.172254453630001,4.35992168964924,0,0,0,-2.2625
0.455,49.9605905397748,1.98479039622875,0,-0.173205636880772,4.35988400579901,0,0,0,-2.275
0.4575,49.9601563367121,1.99569005892227,0,-0.174156811887566,4.35984611443368,0,0,0,-2.2875
0.46,49.9597197557223,2.00658962662799,0,-0.17510797860511,4.35980801555506,0,0,0,-2.3
0.4625,49.9592807968261,2.01748909882712,0,-0.176059136988132,4.35976970916496,0,0,0,-2.3125
0.465,49.9588394600443,2.02838847500089,0,-0.177010286991361,4.3597311952652,0,0,0,-2.325
0.4675,49.9583957453981,2.03928775463052,0,-0.177961428569524,4.35969247385762,0,0,0,-2.3375
0.47,49.9579496529086,2.05018693719725,0,-0.178912561677351,4.35965354494406,0,0,0,-2.35
0.4725,49.9575011825968,2.06108602218232,0,-0.179863686269572,4.35961440852638,0,0,0,-2.3625
0.475,49.9570503344843,2.07198500906697,0,-0.180814802300916,4.35957506460643,0,0,0,-2.375
0.4775,49.9565971085925,2.08288389733244,0,-0.181765909726113,4.35953551318609,0,0,0,-2.3875
0.48,49.9561415049429,2.09378268645998,0,-0.182717008499894,4.35949575426725,0,0,0,-2.4
0.4825,49.9556835235573,2.10468137593086,0,-0.18366809857699,4.35945578785178,0,0,0,-2.4125
0.485,49.9552231644573,2.11557996522633,0,-0.184619179912133,4.3594156139416,0,0,0,-2.425
0.4875,49.954760427665,2.12647845382766,0,-0.185570252460054,4.35937523253863,0,0,0,-2.4375
0.49,49.9542953132024,2.13737684121611,0,-0.186521316175486,4.35933464364477,0,0,0,-2.45
0.4925,49.9538278210915,2.14827512687297,0,-0.187472371013161,4.35929384726196,0,0,0,-2.4625
0.495,49.9533579513547,2.15917331027952,0,-0.188423416927813,4.35925284339215,0,0,0,-2.475
0.4975,49.9528857040144,2.17007139091703,0,-0.189374453874176,4.35921163203728,0,0,0,-2.4875
0.5,49.9524110790929,2.1809693682668,0,-0.190325481806982,4.35917021319932,0,0,0,-2.5
0.5025,49.9519340766129,2.19186724181013,0,-0.191276500680967,4.35912858688024,0,0,0,-2.5125
0.505,49.9514546965971,2.2027650110283,0,-0.192227510450865,4.35908675308202,0,0,0,-2.525
0.5075,49.9509729390683,2.21366267540264,0,-0.193178511071413,4.35904471180665,0,0,0,-2.5375
0.51,49.9504888040494,2.22456023441444,0,-0.194129502497344,4.35900246305613,0,0,0,-2.55
0.5125,49.9500022915635,2.23545768754502,0,-0.195080484683396,4.35896000683248,0,0,0,-2.5625
0.515,49.9495134016337,2.24635503427571,0,-0.196031457584306,4.3589173431377,0,0,0,-2.575
0.5175,49.9490221342833,2.25725227408782,0,-0.19698242115481,4.35887447197385,0,0,0,-2.5875
0.52,49.9485284895357,2.26814940646269,0,-0.197933375349645,4.35883139334294,0,0,0,-2.6
0.5225,49.9480324674144,2.27904643088165,0,-0.198884320123551,4.35878810724704,0,0,0,-2.6125
0.525,49.947534067943,2.28994334682604,0,-0.199835255431264,4.35874461368821,0,0,0,-2.625
0.5275,49.9470332911452,2.30084015377721,0,-0.200786181227524,4.35870091266851,0,0,0,-2.6375
0.53,49.9465301370448,2.3117368512165,0,-0.201737097467071,4.35865700419003,0,0,0,-2.65
0.5325,49.9460246056659,2.32263343862527,0,-0.202688004104643,4.35861288825486,0,0,0,-2.6625
0.535,49.9455166970323,2.33352991548489,0,-0.203638901094982,4.35856856486509,0,0,0,-2.675
0.5375,49.9450064111685,2.34442628127672,0,-0.204589788392827,4.35852403402283,0,0,0,-2.6875
0.54,49.9444937480985,2.35532253548213,0,-0.205540665952921,4.35847929573021,0,0,0,-2.7
0.5425,49.9439787078469,2.3662186775825,0,-0.206491533730004,4.35843434998935,0,0,0,-2.7125
0.545,49.943461290438,2.37711470705921,0,-0.207442391678818,4.3583891968024,0,0,0,-2.725
0.5475,49.9429414958967,2.38801062339364,0,-0.208393239754107,4.3583438361715,0,0,0,-2.7375
0.55,49.9424193242475,2.3989064260672,0,-0.209344077910613,4.3582982680988,0,0,0,-2.75
0.5525,49.9418947755154,2.40980211456127,0,-0.210294906103079,4.35825249258649,0,0,0,-2.7625
0.555,49.9413678497254,2.42069768835727,0,-0.211245724286249,4.35820650963674,0,0,0,-2.775
0.5575,49.9408385469024,2.43159314693659,0,-0.212196532414869,4.35816031925174,0,0,0,-2.7875
0.56,49.9403068670717,2.44248848978066,0,-0.213147330443682,4.35811392143368,0,0,0,-2.8
0.5625,49.9397728102586,2.4533837163709,0,-0.214098118327435,4.35806731618477,0,0,0,-2.8125
0.565,49.9392363764886,2.46427882618873,0,-0.215048896020872,4.35802050350724,0,0,0,-2.825
0.5675,49.938697565787,2.47517381871558,0,-0.215999663478741,4.35797348340331,0,0,0,-2.8375
0.57,49.9381563781797,2.48606869343289,0,-0.216950420655788,4.35792625587521,0,0,0,-2.85
0.5725,49.9376128136924,2.49696344982211,0,-0.21790116750676,4.35787882092521,0,0,0,-2.8625
0.575,49.9370668723508,2.50785808736467,0,-0.218851903986405,4.35783117855554,0,0,0,-2.875
0.5775,49.9365185541811,2.51875260554204,0,-0.219802630049472,4.35778332876849,0,0,0,-2.8875
0.58,49.9359678592093,2.52964700383567,0,-0.22075334565071,4.35773527156633,0,0,0,-2.9
0.5825,49.9354147874616,2.54054128172702,0,-0.221704050744867,4.35768700695135,0,0,0,-2.9125
0.585,49.9348593389644,2.55143543869758,0,-0.222654745286694,4.35763853492584,0,0,0,-2.925
0.5875,49.934301513744,2.56232947422881,0,-0.22360542923094,4.35758985549211,0,0,0,-2.9375
0.59,49.9337413118271,2.5732233878022,0,-0.224556102532357,4.35754096865248,0,0,0,-2.95
0.5925,49.9331787332403,2.58411717889924,0,-0.225506765145695,4.35749187440927,0,0,0,-2.9625
0.595,49.9326137780103,2.59501084700141,0,-0.226457417025707,4.35744257276482,0,0,0,-2.975
0.5975,49.9320464461641,2.60590439159023,0,-0.227408058127146,4.35739306372149,0,0,0,-2.9875
0.6,49.9314767377287,2.61679781214719,0,-0.228358688404763,4.35734334728161,0,0,0,-3
0.6025,49.9309046527312,2.62769110815381,0,-0.229309307813312,4.35729342344757,0,0,0,-3.0125
0.605,49.9303301911987,2.6385842790916,0,-0.230259916307547,4.35724329222174,0,0,0,-3.025
0.6075,49.9297533531587,2.64947732444209,0,-0.231210513842223,4.3571929536065,0,0,0,-3.0375
0.61,49.9291741386387,2.66037024368681,0,-0.232161100372094,4.35714240760424,0,0,0,-3.05
0.6125,49.9285925476661,2.6712630363073,0,-0.233111675851916,4.35709165421739,0,0,0,-3.0625
0.615,49.9280085802687,2.68215570178508,0,-0.234062240236444,4.35704069344834,0,0,0,-3.075
0.6175,49.9274222364742,2.69304823960172,0,-0.235012793480436,4.35698952529953,0,0,0,-3.0875
0.62,49.9268335163106,2.70394064923876,0,-0.235963335538648,4.35693814977339,0,0,0,-3.1
0.6225,49.9262424198059,2.71483293017777,0,-0.236913866365837,4.35688656687237,0,0,0,-3.1125
0.625,49.9256489469882,2.72572508190032,0,-0.237864385916763,4.35683477659892,0,0,0,-3.125
0.6275,49.9250530978857,2.73661710388796,0,-0.238814894146183,4.3567827789555,0,0,0,-3.1375
0.63,49.9244548725269,2.74750899562229,0,-0.239765391008857,4.3567305739446,0,0,0,-3.15
0.6325,49.9238542709402,2.75840075658488,0,-0.240715876459544,4.3566781615687,0,0,0,-3.1625
0.635,49.9232512931541,2.76929238625733,0,-0.241666350453005,4.35662554183028,0,0,0,-3.175
0.6375,49.9226459391975,2.78018388412123,0,-0.242616812944,4.35657271473187,0,0,0,-3.1875
0.64,49.922038209099,2.79107524965819,0,-0.243567263887291,4.35651968027596,0,0,0,-3.2
0.6425,49.9214281028877,2.80196648234981,0,-0.244517703237639,4.35646643846509,0,0,0,-3.2125
0.645,49.9208156205926,2.81285758167772,0,-0.245468130949808,4.35641298930178,0,0,0,-3.225
0.6475,49.9202007622427,2.82374854712353,0,-0.246418546978559,4.35635933278859,0,0,0,-3.2375
0.65,49.9195835278674,2.83463937816888,0,-0.247368951278658,4.35630546892807,0,0,0,-3.25
0.6525,49.9189639174961,2.84553007429539,0,-0.248319343804867,4.35625139772277,0,0,0,-3.2625
0.655,49.9183419311583,2.8564206349847,0,-0.249269724511951,4.35619711917528,0,0,0,-3.275
0.6575,49.9177175688835,2.86731105971848,0,-0.250220093354676,4.35614263328818,0,0,0,-3.2875
0.66,49.9170908307014,2.87820134797836,0,-0.251170450287807,4.35608794006405,0,0,0,-3.3
0.6625,49.916461716642,2.88909149924602,0,-0.252120795266112,4.35603303950552,0,0,0,-3.3125
0.665,49.9158302267351,2.89998151300312,0,-0.253071128244356,4.35597793161517,0,0,0,-3.325
0.6675,49.9151963610108,2.91087138873132,0,-0.254021449177307,4.35592261639565,0,0,0,-3.3375
0.67,49.9145601194993,2.92176112591232,0,-0.254971758019733,4.35586709384958,0,0,0,-3.35
0.6725,49.9139215022308,2.9326507240278,0,-0.255922054726403,4.35581136397961,0,0,0,-3.3625
0.675,49.9132805092358,2.94354018255945,0,-0.256872339252087,4.35575542678838,0,0,0,-3.375
0.6775,49.9126371405447,2.95442950098898,0,-0.257822611551554,4.35569928227857,0,0,0,-3.3875
0.68,49.9119913961883,2.96531867879808,0,-0.258772871579573,4.35564293045283,0,0,0,-3.4
0.6825,49.9113432761971,2.97620771546848,0,-0.259723119290918,4.35558637131386,0,0,0,-3.4125
0.685,49.9106927806021,2.98709661048189,0,-0.260673354640358,4.35552960486435,0,0,0,-3.425
0.6875,49.9100399094342,2.99798536332004,0,-0.261623577582666,4.355472631107,0,0,0,-3.4375
0.69,49.9093846627246,3.00887397346467,0,-0.262573788072615,4.35541545004452,0,0,0,-3.45
0.6925,49.9087270405043,3.01976244039752,0,-0.263523986064978,4.35535806167963,0,0,0,-3.4625
0.695,49.9080670428047,3.03065076360032,0,-0.26447417151453,4.35530046601506,0,0,0,-3.475
0.6975,49.9074046696572,3.04153894255484,0,-0.265424344376043,4.35524266305356,0,0,0,-3.4875
0.7,49.9067399210933,3.05242697674284,0,-0.266374504604295,4.35518465279787,0,0,0,-3.5
0.7025,49.9060727971448,3.06331486564609,0,-0.26732465215406,4.35512643525076,0,0,0,-3.5125
0.705,49.9054032978432,3.07420260874636,0,-0.268274786980115,4.355068010415,0,0,0,-3.525
0.7075,49.9047314232205,3.08509020552543,0,-0.269224909037236,4.35500937829337,0,0,0,-3.5375
0.71,49.9040571733087,3.09597765546509,0,-0.270175018280202,4.35495053888865,0,0,0,-3.55
0.7125,49.9033805481398,3.10686495804714,0,-0.27112511466379,4.35489149220366,0,0,0,-3.5625
0.715,49.9027015477461,3.11775211275337,0,-0.272075198142779,4.3548322382412,0,0,0,-3.575
0.7175,49.9020201721599,3.12863911906561,0,-0.273025268671949,4.35477277700409,0,0,0,-3.5875
0.72,49.9013364214136,3.13952597646567,0,-0.27397532620608,4.35471310849516,0,0,0,-3.6
0.7225,49.9006502955397,3.15041268443537,0,-0.274925370699951,4.35465323271725,0,0,0,-3.6125
0.725,49.899961794571,3.16129924245653,0,-0.275875402108345,4.35459314967321,0,0,0,-3.625
0.7275,49.8992709185401,3.17218565001101,0,-0.276825420386043,4.3545328593659,0,0,0,-3.6375
0.73,49.89857766748,3.18307190658065,0,-0.277775425487828,4.35447236179819,0,0,0,-3.65
0.7325,49.8978820414237,3.19395801164729,0,-0.278725417368483,4.35441165697297,0,0,0,-3.6625
0.735,49.8971840404042,3.2048439646928,0,-0.279675395982791,4.35435074489311,0,0,0,-3.675
0.7375,49.8964836644549,3.21572976519904,0,-0.280625361285537,4.35428962556152,0,0,0,-3.6875
0.74,49.895780913609,3.2266154126479,0,-0.281575313231507,4.3542282989811,0,0,0,-3.7
0.7425,49.8950757878999,3.23750090652125,0,-0.282525251775484,4.35416676515479,0,0,0,-3.7125
0.745,49.8943682873613,3.24838624630097,0,-0.283475176872257,4.35410502408549,0,0,0,-3.725
0.7475,49.8936584120268,3.25927143146897,0,-0.284425088476611,4.35404307577616,0,0,0,-3.7375
0.75,49.8929461619302,3.27015646150715,0,-0.285374986543335,4.35398092022975,0,0,0,-3.75
0.7525,49.8922315371054,3.28104133589743,0,-0.286324871027216,4.3539185574492,0,0,0,-3.7625
0.755,49.8915145375864,3.29192605412171,0,-0.287274741883044,4.35385598743749,0,0,0,-3.775
0.7575,49.8907951634074,3.30281061566192,0,-0.288224599065608,4.3537932101976,0,0,0,-3.7875
0.76,49.8900734146025,3.31369502000001,0,-0.289174442529697,4.35373022573252,0,0,0,-3.8
0.7625,49.8893492912062,3.3245792666179,0,-0.290124272230104,4.35366703404523,0,0,0,-3.8125
0.765,49.8886227932529,3.33546335499755,0,-0.291074088121619,4.35360363513876,0,0,0,-3.825
0.7675,49.8878939207771,3.34634728462091,0,-0.292023890159034,4.35354002901612,0,0,0,-3.8375
0.77,49.8871626738136,3.35723105496995,0,-0.292973678297142,4.35347621568033,0,0,0,-3.85
0.7725,49.8864290523973,3.36811466552664,0,-0.293923452490737,4.35341219513443,0,0,0,-3.8625
0.775,49.8856930565628,3.37899811577295,0,-0.294873212694613,4.35334796738148,0,0,0,-3.875
0.7775,49.8849546863455,3.38988140519088,0,-0.295822958863564,4.35328353242452,0,0,0,-3.8875
0.78,49.8842139417803,3.40076453326241,0,-0.296772690952386,4.35321889026662,0,0,0,-3.9
0.7825,49.8834708229025,3.41164749946955,0,-0.297722408915875,4.35315404091087,0,0,0,-3.9125
0.785,49.8827253297475,3.4225303032943,0,-0.298672112708828,4.35308898436034,0,0,0,-3.925
0.7875,49.8819774623508,3.43341294421869,0,-0.299621802286043,4.35302372061813,0,0,0,-3.9375
0.79,49.8812272207479,3.44429542172473,0,-0.300571477602316,4.35295824968736,0,0,0,-3.95
0.7925,49.8804746049747,3.45517773529447,0,-0.301521138612448,4.35289257157113,0,0,0,-3.9625
0.795,49.8797196150668,3.46605988440994,0,-0.302470785271237,4.35282668627258,0,0,0,-3.975
0.7975,49.8789622510603,3.47694186855318,0,-0.303420417533485,4.35276059379483,0,0,0,-3.9875
0.8,49.8782025129912,3.48782368720626,0,-0.304370035353991,4.35269429414103,0,0,0,-4
0.8025,49.8774404008956,3.49870533985125,0,-0.305319638687557,4.35262778731435,0,0,0,-4.0125
0.805,49.8766759148099,3.5095868259702,0,-0.306269227488986,4.35256107331794,0,0,0,-4.025
0.8075,49.8759090547703,3.5204681450452,0,-0.30721880171308,4.35249415215498,0,0,0,-4.0375
0.81,49.8751398208135,3.53134929655833,0,-0.308168361314643,4.35242702382865,0,0,0,-4.05
0.8125,49.874368212976,3.54223027999171,0,-0.309117906248479,4.35235968834216,0,0,0,-4.0625
0.815,49.8735942312945,3.55311109482741,0,-0.310067436469394,4.3522921456987,0,0,0,-4.075
0.8175,49.8728178758059,3.56399174054757,0,-0.311016951932193,4.35222439590149,0,0,0,-4.0875
0.82,49.8720391465472,3.5748722166343,0,-0.311966452591682,4.35215643895376,0,0,0,-4.1
0.8225,49.8712580435554,3.58575252256972,0,-0.312915938402669,4.35208827485873,0,0,0,-4.1125
0.825,49.8704745668676,3.59663265783597,0,-0.313865409319961,4.35201990361966,0,0,0,-4.125
0.8275,49.8696887165212,3.6075126219152,0,-0.314814865298368,4.3519513252398,0,0,0,-4.1375
0.83,49.8689004925536,3.61839241428955,0,-0.315764306292697,4.35188253972241,0,0,0,-4.15
0.8325,49.8681098950023,3.6292720344412,0,-0.31671373225776,4.35181354707077,0,0,0,-4.1625
0.835,49.8673169239049,3.6401514818523,0,-0.317663143148366,4.35174434728815,0,0,0,-4.175
0.8375,49.8665215792991,3.65103075600503,0,-0.318612538919328,4.35167494037786,0,0,0,-4.1875
0.84,49.8657238612229,3.66190985638158,0,-0.319561919525457,4.3516053263432,0,0,0,-4.2
0.8425,49.8649237697142,3.67278878246415,0,-0.320511284921566,4.35153550518748,0,0,0,-4.2125
0.845,49.864121304811,3.68366753373492,0,-0.321460635062468,4.35146547691402,0,0,0,-4.225
0.8475,49.8633164665516,3.69454610967612,0,-0.322409969902979,4.35139524152615,0,0,0,-4.2375
0.85,49.8625092549743,3.70542450976996,0,-0.323359289397913,4.35132479902723,0,0,0,-4.25
0.8525,49.8616996701174,3.71630273349867,0,-0.324308593502086,4.3512541494206,0,0,0,-4.2625
0.855,49.8608877120196,3.72718078034448,0,-0.325257882170313,4.35118329270962,0,0,0,-4.275
0.8575,49.8600733807195,3.73805864978963,0,-0.326207155357414,4.35111222889768,0,0,0,-4.2875
0.86,49.8592566762558,3.74893634131638,0,-0.327156413018204,4.35104095798814,0,0,0,-4.3
0.8625,49.8584375986674,3.759813854407,0,-0.328105655107504,4.3509694799844,0,0,0,-4.3125
0.865,49.8576161479933,3.77069118854373,0,-0.329054881580132,4.35089779488987,0,0,0,-4.325
0.8675,49.8567923242725,3.78156834320887,0,-0.330004092390909,4.35082590270796,0,0,0,-4.3375
0.87,49.8559661275444,3.7924453178847,0,-0.330953287494655,4.35075380344208,0,0,0,-4.35
0.8725,49.8551375578482,3.80332211205351,0,-0.331902466846193,4.35068149709568,0,0,0,-4.3625
0.875,49.8543066152233,3.81419872519762,0,-0.332851630400344,4.35060898367218,0,0,0,-4.375
0.8775,49.8534732997094,3.82507515679931,0,-0.333800778111932,4.35053626317505,0,0,0,-4.3875
0.88,49.852637611346,3.83595140634093,0,-0.334749909935781,4.35046333560775,0,0,0,-4.4
0.8825,49.851799550173,3.8468274733048,0,-0.335699025826715,4.35039020097373,0,0,0,-4.4125
0.885,49.8509591162302,3.85770335717325,0,-0.33664812573956,4.3503168592765,0,0,0,-4.425
0.8875,49.8501163095576,3.86857905742863,0,-0.337597209629142,4.35024331051953,0,0,0,-4.4375
0.89,49.8492711301954,3.8794545735533,0,-0.338546277450288,4.35016955470633,0,0,0,-4.45
0.8925,49.8484235781838,3.89032990502962,0,-0.339495329157826,4.3500955918404,0,0,0,-4.4625
0.895,49.8475736535631,3.90120505133996,0,-0.340444364706584,4.35002142192528,0,0,0,-4.475
0.8975,49.8467213563738,3.91208001196671,0,-0.341393384051391,4.34994704496448,0,0,0,-4.4875
0.9,49.8458666866564,3.92295478639225,0,-0.342342387147078,4.34987246096155,0,0,0,-4.5
0.9025,49.8450096444516,3.93382937409898,0,-0.343291373948475,4.34979766992004,0,0,0,-4.5125
0.905,49.8441502298003,3.94470377456932,0,-0.344240344410414,4.34972267184351,0,0,0,-4.525
0.9075,49.8432884427432,3.95557798728567,0,-0.345189298487727,4.34964746673553,0,0,0,-4.5375
0.91,49.8424242833215,3.96645201173047,0,-0.346138236135247,4.34957205459968,0,0,0,-4.55
0.9125,49.8415577515763,3.97732584738615,0,-0.347087157307809,4.34949643543954,0,0,0,-4.5625
0.915,49.8406888475488,3.98819949373515,0,-0.348036061960247,4.34942060925872,0,0,0,-4.575
0.9175,49.8398175712803,3.99907295025993,0,-0.348984950047396,4.34934457606082,0,0,0,-4.5875
0.92,49.8389439228124,4.00994621644295,0,-0.349933821524093,4.34926833584947,0,0,0,-4.6
0.9225,49.8380679021865,4.02081929176667,0,-0.350882676345175,4.34919188862829,0,0,0,-4.6125
0.925,49.8371895094445,4.03169217571358,0,-0.351831514465479,4.34911523440092,0,0,0,-4.625
0.9275,49.8363087446282,4.04256486776617,0,-0.352780335839844,4.34903837317102,0,0,0,-4.6375
0.93,49.8354256077793,4.05343736740694,0,-0.353729140423111,4.34896130494223,0,0,0,-4.65
0.9325,49.8345400989401,4.06430967411839,0,-0.354677928170118,4.34888402971823,0,0,0,-4.6625
0.935,49.8336522181526,4.07518178738304,0,-0.355626699035707,4.34880654750269,0,0,0,-4.675
0.9375,49.832761965459,4.08605370668341,0,-0.356575452974721,4.3487288582993,0,0,0,-4.6875
0.94,49.8318693409018,4.09692543150205,0,-0.357524189942001,4.34865096211177,0,0,0,-4.7
0.9425,49.8309743445235,4.10779696132149,0,-0.35847290989239,4.34857285894379,0,0,0,-4.7125
0.945,49.8300769763666,4.11866829562429,0,-0.359421612780735,4.34849454879909,0,0,0,-4.725
0.9475,49.8291772364738,4.129539433893,0,-0.360370298561878,4.34841603168139,0,0,0,-4.7375
0.95,49.8282751248881,4.14041037561022,0,-0.361318967190667,4.34833730759443,0,0,0,-4.75
0.9525,49.8273706416522,4.15128112025851,0,-0.362267618621948,4.34825837654195,0,0,0,-4.7625
0.955,49.8264637868093,4.16215166732046,0,-0.363216252810568,4.34817923852772,0,0,0,-4.775
0.9575,49.8255545604026,4.17302201627868,0,-0.364164869711377,4.3480998935555,0,0,0,-4.7875
0.96,49.8246429624752,4.18389216661577,0,-0.365113469279222,4.34802034162907,0,0,0,-4.8
0.9625,49.8237289930707,4.19476211781437,0,-0.366062051468955,4.34794058275221,0,0,0,-4.8125
0.965,49.8228126522324,4.20563186935708,0,-0.367010616235425,4.34786061692872,0,0,0,-4.825
0.9675,49.821893940004,4.21650142072656,0,-0.367959163533485,4.3477804441624,0,0,0,-4.8375
0.97,49.8209728564293,4.22737077140544,0,-0.368907693317988,4.34770006445708,0,0,0,-4.85
0.9725,49.8200494015521,4.2382399208764,0,-0.369856205543785,4.34761947781657,0,0,0,-4.8625
0.975,49.8191235754163,4.24910886862208,0,-0.370804700165733,4.34753868424472,0,0,0,-4.875
0.9775,49.818195378066,4.25997761412518,0,-0.371753177138684,4.34745768374536,0,0,0,-4.8875
0.98,49.8172648095453,4.27084615686837,0,-0.372701636417497,4.34737647632236,0,0,0,-4.9
0.9825,49.8163318698986,4.28171449633436,0,-0.373650077957026,4.34729506197957,0,0,0,-4.9125
0.985,49.8153965591704,4.29258263200584,0,-0.37459850171213,4.34721344072088,0,0,0,-4.925
0.9875,49.814458877405,4.30345056336554,0,-0.375546907637667,4.34713161255017,0,0,0,-4.9375
0.99,49.8135188246471,4.31431828989617,0,-0.376495295688497,4.34704957747133,0,0,0,-4.95
0.9925,49.8125764009414,4.32518581108047,0,-0.377443665819478,4.34696733548827,0,0,0,-4.9625
0.995,49.8116316063329,4.33605312640119,0,-0.378392017985473,4.34688488660491,0,0,0,-4.975
0.9975,49.8106844408665,4.34692023534108,0,-0.379340352141343,4.34680223082516,0,0,0,-4.9875
1,49.8097349045873,4.35778713738291,0,-0.380288668241951,4.34671936815296,0,0,0,-5
1.0025,49.8087829975404,4.36865383200944,0,-0.38123696624216,4.34663629859225,0,0,0,-5.0125
1.005,49.8078287197712,4.37952031870347,0,-0.382185246096834,4.346553022147,0,0,0,-5.025
1.0075,49.8068720713251,4.39038659694778,0,-0.383133507760839,4.34646953882115,0,0,0,-5.0375
1.01,49.8059130522476,4.40125266622517,0,-0.384081751189042,4.34638584861869,0,0,0,-5.05
1.0125,49.8049516625844,4.41211852601848,0,-0.385029976336307,4.3463019515436,0,0,0,-5.0625
1.015,49.8039879023812,4.4229841758105,0,-0.385978183157505,4.34621784759988,0,0,0,-5.075
1.0175,49.8030217716839,4.43384961508409,0,-0.386926371607503,4.34613353679152,0,0,0,-5.0875
1.02,49.8020532705385,4.44471484332208,0,-0.387874541641171,4.34604901912253,0,0,0,-5.1
1.0225,49.8010823989911,4.45557986000732,0,-0.388822693213379,4.34596429459695,0,0,0,-5.1125
1.025,49.8001091570878,4.46644466462268,0,-0.389770826278999,4.3458793632188,0,0,0,-5.125
1.0275,49.7991335448751,4.47730925665104,0,-0.390718940792902,4.34579422499213,0,0,0,-5.1375
1.03,49.7981555623994,4.48817363557527,0,-0.391667036709963,4.34570887992099,0,0,0,-5.15
1.0325,49.7971752097071,4.49903780087828,0,-0.392615113985055,4.34562332800943,0,0,0,-5.1625
1.035,49.796192486845,4.50990175204296,0,-0.393563172573052,4.34553756926154,0,0,0,-5.175
1.0375,49.7952073938599,4.52076548855223,0,-0.394511212428832,4.3454516036814,0,0,0,-5.1875
1.04,49.7942199307985,4.53162900988901,0,-0.395459233507269,4.34536543127308,0,0,0,-5.2
1.0425,49.793230097708,4.54249231553624,0,-0.396407235763242,4.34527905204071,0,0,0,-5.2125
1.045,49.7922378946354,4.55335540497686,0,-0.39735521915163,4.34519246598839,0,0,0,-5.225
1.0475,49.791243321628,4.56421827769383,0,-0.398303183627311,4.34510567312023,0,0,0,-5.2375
1.05,49.7902463787331,4.57508093317012,0,-0.399251129145166,4.34501867344038,0,0,0,-5.25
1.0525,49.7892470659981,4.58594337088869,0,-0.400199055660076,4.34493146695297,0,0,0,-5.2625
1.055,49.7882453834707,4.59680559033255,0,-0.401146963126923,4.34484405366215,0,0,0,-5.275
1.0575,49.7872413311984,4.60766759098467,0,-0.40209485150059,4.34475643357208,0,0,0,-5.2875
1.06,49.7862349092291,4.61852937232808,0,-0.40304272073596,4.34466860668694,0,0,0,-5.3
1.0625,49.7852261176107,4.62939093384578,0,-0.403990570787919,4.3445805730109,0,0,0,-5.3125
1.065,49.7842149563912,4.64025227502081,0,-0.404938401611353,4.34449233254816,0,0,0,-5.325
1.0675,49.7832014256187,4.6511133953362,0,-0.405886213161147,4.34440388530291,0,0,0,-5.3375
1.07,49.7821855253415,4.66197429427501,0,-0.40683400539219,4.34431523127936,0,0,0,-5.35
1.0725,49.7811672556079,4.67283497132029,0,-0.407781778259369,4.34422637048173,0,0,0,-5.3625
1.075,49.7801466164664,4.68369542595511,0,-0.408729531717575,4.34413730291426,0,0,0,-5.375
1.0775,49.7791236079655,4.69455565766256,0,-0.409677265721697,4.34404802858118,0,0,0,-5.3875
1.08,49.778098230154,4.70541566592572,0,-0.410624980226626,4.34395854748675,0,0,0,-5.4
1.0825,49.7770704830807,4.71627545022769,0,-0.411572675187256,4.34386885963521,0,0,0,-5.4125
1.085,49.7760403667944,4.7271350100516,0,-0.412520350558478,4.34377896503084,0,0,0,-5.425
1.0875,49.7750078813442,4.73799434488056,0,-0.413468006295187,4.34368886367792,0,0,0,-5.4375
1.09,49.7739730267793,4.7488534541977,0,-0.414415642352278,4.34359855558073,0,0,0,-5.45
1.0925,49.7729358031489,4.75971233748618,0,-0.415363258684646,4.34350804074358,0,0,0,-5.4625
1.095,49.7718962105024,4.77057099422914,0,-0.416310855247189,4.34341731917077,0,0,0,-5.475
1.0975,49.7708542488892,4.78142942390975,0,-0.417258431994804,4.34332639086663,0,0,0,-5.4875
1.1,49.7698099183589,4.7922876260112,0,-0.41820598888239,4.34323525583547,0,0,0,-5.5
1.1025,49.7687632189614,4.80314560001666,0,-0.419153525864847,4.34314391408164,0,0,0,-5.5125
1.105,49.7677141507462,4.81400334540934,0,-0.420101042897074,4.34305236560948,0,0,0,-5.525
1.1075,49.7666627137635,4.82486086167245,0,-0.421048539933974,4.34296061042335,0,0,0,-5.5375
1.11,49.7656089080633,4.8357181482892,0,-0.42199601693045,4.34286864852762,0,0,0,-5.55
1.1125,49.7645527336956,4.84657520474283,0,-0.422943473841404,4.34277647992667,0,0,0,-5.5625
1.115,49.7634941907108,4.85743203051658,0,-0.42389091062174,4.34268410462488,0,0,0,-5.575
1.1175,49.7624332791593,4.86828862509371,0,-0.424838327226365,4.34259152262664,0,0,0,-5.5875
1.12,49.7613699990916,4.87914498795747,0,-0.425785723610185,4.34249873393638,0,0,0,-5.6
1.1225,49.7603043505582,4.89000111859115,0,-0.426733099728106,4.34240573855849,0,0,0,-5.6125
1.125,49.7592363336098,4.90085701647803,0,-0.427680455535038,4.34231253649742,0,0,0,-5.625
1.1275,49.7581659482975,4.91171268110141,0,-0.428627790985889,4.34221912775759,0,0,0,-5.6375
1.13,49.7570931946719,4.92256811194459,0,-0.429575106035569,4.34212551234344,0,0,0,-5.65
1.1325,49.7560180727843,4.9334233084909,0,-0.43052240063899,4.34203169025945,0,0,0,-5.6625
1.135,49.7549405826858,4.94427827022367,0,-0.431469674751064,4.34193766151007,0,0,0,-5.675
1.1375,49.7538607244277,4.95513299662623,0,-0.432416928326704,4.34184342609977,0,0,0,-5.6875
1.14,49.7527784980613,4.96598748718195,0,-0.433364161320824,4.34174898403305,0,0,0,-5.7
1.1425,49.7516939036382,4.97684174137419,0,-0.434311373688338,4.34165433531439,0,0,0,-5.7125
1.145,49.7506069412101,4.98769575868632,0,-0.435258565384164,4.34155947994831,0,0,0,-5.725
1.1475,49.7495176108286,4.99854953860172,0,-0.436205736363217,4.34146441793931,0,0,0,-5.7375
1.15,49.7484259125456,5.00940308060381,0,-0.437152886580417,4.34136914929192,0,0,0,-5.75
1.1525,49.747331846413,5.02025638417599,0,-0.438100015990682,4.34127367401069,0,0,0,-5.7625
1.155,49.746235412483,5.03110944880168,0,-0.439047124548932,4.34117799210014,0,0,0,-5.775
1.1575,49.7451366108077,5.0419622739643,0,-0.439994212210087,4.34108210356484,0,0,0,-5.7875
1.16,49.7440354414394,5.05281485914732,0,-0.440941278929071,4.34098600840934,0,0,0,-5.8
1.1625,49.7429319044305,5.06366720383417,0,-0.441888324660806,4.34088970663823,0,0,0,-5.8125
1.165,49.7418259998336,5.07451930750833,0,-0.442835349360215,4.34079319825609,0,0,0,-5.825
1.1675,49.7407177277013,5.08537116965328,0,-0.443782352982224,4.3406964832675,0,0,0,-5.8375
1.17,49.7396070880863,5.0962227897525,0,-0.444729335481759,4.34059956167708,0,0,0,-5.85
1.1725,49.7384940810415,5.1070741672895,0,-0.445676296813747,4.34050243348943,0,0,0,-5.8625
1.175,49.7373787066199,5.11792530174779,0,-0.446623236933116,4.34040509870918,0,0,0,-5.875
1.1775,49.7362609648746,5.12877619261089,0,-0.447570155794794,4.34030755734097,0,0,0,-5.8875
1.18,49.7351408558587,5.13962683936234,0,-0.448517053353713,4.34020980938942,0,0,0,-5.9
1.1825,49.7340183796256,5.15047724148569,0,-0.449463929564802,4.34011185485921,0,0,0,-5.9125
1.185,49.7328935362287,5.16132739846449,0,-0.450410784382993,4.34001369375498,0,0,0,-5.925
1.1875,49.7317663257216,5.17217730978232,0,-0.451357617763221,4.33991532608142,0,0,0,-5.9375
1.19,49.7306367481578,5.18302697492276,0,-0.452304429660419,4.3398167518432,0,0,0,-5.95
1.1925,49.7295048035912,5.1938763933694,0,-0.453251220029521,4.33971797104501,0,0,0,-5.9625
1.195,49.7283704920756,5.20472556460586,0,-0.454197988825465,4.33961898369156,0,0,0,-5.975
1.1975,49.7272338136651,5.21557448811574,0,-0.455144736003187,4.33951978978756,0,0,0,-5.9875
1.2,49.7260947684137,5.22642316338267,0,-0.456091461517626,4.33942038933773,0,0,0,-6
1.2025,49.7249533563756,5.23727158989031,0,-0.45703816532372,4.3393207823468,0,0,0,-6.0125
1.205,49.7238095776052,5.24811976712229,0,-0.45798484737641,4.33922096881951,0,0,0,-6.025
1.2075,49.7226634321569,5.2589676945623,0,-0.458931507630638,4.33912094876061,0,0,0,-6.0375
1.21,49.7215149200852,5.26981537169399,0,-0.459878146041345,4.33902072217486,0,0,0,-6.05
1.2125,49.7203640414449,5.28066279800107,0,-0.460824762563474,4.33892028906704,0,0,0,-6.0625
1.215,49.7192107962907,5.29150997296723,0,-0.461771357151971,4.33881964944192,0,0,0,-6.075
1.2175,49.7180551846775,5.30235689607618,0,-0.462717929761781,4.3387188033043,0,0,0,-6.0875
1.22,49.7168972066602,5.31320356681166,0,-0.46366448034785,4.33861775065896,0,0,0,-6.1
1.2225,49.7157368622941,5.32404998465739,0,-0.464611008865125,4.33851649151073,0,0,0,-6.1125
1.225,49.7145741516343,5.33489614909713,0,-0.465557515268556,4.33841502586443,0,0,0,-6.125
1.2275,49.7134090747362,5.34574205961464,0,-0.466503999513092,4.33831335372487,0,0,0,-6.1375
1.23,49.7122416316553,5.35658771569368,0,-0.467450461553683,4.33821147509691,0,0,0,-6.15
1.2325,49.711071822447,5.36743311681805,0,-0.468396901345282,4.33810938998539,0,0,0,-6.1625
1.235,49.7098996471671,5.37827826247154,0,-0.469343318842841,4.33800709839517,0,0,0,-6.175
1.2375,49.7087251058714,5.38912315213797,0,-0.470289714001314,4.33790460033111,0,0,0,-6.1875
1.24,49.7075481986158,5.39996778530114,0,-0.471236086775656,4.33780189579811,0,0,0,-6.2
1.2425,49.7063689254562,5.4108121614449,0,-0.472182437120823,4.33769898480103,0,0,0,-6.2125
1.245,49.7051872864489,5.4216562800531,0,-0.473128764991772,4.33759586734479,0,0,0,-6.225
1.2475,49.70400328165,5.43250014060958,0,-0.474075070343461,4.3374925434343,0,0,0,-6.2375
1.25,49.702816911116,5.44334374259823,0,-0.475021353130849,4.33738901307446,0,0,0,-6.25
1.2525,49.7016281749032,5.45418708550292,0,-0.475967613308897,4.33728527627021,0,0,0,-6.2625
1.255,49.7004370730683,5.46503016880755,0,-0.476913850832566,4.33718133302648,0,0,0,-6.275
1.2575,49.699243605668,5.47587299199602,0,-0.477860065656818,4.33707718334822,0,0,0,-6.2875
1.26,49.698047772759,5.48671555455226,0,-0.478806257736618,4.33697282724039,0,0,0,-6.3
1.2625,49.6968495743983,5.4975578559602,0,-0.479752427026928,4.33686826470796,0,0,0,-6.3125
1.265,49.6956490106429,5.50839989570379,0,-0.480698573482717,4.3367634957559,0,0,0,-6.325
1.2675,49.6944460815499,5.51924167326697,0,-0.481644697058949,4.3366585203892,0,0,0,-6.3375
1.27,49.6932407871767,5.53008318813372,0,-0.482590797710592,4.33655333861286,0,0,0,-6.35
1.2725,49.6920331275805,5.54092443978803,0,-0.483536875392617,4.33644795043188,0,0,0,-6.3625
1.275,49.6908231028189,5.55176542771388,0,-0.484482930059993,4.33634235585127,0,0,0,-6.375
1.2775,49.6896107129494,5.56260615139529,0,-0.48542896166769,4.33623655487607,0,0,0,-6.3875
1.28,49.6883959580298,5.57344661031627,0,-0.486374970170682,4.33613054751131,0,0,0,-6.4
1.2825,49.6871788381179,5.58428680396086,0,-0.487320955523941,4.33602433376204,0,0,0,-6.4125
1.285,49.6859593532715,5.5951267318131,0,-0.488266917682442,4.3359179136333,0,0,0,-6.425
1.2875,49.6847375035488,5.60596639335705,0,-0.48921285660116,4.33581128713017,0,0,0,-6.4375
1.29,49.6835132890079,5.61680578807678,0,-0.490158772235073,4.33570445425773,0,0,0,-6.45
1.2925,49.6822867097071,5.62764491545637,0,-0.491104664539158,4.33559741502104,0,0,0,-6.4625
1.295,49.6810577657047,5.63848377497992,0,-0.492050533468393,4.33549016942522,0,0,0,-6.475
1.2975,49.6798264570593,5.64932236613153,0,-0.492996378977759,4.33538271747537,0,0,0,-6.4875
1.3,49.6785927838294,5.66016068839534,0,-0.493942201022237,4.33527505917659,0,0,0,-6.5
1.3025,49.6773567460737,5.67099874125546,0,-0.494887999556809,4.33516719453402,0,0,0,-6.5125
1.305,49.6761183438512,5.68183652419606,0,-0.495833774536458,4.33505912355278,0,0,0,-6.525
1.3075,49.6748775772207,5.69267403670128,0,-0.496779525916169,4.33495084623803,0,0,0,-6.5375
1.31,49.6736344462413,5.70351127825531,0,-0.497725253650928,4.33484236259491,0,0,0,-6.55
1.3125,49.6723889509722,5.71434824834232,0,-0.49867095769572,4.33473367262859,0,0,0,-6.5625
1.315,49.6711410914726,5.72518494644652,0,-0.499616638005535,4.33462477634424,0,0,0,-6.575
1.3175,49.669890867802,5.73602137205211,0,-0.50056229453536,4.33451567374704,0,0,0,-6.5875
1.32,49.6686382800198,5.74685752464333,0,-0.501507927240186,4.3344063648422,0,0,0,-6.6
1.3225,49.6673833281857,5.75769340370441,0,-0.502453536075005,4.3342968496349,0,0,0,-6.6125
1.325,49.6661260123594,5.76852900871959,0,-0.503399120994808,4.33418712813036,0,0,0,-6.625
1.3275,49.6648663326007,5.77936433917315,0,-0.504344681954589,4.33407720033382,0,0,0,-6.6375
1.33,49.6636042889696,5.79019939454935,0,-0.505290218909342,4.33396706625048,0,0,0,-6.65
1.3325,49.6623398815262,5.8010341743325,0,-0.506235731814064,4.33385672588561,0,0,0,-6.6625
1.335,49.6610731103306,5.81186867800688,0,-0.507181220623751,4.33374617924445,0,0,0,-6.675
1.3375,49.6598039754432,5.82270290505683,0,-0.508126685293402,4.33363542633226,0,0,0,-6.6875
1.34,49.6585324769243,5.83353685496666,0,-0.509072125778016,4.33352446715432,0,0,0,-6.7
1.3425,49.6572586148345,5.84437052722072,0,-0.510017542032592,4.3334133017159,0,0,0,-6.7125
1.345,49.6559823892344,5.85520392130336,0,-0.510962934012133,4.3333019300223,0,0,0,-6.725
1.3475,49.6547038001847,5.86603703669895,0,-0.511908301671641,4.33319035207882,0,0,0,-6.7375
1.35,49.6534228477463,5.87686987289188,0,-0.51285364496612,4.33307856789076,0,0,0,-6.75
1.3525,49.6521395319802,5.88770242936654,0,-0.513798963850575,4.33296657746345,0,0,0,-6.7625
1.355,49.6508538529474,5.89853470560734,0,-0.514744258280012,4.33285438080223,0,0,0,-6.775
1.3575,49.6495658107092,5.90936670109869,0,-0.515689528209439,4.33274197791242,0,0,0,-6.7875
1.36,49.6482754053268,5.92019841532505,0,-0.516634773593864,4.33262936879938,0,0,0,-6.8
1.3625,49.6469826368617,5.93102984777084,0,-0.517579994388296,4.33251655346847,0,0,0,-6.8125
1.365,49.6456875053754,5.94186099792055,0,-0.518525190547747,4.33240353192506,0,0,0,-6.825
1.3675,49.6443900109296,5.95269186525863,0,-0.519470362027229,4.33229030417452,0,0,0,-6.8375
1.37,49.6430901535859,5.96352244926958,0,-0.520415508781754,4.33217687022226,0,0,0,-6.85
1.3725,49.6417879334063,5.97435274943791,0,-0.521360630766337,4.33206323007366,0,0,0,-6.8625
1.375,49.6404833504528,5.98518276524813,0,-0.522305727935993,4.33194938373413,0,0,0,-6.875
1.3775,49.6391764047873,5.99601249618476,0,-0.52325080024574,4.3318353312091,0,0,0,-6.8875
1.38,49.6378670964723,6.00684194173235,0,-0.524195847650595,4.33172107250399,0,0,0,-6.9
1.3825,49.6365554255699,6.01767110137547,0,-0.525140870105577,4.33160660762425,0,0,0,-6.9125
1.385,49.6352413921426,6.02849997459867,0,-0.526085867565706,4.33149193657531,0,0,0,-6.925
1.3875,49.6339249962529,6.03932856088654,0,-0.527030839986005,4.33137705936264,0,0,0,-6.9375
1.39,49.6326062379636,6.05015685972368,0,-0.527975787321495,4.3312619759917,0,0,0,-6.95
1.3925,49.6312851173372,6.06098487059471,0,-0.5289207095272,4.33114668646798,0,0,0,-6.9625
1.395,49.6299616344369,6.07181259298423,0,-0.529865606558146,4.33103119079695,0,0,0,-6.975
1.3975,49.6286357893255,6.0826400263769,0,-0.530810478369359,4.33091548898412,0,0,0,-6.9875
1.4,49.6273075820661,6.09346717025737,0,-0.531755324915865,4.330799581035,0,0,0,-7
1.4025,49.625977012722,6.10429402411031,0,-0.532700146152695,4.33068346695509,0,0,0,-7.0125
1.405,49.6246440813565,6.11512058742038,0,-0.533644942034877,4.33056714674994,0,0,0,-7.025
1.4075,49.623308788033,6.12594685967229,0,-0.534589712517442,4.33045062042506,0,0,0,-7.0375
1.41,49.6219711328151,6.13677284035074,0,-0.535534457555424,4.33033388798602,0,0,0,-7.05
1.4125,49.6206311157664,6.14759852894046,0,-0.536479177103855,4.33021694943836,0,0,0,-7.0625
1.415,49.6192887369508,6.15842392492618,0,-0.53742387111777,4.33009980478765,0,0,0,-7.075
1.4175,49.6179439964322,6.16924902779265,0,-0.538368539552205,4.32998245403947,0,0,0,-7.0875
1.42,49.6165968942744,6.18007383702463,0,-0.539313182362196,4.32986489719941,0,0,0,-7.1
1.4225,49.6152474305418,6.19089835210691,0,-0.540257799502784,4.32974713427305,0,0,0,-7.1125
1.425,49.6138956052984,6.20172257252427,0,-0.541202390929006,4.32962916526601,0,0,0,-7.125
1.4275,49.6125414186086,6.21254649776151,0,-0.542146956595904,4.32951099018389,0,0,0,-7.1375
1.43,49.6111848705369,6.22337012730346,0,-0.54309149645852,4.32939260903233,0,0,0,-7.15
1.4325,49.6098259611478,6.23419346063495,0,-0.544036010471897,4.32927402181695,0,0,0,-7.1625
1.435,49.6084646905061,6.24501649724083,0,-0.544980498591079,4.3291552285434,0,0,0,-7.175
1.4375,49.6071010586765,6.25583923660596,0,-0.545924960771113,4.32903622921735,0,0,0,-7.1875
1.44,49.6057350657239,6.26666167821521,0,-0.546869396967044,4.32891702384444,0,0,0,-7.2
1.4425,49.6043667117133,6.27748382155348,0,-0.547813807133922,4.32879761243035,0,0,0,-7.2125
1.445,49.60299599671,6.28830566610567,0,-0.548758191226795,4.32867799498077,0,0,0,-7.225
1.4475,49.601622920779,6.29912721135669,0,-0.549702549200715,4.3285581715014,0,0,0,-7.2375
1.45,49.6002474839857,6.30994845679149,0,-0.550646881010733,4.32843814199792,0,0,0,-7.25
1.4525,49.5988696863958,6.320769401895,0,-0.551591186611902,4.32831790647607,0,0,0,-7.2625
1.455,49.5974895280746,6.33159004615219,0,-0.552535465959277,4.32819746494155,0,0,0,-7.275
1.4575,49.5961070090879,6.34241038904803,0,-0.553479719007913,4.3280768174001,0,0,0,-7.2875
1.46,49.5947221295015,6.35323043006752,0,-0.554423945712868,4.32795596385747,0,0,0,-7.3
1.4625,49.5933348893813,6.36405016869566,0,-0.555368146029199,4.32783490431941,0,0,0,-7.3125
1.465,49.5919452887934,6.37486960441746,0,-0.556312319911966,4.32771363879167,0,0,0,-7.325
1.4675,49.5905533278038,6.38568873671796,0,-0.557256467316229,4.32759216728004,0,0,0,-7.3375
1.47,49.5891590064789,6.39650756508221,0,-0.558200588197051,4.32747048979028,0,0,0,-7.35
1.4725,49.587762324885,6.40732608899527,0,-0.559144682509494,4.3273486063282,0,0,0,-7.3625
1.475,49.5863632830885,6.41814430794222,0,-0.560088750208623,4.3272265168996,0,0,0,-7.375
1.4775,49.5849618811561,6.42896222140814,0,-0.561032791249503,4.32710422151028,0,0,0,-7.3875
1.48,49.5835581191545,6.43977982887814,0,-0.561976805587203,4.32698172016607,0,0,0,-7.4
1.4825,49.5821519971505,6.45059712983734,0,-0.562920793176789,4.32685901287279,0,0,0,-7.4125
1.485,49.580743515211,6.46141412377088,0,-0.563864753973332,4.32673609963629,0,0,0,-7.425
1.4875,49.579332673403,6.47223081016391,0,-0.564808687931902,4.32661298046242,0,0,0,-7.4375
1.49,49.5779194717937,6.48304718850159,0,-0.565752595007571,4.32648965535704,0,0,0,-7.45
1.4925,49.5765039104504,6.49386325826909,0,-0.566696475155413,4.32636612432602,0,0,0,-7.4625
1.495,49.5750859894404,6.50467901895162,0,-0.567640328330502,4.32624238737523,0,0,0,-7.475
1.4975,49.5736657088312,6.51549447003437,0,-0.568584154487914,4.32611844451057,0,0,0,-7.4875
1.5,49.5722430686905,6.52630961100258,0,-0.569527953582727,4.32599429573794,0,0,0,-7.5
1.5025,49.5708180690859,6.53712444134148,0,-0.570471725570018,4.32586994106324,0,0,0,-7.5125
1.505,49.5693907100853,6.54793896053632,0,-0.571415470404869,4.32574538049239,0,0,0,-7.525
1.5075,49.5679609917566,6.55875316807236,0,-0.572359188042359,4.32562061403133,0,0,0,-7.5375
1.51,49.5665289141678,6.5695670634349,0,-0.573302878437571,4.32549564168599,0,0,0,-7.55
1.5125,49.5650944773871,6.58038064610923,0,-0.574246541545589,4.32537046346232,0,0,0,-7.5625
1.515,49.5636576814828,6.59119391558065,0,-0.575190177321498,4.32524507936627,0,0,0,-7.575
1.5175,49.5622185265233,6.6020068713345,0,-0.576133785720384,4.32511948940382,0,0,0,-7.5875
1.52,49.5607770125771,6.61281951285612,0,-0.577077366697334,4.32499369358095,0,0,0,-7.6
1.5225,49.5593331397127,6.62363183963086,0,-0.578020920207438,4.32486769190363,0,0,0,-7.6125
1.525,49.557886907999,6.6344438511441,0,-0.578964446205786,4.32474148437787,0,0,0,-7.625
1.5275,49.5564383175047,6.64525554688122,0,-0.579907944647468,4.32461507100968,0,0,0,-7.6375
1.53,49.5549873682987,6.65606692632762,0,-0.580851415487579,4.32448845180506,0,0,0,-7.65
1.5325,49.5535340604503,6.66687798896872,0,-0.581794858681212,4.32436162677006,0,0,0,-7.6625
1.535,49.5520783940284,6.67768873428995,0,-0.582738274183462,4.3242345959107,0,0,0,-7.675
1.5375,49.5506203691025,6.68849916177676,0,-0.583681661949426,4.32410735923303,0,0,0,-7.6875
1.54,49.5491599857418,6.6993092709146,0,-0.584625021934203,4.32397991674311,0,0,0,-7.7
1.5425,49.547697244016,6.71011906118897,0,-0.585568354092892,4.32385226844699,0,0,0,-7.7125
1.545,49.5462321439946,6.72092853208534,0,-0.586511658380592,4.32372441435077,0,0,0,-7.725
1.5475,49.5447646857473,6.73173768308923,0,-0.587454934752408,4.32359635446052,0,0,0,-7.7375
1.55,49.5432948693441,6.74254651368615,0,-0.588398183163441,4.32346808878234,0,0,0,-7.75
1.5525,49.5418226948549,6.75335502336165,0,-0.589341403568797,4.32333961732234,0,0,0,-7.7625
1.555,49.5403481623496,6.76416321160128,0,-0.590284595923581,4.32321094008662,0,0,0,-7.775
1.5575,49.5388712718987,6.77497107789061,0,-0.591227760182902,4.32308205708131,0,0,0,-7.7875
1.56,49.5373920235722,6.78577862171522,0,-0.592170896301867,4.32295296831255,0,0,0,-7.8
1.5625,49.5359104174406,6.79658584256071,0,-0.593114004235586,4.32282367378649,0,0,0,-7.8125
1.565,49.5344264535745,6.80739273991269,0,-0.594057083939172,4.32269417350927,0,0,0,-7.825
1.5675,49.5329401320445,6.8181993132568,0,-0.595000135367737,4.32256446748706,0,0,0,-7.8375
1.57,49.5314514529213,6.82900556207868,0,-0.595943158476395,4.32243455572603,0,0,0,-7.85
1.5725,49.5299604162758,6.83981148586399,0,-0.596886153220261,4.32230443823236,0,0,0,-7.8625
1.575,49.5284670221789,6.8506170840984,0,-0.597829119554452,4.32217411501226,0,0,0,-7.875
1.5775,49.5269712707017,6.86142235626762,0,-0.598772057434086,4.32204358607192,0,0,0,-7.8875
1.58,49.5254731619154,6.87222730185733,0,-0.599714966814283,4.32191285141756,0,0,0,-7.9
1.5825,49.5239726958914,6.88303192035328,0,-0.600657847650164,4.32178191105539,0,0,0,-7.9125
1.585,49.522469872701,6.89383621124119,0,-0.60160069989685,4.32165076499165,0,0,0,-7.925
1.5875,49.5209646924158,6.90464017400682,0,-0.602543523509466,4.32151941323258,0,0,0,-7.9375
1.59,49.5194571551074,6.91544380813595,0,-0.603486318443136,4.32138785578444,0,0,0,-7.95
1.5925,49.5179472608475,6.92624711311434,0,-0.604429084652987,4.32125609265348,0,0,0,-7.9625
1.595,49.5164350097081,6.93705008842782,0,-0.605371822094146,4.32112412384598,0,0,0,-7.975
1.5975,49.514920401761,6.94785273356218,0,-0.606314530721742,4.32099194936822,0,0,0,-7.9875
1.6,49.5134034370785,6.95865504800327,0,-0.607257210490906,4.32085956922649,0,0,0,-8
1.6025,49.5118841157327,6.96945703123693,0,-0.608199861356769,4.32072698342708,0,0,0,-8.0125
1.605,49.5103624377959,6.98025868274903,0,-0.609142483274464,4.32059419197632,0,0,0,-8.025
1.6075,49.5088384033405,6.99106000202544,0,-0.610085076199127,4.32046119488052,0,0,0,-8.0375
1.61,49.5073120124391,7.00186098855207,0,-0.611027640085893,4.32032799214601,0,0,0,-8.05
1.6125,49.5057832651643,7.01266164181481,0,-0.611970174889899,4.32019458377913,0,0,0,-8.0625
1.615,49.5042521615889,7.02346196129961,0,-0.612912680566284,4.32006096978623,0,0,0,-8.075
1.6175,49.5027187017858,7.0342619464924,0,-0.613855157070187,4.31992715017367,0,0,0,-8.0875
1.62,49.5011828858279,7.04506159687913,0,-0.614797604356752,4.31979312494782,0,0,0,-8.1
1.6225,49.4996447137884,7.0558609119458,0,-0.615740022381119,4.31965889411506,0,0,0,-8.1125
1.625,49.4981041857404,7.06665989117837,0,-0.616682411098434,4.31952445768178,0,0,0,-8.125
1.6275,49.4965613017573,7.07745853406288,0,-0.617624770463842,4.31938981565438,0,0,0,-8.1375
1.63,49.4950160619126,7.08825684008532,0,-0.61856710043249,4.31925496803926,0,0,0,-8.15
1.6325,49.4934684662797,7.09905480873175,0,-0.619509400959527,4.31911991484284,0,0,0,-8.1625
1.635,49.4919185149324,7.10985243948822,0,-0.620451672000102,4.31898465607156,0,0,0,-8.175
1.6375,49.4903662079443,7.1206497318408,0,-0.621393913509367,4.31884919173184,0,0,0,-8.1875
1.64,49.4888115453895,7.13144668527558,0,-0.622336125442474,4.31871352183015,0,0,0,-8.2
