time,x,y,z,vx,vy,vz,pitch,roll,yaw
0,10,0,0,-0,0.872664625997165,0,0,0,0
0.0025,9.99999976201764,0.00218166154768635,0,-0.00019038588585641,0.872664605229286,0,0,0,0.0125
0.005,9.99999904807058,0.0043633229915333,0,-0.000380771762651124,0.872664542925651,0,0,0,0.025
0.0075,9.99999785815884,0.00654498422770148,0,-0.000571157621322445,0.872664439086264,0,0,0,0.0375
0.01,9.9999961922825,0.0087266451523515,0,-0.000761543452808679,0.872664293711127,0,0,0,0.05
0.0125,9.99999405044161,0.010908305661644,0,-0.000951929248048131,0.87266410680025,0,0,0,0.0625
0.015,9.99999143263629,0.0130899656517396,0,-0.00114231499797911,0.87266387835364,0,0,0,0.075
0.0175,9.99998833886666,0.0152716250187991,0,-0.00133270069353993,0.872663608371309,0,0,0,0.0875
0.02,9.99998476913288,0.0174532836589831,0,-0.00152308632566889,0.872663296853269,0,0,0,0.1
0.0225,9.9999807234351,0.0196349414684524,0,-0.00171347188530432,0.872662943799535,0,0,0,0.1125
0.025,9.99997620177352,0.0218165983433677,0,-0.00190385736338453,0.872662549210124,0,0,0,0.125
0.0275,9.99997120414836,0.0239982541798899,0,-0.00209424275084785,0.872662113085054,0,0,0,0.1375
0.03,9.99996573055985,0.0261799088741799,0,-0.00228462803863261,0.872661635424347,0,0,0,0.15
0.0325,9.99995978100825,0.0283615623223987,0,-0.00247501321767713,0.872661116228026,0,0,0,0.1625
0.035,9.99995335549386,0.0305432144207071,0,-0.00266539827891976,0.872660555496114,0,0,0,0.175
0.0375,9.99994645401696,0.0327248650652662,0,-0.00285578321329883,0.872659953228639,0,0,0,0.1875
0.04,9.9999390765779,0.0349065141522373,0,-0.00304616801175269,0.872659309425629,0,0,0,0.2
0.0425,9.99993122317703,0.0370881615777815,0,-0.00323655266521971,0.872658624087115,0,0,0,0.2125
0.045,9.99992289381471,0.03926980723806,0,-0.00342693716463824,0.87265789721313,0,0,0,0.225
0.0475,9.99991408849134,0.0414514510292343,0,-0.00361732150094665,0.872657128803707,0,0,0,0.2375
0.05,9.99990480720735,0.0436330928474657,0,-0.00380770566508332,0.872656318858885,0,0,0,0.25
0.0525,9.99989504996316,0.0458147325889159,0,-0.00399808964798664,0.8726554673787,0,0,0,0.2625
0.055,9.99988481675926,0.0479963701497464,0,-0.004188473440595,0.872654574363195,0,0,0,0.275
0.0575,9.99987410759613,0.0501780054261191,0,-0.0043788570338468,0.872653639812411,0,0,0,0.2875
0.06,9.99986292247427,0.0523596383141958,0,-0.00456924041868045,0.872652663726392,0,0,0,0.3
0.0625,9.99985126139422,0.0545412687101384,0,-0.00475962358603438,0.872651646105186,0,0,0,0.3125
0.065,9.99983912435653,0.0567228965101091,0,-0.00495000652684703,0.87265058694884,0,0,0,0.325
0.0675,9.99982651136178,0.0589045216102701,0,-0.00514038923205682,0.872649486257406,0,0,0,0.3375
0.07,9.99981342241057,0.0610861439067836,0,-0.00533077169260223,0.872648344030935,0,0,0,0.35
0.0725,9.99979985750353,0.0632677632958122,0,-0.00552115389942171,0.872647160269482,0,0,0,0.3625
0.075,9.99978581664129,0.0654493796735186,0,-0.00571153584345375,0.872645934973103,0,0,0,0.375
0.0775,9.99977129982454,0.0676309929360654,0,-0.00590191751563684,0.872644668141856,0,0,0,0.3875
0.08,9.99975630705395,0.0698126029796155,0,-0.00609229890690947,0.872643359775802,0,0,0,0.4
0.0825,9.99974083833024,0.0719942097003321,0,-0.00628268000821018,0.872642009875004,0,0,0,0.4125
0.085,9.99972489365416,0.0741758129943783,0,-0.00647306081047748,0.872640618439524,0,0,0,0.425
0.0875,9.99970847302645,0.0763574127579175,0,-0.00666344130464992,0.87263918546943,0,0,0,0.4375
0.09,9.9996915764479,0.0785390088871133,0,-0.00685382148166607,0.87263771096479,0,0,0,0.45
0.0925,9.99967420391931,0.0807206012781294,0,-0.00704420133246451,0.872636194925674,0,0,0,0.4625
0.095,9.99965635544151,0.0829021898271297,0,-0.00723458084798381,0.872634637352154,0,0,0,0.475
0.0975,9.99963803101536,0.0850837744302783,0,-0.00742496001916259,0.872633038244304,0,0,0,0.4875
0.1,9.99961923064171,0.0872653549837393,0,-0.00761533883693947,0.872631397602201,0,0,0,0.5
0.1025,9.99959995432148,0.0894469313836774,0,-0.00780571729225309,0.872629715425922,0,0,0,0.5125
0.105,9.99958020205556,0.0916285035262572,0,-0.00799609537604211,0.872627991715547,0,0,0,0.525
0.1075,9.99955997384491,0.0938100713076435,0,-0.00818647307924521,0.872626226471159,0,0,0,0.5375
0.11,9.99953926969049,0.0959916346240014,0,-0.00837685039280107,0.872624419692841,0,0,0,0.55
0.1125,9.99951808959328,0.0981731933714962,0,-0.0085672273076484,0.87262257138068,0,0,0,0.5625
0.115,9.99949643355429,0.100354747446293,0,-0.00875760381472595,0.872620681534764,0,0,0,0.575
0.1175,9.99947430157455,0.102536296744559,0,-0.00894797990497245,0.872618750155182,0,0,0,0.5875
0.12,9.99945169365512,0.104717841162458,0,-0.00913835556932669,0.872616777242026,0,0,0,0.6
0.1225,9.99942860979707,0.106899380596158,0,-0.00932873079872744,0.872614762795391,0,0,0,0.6125
0.125,9.9994050500015,0.109080914941824,0,-0.00951910558411352,0.872612706815372,0,0,0,0.625
0.1275,9.99938101426953,0.111262444095623,0,-0.00970947991642375,0.872610609302067,0,0,0,0.6375
0.13,9.9993565026023,0.113443967953723,0,-0.00989985378659701,0.872608470255575,0,0,0,0.65
0.1325,9.99933151500099,0.11562548641229,0,-0.0100902271855722,0.872606289676,0,0,0,0.6625
0.135,9.99930605146677,0.117806999367492,0,-0.0102806001042881,0.872604067563444,0,0,0,0.675
0.1375,9.99928011200087,0.119988506715497,0,-0.0104709725336837,0.872601803918013,0,0,0,0.6875
0.14,9.99925369660452,0.122170008352472,0,-0.010661344464698,0.872599498739815,0,0,0,0.7
0.1425,9.99922680527897,0.124351504174585,0,-0.0108517158882699,0.87259715202896,0,0,0,0.7125
0.145,9.99919943802551,0.126532994078006,0,-0.0110420867953385,0.872594763785559,0,0,0,0.725
0.1475,9.99917159484543,0.128714477958903,0,-0.0112324571768426,0.872592334009726,0,0,0,0.7375
0.15,9.99914327574007,0.130895955713444,0,-0.0114228270237214,0.872589862701577,0,0,0,0.75
0.1525,9.99911448071077,0.1330774272378,0,-0.011613196326914,0.87258734986123,0,0,0,0.7625
0.155,9.9990852097589,0.13525889242814,0,-0.0118035650773594,0.872584795488803,0,0,0,0.775
0.1575,9.99905546288585,0.137440351180634,0,-0.0119939332659967,0.872582199584419,0,0,0,0.7875
0.16,9.99902524009304,0.139621803391453,0,-0.0121843008837652,0.872579562148201,0,0,0,0.8
0.1625,9.99899454138191,0.141803248956766,0,-0.0123746679216039,0.872576883180274,0,0,0,0.8125
0.165,9.99896336675392,0.143984687772744,0,-0.0125650343704521,0.872574162680766,0,0,0,0.825
0.1675,9.99893171621056,0.14616611973556,0,-0.0127554002212489,0.872571400649808,0,0,0,0.8375
0.17,9.99889958975333,0.148347544741384,0,-0.0129457654649338,0.872568597087529,0,0,0,0.85
0.1725,9.99886698738375,0.150528962686388,0,-0.0131361300924458,0.872565751994064,0,0,0,0.8625
0.175,9.99883390910338,0.152710373466745,0,-0.0133264940947245,0.872562865369547,0,0,0,0.875
0.1775,9.9988003549138,0.154891776978627,0,-0.013516857462709,0.872559937214117,0,0,0,0.8875
0.18,9.99876632481661,0.157073173118207,0,-0.0137072201873388,0.872556967527913,0,0,0,0.9
0.1825,9.99873181881341,0.159254561781658,0,-0.0138975822595533,0.872553956311076,0,0,0,0.9125
0.185,9.99869683690586,0.161435942865153,0,-0.0140879436702919,0.872550903563749,0,0,0,0.925
0.1875,9.99866137909562,0.163617316264868,0,-0.0142783044104941,0.872547809286077,0,0,0,0.9375
0.19,9.99862544538437,0.165798681876975,0,-0.0144686644710994,0.872544673478209,0,0,0,0.95
0.1925,9.99858903577384,0.16798003959765,0,-0.0146590238430473,0.872541496140293,0,0,0,0.9625
0.195,9.99855215026574,0.170161389323069,0,-0.0148493825172774,0.87253827727248,0,0,0,0.975
0.1975,9.99851478886184,0.172342730949405,0,-0.0150397404847292,0.872535016874924,0,0,0,0.9875
0.2,9.99847695156391,0.174524064372835,0,-0.0152300977363425,0.872531714947779,0,0,0,1
0.2025,9.99843863837376,0.176705389489536,0,-0.0154204542630569,0.872528371491204,0,0,0,1.0125
0.205,9.99839984929321,0.178886706195683,0,-0.0156108100558121,0.872524986505357,0,0,0,1.025
0.2075,9.9983605843241,0.181068014387455,0,-0.0158011651055478,0.872521559990398,0,0,0,1.0375
0.21,9.99832084346831,0.183249313961028,0,-0.0159915194032037,0.872518091946493,0,0,0,1.05
0.2125,9.99828062672772,0.18543060481258,0,-0.0161818729397198,0.872514582373804,0,0,0,1.0625
0.215,9.99823993410425,0.18761188683829,0,-0.0163722257060359,0.8725110312725,0,0,0,1.075
0.2175,9.99819876559984,0.189793159934336,0,-0.0165625776930917,0.87250743864275,0,0,0,1.0875
0.22,9.99815712121644,0.191974423996897,0,-0.0167529288918273,0.872503804484724,0,0,0,1.1
0.2225,9.99811500095604,0.194155678922152,0,-0.0169432792931826,0.872500128798595,0,0,0,1.1125
0.225,9.99807240482065,0.196336924606283,0,-0.0171336288880975,0.872496411584539,0,0,0,1.125
0.2275,9.99802933281228,0.198518160945469,0,-0.0173239776675122,0.872492652842731,0,0,0,1.1375
0.23,9.997985784933,0.20069938783589,0,-0.0175143256223667,0.872488852573352,0,0,0,1.15
0.2325,9.99794176118487,0.202880605173729,0,-0.0177046727436011,0.872485010776583,0,0,0,1.1625
0.235,9.99789726156998,0.205061812855167,0,-0.0178950190221555,0.872481127452605,0,0,0,1.175
0.2375,9.99785228609047,0.207243010776386,0,-0.0180853644489702,0.872477202601603,0,0,0,1.1875
0.24,9.99780683474846,0.20942419883357,0,-0.0182757090149853,0.872473236223766,0,0,0,1.2
0.2425,9.99776090754611,0.2116053769229,0,-0.0184660527111411,0.872469228319281,0,0,0,1.2125
0.245,9.99771450448563,0.213786544940561,0,-0.018656395528378,0.872465178888338,0,0,0,1.225
0.2475,9.99766762556921,0.215967702782736,0,-0.0188467374576363,0.872461087931132,0,0,0,1.2375
0.25,9.99762027079909,0.218148850345611,0,-0.0190370784898564,0.872456955447856,0,0,0,1.25
0.2525,9.99757244017752,0.220329987525371,0,-0.0192274186159788,0.872452781438708,0,0,0,1.2625
0.255,9.99752413370677,0.2225111142182,0,-0.0194177578269438,0.872448565903885,0,0,0,1.275
0.2575,9.99747535138915,0.224692230320286,0,-0.0196080961136921,0.872444308843589,0,0,0,1.2875
0.26,9.99742609322698,0.226873335727814,0,-0.0197984334671642,0.872440010258022,0,0,0,1.3
0.2625,9.9973763592226,0.229054430336971,0,-0.0199887698783007,0.872435670147389,0,0,0,1.3125
0.265,9.99732614937838,0.231235514043946,0,-0.0201791053380423,0.872431288511896,0,0,0,1.325
0.2675,9.99727546369671,0.233416586744927,0,-0.0203694398373296,0.872426865351753,0,0,0,1.3375
0.27,9.99722430218,0.235597648336102,0,-0.0205597733671036,0.872422400667168,0,0,0,1.35
0.2725,9.99717266483069,0.237778698713659,0,-0.0207501059183048,0.872417894458356,0,0,0,1.3625
0.275,9.99712055165124,0.23995973777379,0,-0.0209404374818742,0.87241334672553,0,0,0,1.375
0.2775,9.99706796264412,0.242140765412684,0,-0.0211307680487527,0.872408757468906,0,0,0,1.3875
0.28,9.99701489781183,0.244321781526532,0,-0.0213210976098812,0.872404126688705,0,0,0,1.4
0.2825,9.99696135715691,0.246502786011525,0,-0.0215114261562006,0.872399454385145,0,0,0,1.4125
0.285,9.9969073406819,0.248683778763855,0,-0.0217017536786521,0.872394740558448,0,0,0,1.425
0.2875,9.99685284838938,0.250864759679714,0,-0.0218920801681767,0.872389985208841,0,0,0,1.4375
0.29,9.99679788028193,0.253045728655297,0,-0.0220824056157154,0.872385188336548,0,0,0,1.45
0.2925,9.99674243636218,0.255226685586795,0,-0.0222727300122096,0.872380349941798,0,0,0,1.4625
0.295,9.99668651663275,0.257407630370404,0,-0.0224630533486005,0.872375470024822,0,0,0,1.475
0.2975,9.99663012109632,0.259588562902317,0,-0.0226533756158292,0.872370548585852,0,0,0,1.4875
0.3,9.99657324975557,0.261769483078731,0,-0.0228436968048372,0.872365585625121,0,0,0,1.5
0.3025,9.99651590261321,0.263950390795842,0,-0.0230340169065659,0.872360581142866,0,0,0,1.5125
0.305,9.99645807967195,0.266131285949845,0,-0.0232243359119566,0.872355535139326,0,0,0,1.525
0.3075,9.99639978093457,0.268312168436938,0,-0.0234146538119508,0.87235044761474,0,0,0,1.5375
0.31,9.99634100640382,0.270493038153318,0,-0.0236049705974902,0.872345318569351,0,0,0,1.55
0.3125,9.99628175608252,0.272673894995184,0,-0.0237952862595162,0.872340148003403,0,0,0,1.5625
0.315,9.99622202997347,0.274854738858735,0,-0.0239856007889706,0.872334935917142,0,0,0,1.575
0.3175,9.99616182807952,0.27703556964017,0,-0.024175914176795,0.872329682310815,0,0,0,1.5875
0.32,9.99610115040354,0.279216387235689,0,-0.0243662264139312,0.872324387184674,0,0,0,1.6
0.3225,9.99603999694842,0.281397191541493,0,-0.024556537491321,0.872319050538969,0,0,0,1.6125
0.325,9.99597836771706,0.283577982453784,0,-0.0247468473999062,0.872313672373956,0,0,0,1.625
0.3275,9.9959162627124,0.285758759868764,0,-0.0249371561306288,0.87230825268989,0,0,0,1.6375
0.33,9.9958536819374,0.287939523682635,0,-0.0251274636744308,0.872302791487028,0,0,0,1.65
0.3325,9.99579062539503,0.2901202737916,0,-0.0253177700222542,0.872297288765632,0,0,0,1.6625
0.335,9.99572709308829,0.292301010091864,0,-0.025508075165041,0.872291744525962,0,0,0,1.675
0.3375,9.99566308502021,0.294481732479632,0,-0.0256983790937335,0.872286158768283,0,0,0,1.6875
0.34,9.99559860119384,0.296662440851108,0,-0.0258886817992738,0.872280531492861,0,0,0,1.7
0.3425,9.99553364161224,0.298843135102498,0,-0.0260789832726042,0.872274862699963,0,0,0,1.7125
0.345,9.99546820627851,0.30102381513001,0,-0.026269283504667,0.872269152389859,0,0,0,1.725
0.3475,9.99540229519576,0.30320448082985,0,-0.0264595824864045,0.872263400562821,0,0,0,1.7375
0.35,9.99533590836713,0.305385132098227,0,-0.0266498802087594,0.872257607219123,0,0,0,1.75
0.3525,9.99526904579577,0.307565768831349,0,-0.0268401766626739,0.872251772359041,0,0,0,1.7625
0.355,9.99520170748488,0.309746390925425,0,-0.0270304718390908,0.872245895982852,0,0,0,1.775
0.3575,9.99513389343765,0.311926998276666,0,-0.0272207657289525,0.872239978090835,0,0,0,1.7875
0.36,9.99506560365732,0.314107590781283,0,-0.0274110583232019,0.872234018683274,0,0,0,1.8
0.3625,9.99499683814712,0.316288168335487,0,-0.0276013496127816,0.87222801776045,0,0,0,1.8125
0.365,9.99492759691035,0.318468730835489,0,-0.0277916395886344,0.872221975322651,0,0,0,1.825
0.3675,9.99485787995028,0.320649278177504,0,-0.0279819282417033,0.872215891370163,0,0,0,1.8375
0.37,9.99478768727025,0.322829810257745,0,-0.0281722155629311,0.872209765903276,0,0,0,1.85
0.3725,9.99471701887358,0.325010326972425,0,-0.0283625015432608,0.872203598922281,0,0,0,1.8625
0.375,9.99464587476366,0.327190828217761,0,-0.0285527861736355,0.872197390427473,0,0,0,1.875
0.3775,9.99457425494385,0.329371313889968,0,-0.0287430694449984,0.872191140419147,0,0,0,1.8875
0.38,9.99450215941757,0.331551783885263,0,-0.0289333513482926,0.872184848897599,0,0,0,1.9
0.3825,9.99442958818826,0.333732238099862,0,-0.0291236318744613,0.87217851586313,0,0,0,1.9125
0.385,9.99435654125936,0.335912676429985,0,-0.0293139110144479,0.872172141316041,0,0,0,1.925
0.3875,9.99428301863434,0.338093098771849,0,-0.0295041887591958,0.872165725256636,0,0,0,1.9375
0.39,9.99420902031673,0.340273505021674,0,-0.0296944650996484,0.872159267685219,0,0,0,1.95
0.3925,9.99413454631003,0.342453895075682,0,-0.0298847400267492,0.872152768602098,0,0,0,1.9625
0.395,9.99405959661778,0.344634268830092,0,-0.0300750135314419,0.872146228007583,0,0,0,1.975
0.3975,9.99398417124356,0.346814626181127,0,-0.03026528560467,0.872139645901985,0,0,0,1.9875
0.4,9.99390827019096,0.34899496702501,0,-0.0304555562373773,0.872133022285616,0,0,0,2
0.4025,9.99383189346358,0.351175291257963,0,-0.0306458254205076,0.872126357158793,0,0,0,2.0125
0.405,9.99375504106507,0.353355598776212,0,-0.0308360931450047,0.872119650521833,0,0,0,2.025
0.4075,9.99367771299908,0.355535889475981,0,-0.0310263594018126,0.872112902375054,0,0,0,2.0375
0.41,9.99359990926929,0.357716163253496,0,-0.0312166241818753,0.872106112718779,0,0,0,2.05
0.4125,9.99352162987941,0.359896420004984,0,-0.0314068874761368,0.872099281553329,0,0,0,2.0625
0.415,9.99344287483316,0.362076659626672,0,-0.0315971492755412,0.872092408879031,0,0,0,2.075
0.4175,9.99336364413428,0.364256882014788,0,-0.0317874095710329,0.872085494696211,0,0,0,2.0875
0.42,9.99328393778656,0.366437087065563,0,-0.031977668353556,0.872078539005198,0,0,0,2.1
0.4225,9.99320375579378,0.368617274675225,0,-0.0321679256140549,0.872071541806325,0,0,0,2.1125
0.425,9.99312309815977,0.370797444740005,0,-0.0323581813434741,0.872064503099922,0,0,0,2.125
0.4275,9.99304196488835,0.372977597156135,0,-0.032548435532758,0.872057422886326,0,0,0,2.1375
0.43,9.9929603559834,0.375157731819847,0,-0.0327386881728512,0.872050301165874,0,0,0,2.15
0.4325,9.99287827144878,0.377337848627375,0,-0.0329289392546983,0.872043137938905,0,0,0,2.1625
0.435,9.99279571128843,0.379517947474953,0,-0.0331191887692442,0.872035933205759,0,0,0,2.175
0.4375,9.99271267550625,0.381698028258816,0,-0.0333094367074335,0.872028686966779,0,0,0,2.1875
0.44,9.99262916410621,0.383878090875199,0,-0.0334996830602112,0.872021399222311,0,0,0,2.2
0.4425,9.99254517709228,0.38605813522034,0,-0.0336899278185221,0.872014069972701,0,0,0,2.2125
0.445,9.99246071446846,0.388238161190476,0,-0.0338801709733113,0.872006699218298,0,0,0,2.225
0.4475,9.99237577623876,0.390418168681844,0,-0.034070412515524,0.871999286959453,0,0,0,2.2375
0.45,9.99229036240723,0.392598157590686,0,-0.0342606524361052,0.871991833196518,0,0,0,2.25
0.4525,9.99220447297794,0.394778127813241,0,-0.0344508907260003,0.871984337929849,0,0,0,2.2625
0.455,9.99211810795497,0.396958079245749,0,-0.0346411273761545,0.871976801159802,0,0,0,2.275
0.4575,9.99203126734243,0.399138011784454,0,-0.0348313623775132,0.871969222886736,0,0,0,2.2875
0.46,9.99194395114446,0.401317925325597,0,-0.0350215957210221,0.871961603111011,0,0,0,2.3
0.4625,9.99185615936521,0.403497819765424,0,-0.0352118273976265,0.871953941832991,0,0,0,2.3125
0.465,9.99176789200887,0.405677695000177,0,-0.0354020573982722,0.87194623905304,0,0,0,2.325
0.4675,9.99167914907963,0.407857550926104,0,-0.0355922857139048,0.871938494771524,0,0,0,2.3375
0.47,9.99158993058171,0.410037387439451,0,-0.0357825123354703,0.871930708988813,0,0,0,2.35
0.4725,9.99150023651937,0.412217204436464,0,-0.0359727372539144,0.871922881705276,0,0,0,2.3625
0.475,9.99141006689687,0.414397001813393,0,-0.0361629604601831,0.871915012921286,0,0,0,2.375
0.4775,9.9913194217185,0.416576779466487,0,-0.0363531819452225,0.871907102637218,0,0,0,2.3875
0.48,9.99122830098858,0.418756537291996,0,-0.0365434016999788,0.871899150853449,0,0,0,2.4
0.4825,9.99113670471145,0.420936275186172,0,-0.036733619715398,0.871891157570356,0,0,0,2.4125
0.485,9.99104463289146,0.423115993045266,0,-0.0369238359824266,0.871883122788321,0,0,0,2.425
0.4875,9.990952085533,0.425295690765531,0,-0.0371140504920108,0.871875046507725,0,0,0,2.4375
0.49,9.99085906264048,0.427475368243222,0,-0.0373042632350972,0.871866928728954,0,0,0,2.45
0.4925,9.99076556421831,0.429655025374594,0,-0.0374944742026323,0.871858769452392,0,0,0,2.4625
0.495,9.99067159027095,0.431834662055903,0,-0.0376846833855627,0.87185056867843,0,0,0,2.475
0.4975,9.99057714080287,0.434014278183406,0,-0.0378748907748351,0.871842326407456,0,0,0,2.4875
0.5,9.99048221581858,0.43619387365336,0,-0.0380650963613964,0.871834042639865,0,0,0,2.5
0.5025,9.99038681532258,0.438373448362025,0,-0.0382553001361934,0.871825717376048,0,0,0,2.5125
0.505,9.99029093931941,0.44055300220566,0,-0.0384455020901731,0.871817350616404,0,0,0,2.525
0.5075,9.99019458781365,0.442732535080527,0,-0.0386357022142825,0.87180894236133,0,0,0,2.5375
0.51,9.99009776080987,0.444912046882888,0,-0.0388259004994688,0.871800492611226,0,0,0,2.55
0.5125,9.99000045831269,0.447091537509005,0,-0.0390160969366793,0.871792001366495,0,0,0,2.5625
0.515,9.98990268032674,0.449271006855142,0,-0.0392062915168612,0.871783468627541,0,0,0,2.575
0.5175,9.98980442685667,0.451450454817564,0,-0.039396484230962,0.871774894394769,0,0,0,2.5875
0.52,9.98970569790715,0.453629881292538,0,-0.0395866750699291,0.871766278668589,0,0,0,2.6
0.5225,9.98960649348288,0.45580928617633,0,-0.0397768640247101,0.871757621449409,0,0,0,2.6125
0.525,9.9895068135886,0.457988669365208,0,-0.0399670510862528,0.871748922737643,0,0,0,2.625
0.5275,9.98940665822904,0.460168030755441,0,-0.0401572362455049,0.871740182533703,0,0,0,2.6375
0.53,9.98930602740897,0.4623473702433,0,-0.0403474194934142,0.871731400838007,0,0,0,2.65
0.5325,9.98920492113317,0.464526687725055,0,-0.0405376008209287,0.871722577650972,0,0,0,2.6625
0.535,9.98910333940647,0.466705983096979,0,-0.0407277802189964,0.871713712973018,0,0,0,2.675
0.5375,9.98900128223369,0.468885256255345,0,-0.0409179576785655,0.871704806804567,0,0,0,2.6875
0.54,9.9888987496197,0.471064507096427,0,-0.0411081331905842,0.871695859146042,0,0,0,2.7
0.5425,9.98879574156937,0.4732437355165,0,-0.0412983067460008,0.871686869997871,0,0,0,2.7125
0.545,9.98869225808761,0.475422941411842,0,-0.0414884783357637,0.87167783936048,0,0,0,2.725
0.5475,9.98858829917934,0.477602124678728,0,-0.0416786479508214,0.871668767234299,0,0,0,2.7375
0.55,9.98848386484951,0.479781285213439,0,-0.0418688155821225,0.871659653619761,0,0,0,2.75
0.5525,9.98837895510309,0.481960422912254,0,-0.0420589812206158,0.871650498517299,0,0,0,2.7625
0.555,9.98827356994507,0.484139537671453,0,-0.0422491448572499,0.871641301927348,0,0,0,2.775
0.5575,9.98816770938048,0.486318629387318,0,-0.0424393064829738,0.871632063850347,0,0,0,2.7875
0.56,9.98806137341434,0.488497697956133,0,-0.0426294660887364,0.871622784286735,0,0,0,2.8
0.5625,9.98795456205172,0.49067674327418,0,-0.0428196236654869,0.871613463236954,0,0,0,2.8125
0.565,9.98784727529771,0.492855765237746,0,-0.0430097792041744,0.871604100701448,0,0,0,2.825
0.5675,9.98773951315741,0.495034763743116,0,-0.0431999326957481,0.871594696680661,0,0,0,2.8375
0.57,9.98763127563595,0.497213738686579,0,-0.0433900841311575,0.871585251175043,0,0,0,2.85
0.5725,9.98752256273847,0.499392689964421,0,-0.043580233501352,0.871575764185042,0,0,0,2.8625
0.575,9.98741337447017,0.501571617472934,0,-0.0437703807972811,0.871566235711109,0,0,0,2.875
0.5775,9.98730371083622,0.503750521108407,0,-0.0439605260098945,0.871556665753699,0,0,0,2.8875
0.58,9.98719357184186,0.505929400767133,0,-0.044150669130142,0.871547054313267,0,0,0,2.9
0.5825,9.98708295749232,0.508108256345405,0,-0.0443408101489734,0.87153740139027,0,0,0,2.9125
0.585,9.98697186779287,0.510287087739516,0,-0.0445309490573387,0.871527706985168,0,0,0,2.925
0.5875,9.9868603027488,0.512465894845763,0,-0.044721085846188,0.871517971098422,0,0,0,2.9375
0.59,9.98674826236542,0.514644677560441,0,-0.0449112205064713,0.871508193730495,0,0,0,2.95
0.5925,9.98663574664805,0.516823435779848,0,-0.0451013530291391,0.871498374881854,0,0,0,2.9625
0.595,9.98652275560206,0.519002169400283,0,-0.0452914834051415,0.871488514552965,0,0,0,2.975
0.5975,9.98640928923282,0.521180878318046,0,-0.0454816116254292,0.871478612744297,0,0,0,2.9875
0.6,9.98629534754574,0.523359562429438,0,-0.0456717376809526,0.871468669456323,0,0,0,3
0.6025,9.98618093054623,0.525538221630762,0,-0.0458618615626624,0.871458684689514,0,0,0,3.0125
0.605,9.98606603823974,0.527716855818321,0,-0.0460519832615094,0.871448658444348,0,0,0,3.025
0.6075,9.98595067063175,0.529895464888419,0,-0.0462421027684446,0.871438590721299,0,0,0,3.0375
0.61,9.98583482772774,0.532074048737363,0,-0.0464322200744188,0.871428481520849,0,0,0,3.05
0.6125,9.98571850953322,0.534252607261459,0,-0.0466223351703831,0.871418330843477,0,0,0,3.0625
0.615,9.98560171605373,0.536431140357016,0,-0.0468124480472888,0.871408138689668,0,0,0,3.075
0.6175,9.98548444729484,0.538609647920344,0,-0.0470025586960872,0.871397905059906,0,0,0,3.0875
0.62,9.98536670326212,0.540788129847753,0,-0.0471926671077295,0.871387629954678,0,0,0,3.1
0.6225,9.98524848396117,0.542966586035555,0,-0.0473827732731675,0.871377313374473,0,0,0,3.1125
0.625,9.98512978939763,0.545145016380063,0,-0.0475728771833526,0.871366955319783,0,0,0,3.125
0.6275,9.98501061957714,0.547323420777592,0,-0.0477629788292366,0.871356555791101,0,0,0,3.1375
0.63,9.98489097450538,0.549501799124458,0,-0.0479530782017714,0.87134611478892,0,0,0,3.15
0.6325,9.98477085418804,0.551680151316976,0,-0.0481431752919088,0.871335632313739,0,0,0,3.1625
0.635,9.98465025863083,0.553858477251466,0,-0.048333270090601,0.871325108366057,0,0,0,3.175
0.6375,9.9845291878395,0.556036776824246,0,-0.0485233625888,0.871314542946373,0,0,0,3.1875
0.64,9.98440764181981,0.558215049931638,0,-0.0487134527774582,0.871303936055192,0,0,0,3.2
0.6425,9.98428562057754,0.560393296469963,0,-0.0489035406475279,0.871293287693017,0,0,0,3.2125
0.645,9.98416312411851,0.562571516335544,0,-0.0490936261899616,0.871282597860357,0,0,0,3.225
0.6475,9.98404015244854,0.564749709424706,0,-0.0492837093957119,0.871271866557718,0,0,0,3.2375
0.65,9.98391670557349,0.566927875633775,0,-0.0494737902557316,0.871261093785613,0,0,0,3.25
0.6525,9.98379278349923,0.569106014859077,0,-0.0496638687609733,0.871250279544554,0,0,0,3.2625
0.655,9.98366838623165,0.571284126996941,0,-0.0498539449023902,0.871239423835056,0,0,0,3.275
0.6575,9.98354351377669,0.573462211943696,0,-0.0500440186709352,0.871228526657636,0,0,0,3.2875
0.66,9.98341816614028,0.575640269595673,0,-0.0502340900575615,0.871217588012811,0,0,0,3.3
0.6625,9.9832923433284,0.577818299849204,0,-0.0504241590532223,0.871206607901103,0,0,0,3.3125
0.665,9.98316604534702,0.579996302600623,0,-0.0506142256488711,0.871195586323035,0,0,0,3.325
0.6675,9.98303927220216,0.582174277746264,0,-0.0508042898354613,0.871184523279131,0,0,0,3.3375
0.67,9.98291202389986,0.584352225182464,0,-0.0509943516039466,0.871173418769917,0,0,0,3.35
0.6725,9.98278430044616,0.58653014480556,0,-0.0511844109452807,0.871162272795922,0,0,0,3.3625
0.675,9.98265610184716,0.58870803651189,0,-0.0513744678504174,0.871151085357677,0,0,0,3.375
0.6775,9.98252742810895,0.590885900197795,0,-0.0515645223103107,0.871139856455713,0,0,0,3.3875
0.68,9.98239827923765,0.593063735759616,0,-0.0517545743159147,0.871128586090567,0,0,0,3.4
0.6825,9.98226865523942,0.595241543093696,0,-0.0519446238581835,0.871117274262773,0,0,0,3.4125
0.685,9.98213855612042,0.597419322096378,0,-0.0521346709280716,0.871105920972871,0,0,0,3.425
0.6875,9.98200798188685,0.599597072664009,0,-0.0523247155165332,0.8710945262214,0,0,0,3.4375
0.69,9.98187693254492,0.601774794692934,0,-0.052514757614523,0.871083090008903,0,0,0,3.45
0.6925,9.98174540810086,0.603952488079503,0,-0.0527047972129957,0.871071612335925,0,0,0,3.4625
0.695,9.98161340856094,0.606130152720064,0,-0.0528948343029059,0.871060093203012,0,0,0,3.475
0.6975,9.98148093393144,0.608307788510969,0,-0.0530848688752087,0.871048532610711,0,0,0,3.4875
0.7,9.98134798421867,0.610485395348569,0,-0.053274900920859,0.871036930559574,0,0,0,3.5
0.7025,9.98121455942895,0.612662973129218,0,-0.053464930430812,0.871025287050152,0,0,0,3.5125
0.705,9.98108065956864,0.614840521749271,0,-0.053654957396023,0.871013602083,0,0,0,3.525
0.7075,9.9809462846441,0.617018041105085,0,-0.0538449818074472,0.871001875658673,0,0,0,3.5375
0.71,9.98081143466174,0.619195531093018,0,-0.0540350036560404,0.870990107777731,0,0,0,3.55
0.7125,9.98067610962796,0.621372991609427,0,-0.054225022932758,0.870978298440732,0,0,0,3.5625
0.715,9.98054030954922,0.623550422550675,0,-0.0544150396285559,0.87096644764824,0,0,0,3.575
0.7175,9.98040403443198,0.625727823813123,0,-0.0546050537343898,0.870954555400818,0,0,0,3.5875
0.72,9.98026728428272,0.627905195293134,0,-0.0547950652412159,0.870942621699032,0,0,0,3.6
0.7225,9.98013005910794,0.630082536887073,0,-0.0549850741399902,0.87093064654345,0,0,0,3.6125
0.725,9.9799923589142,0.632259848491307,0,-0.055175080421669,0.870918629934642,0,0,0,3.625
0.7275,9.97985418370802,0.634437130002202,0,-0.0553650840772087,0.87090657187318,0,0,0,3.6375
0.73,9.97971553349601,0.636614381316129,0,-0.0555550850975656,0.870894472359639,0,0,0,3.65
0.7325,9.97957640828474,0.638791602329458,0,-0.0557450834736966,0.870882331394593,0,0,0,3.6625
0.735,9.97943680808085,0.64096879293856,0,-0.0559350791965582,0.870870148978621,0,0,0,3.675
0.7375,9.97929673289098,0.643145953039809,0,-0.0561250722571075,0.870857925112303,0,0,0,3.6875
0.74,9.97915618272179,0.64532308252958,0,-0.0563150626463013,0.870845659796221,0,0,0,3.7
0.7425,9.97901515757998,0.647500181304249,0,-0.0565050503550969,0.870833353030957,0,0,0,3.7125
0.745,9.97887365747226,0.649677249260194,0,-0.0566950353744514,0.870821004817099,0,0,0,3.725
0.7475,9.97873168240536,0.651854286293794,0,-0.0568850176953223,0.870808615155233,0,0,0,3.7375
0.75,9.97858923238604,0.654031292301431,0,-0.057074997308667,0.870796184045949,0,0,0,3.75
0.7525,9.97844630742108,0.656208267179485,0,-0.0572649742054433,0.87078371148984,0,0,0,3.7625
0.755,9.97830290751728,0.658385210824341,0,-0.0574549483766088,0.870771197487499,0,0,0,3.775
0.7575,9.97815903268147,0.660562123132385,0,-0.0576449198131216,0.870758642039521,0,0,0,3.7875
0.76,9.9780146829205,0.662739004000001,0,-0.0578348885059395,0.870746045146504,0,0,0,3.8
0.7625,9.97786985824123,0.66491585332358,0,-0.0580248544460208,0.870733406809047,0,0,0,3.8125
0.765,9.97772455865057,0.66709267099951,0,-0.0582148176243237,0.870720727027753,0,0,0,3.825
0.7675,9.97757878415542,0.669269456924183,0,-0.0584047780318068,0.870708005803224,0,0,0,3.8375
0.77,9.97743253476273,0.671446210993991,0,-0.0585947356594284,0.870695243136066,0,0,0,3.85
0.7725,9.97728581047945,0.673622933105328,0,-0.0587846904981474,0.870682439026887,0,0,0,3.8625
0.775,9.97713861131257,0.675799623154591,0,-0.0589746425389226,0.870669593476295,0,0,0,3.875
0.7775,9.9769909372691,0.677976281038176,0,-0.0591645917727128,0.870656706484904,0,0,0,3.8875
0.78,9.97684278835605,0.680152906652482,0,-0.0593545381904772,0.870643778053324,0,0,0,3.9
0.7825,9.9766941645805,0.682329499893909,0,-0.0595444817831751,0.870630808182174,0,0,0,3.9125
0.785,9.9765450659495,0.68450606065886,0,-0.0597344225417657,0.870617796872068,0,0,0,3.925
0.7875,9.97639549247016,0.686682588843738,0,-0.0599243604572085,0.870604744123627,0,0,0,3.9375
0.79,9.97624544414959,0.688859084344947,0,-0.0601142955204632,0.870591649937472,0,0,0,3.95
0.7925,9.97609492099494,0.691035547058894,0,-0.0603042277224896,0.870578514314226,0,0,0,3.9625
0.795,9.97594392301337,0.693211976881988,0,-0.0604941570542475,0.870565337254515,0,0,0,3.975
0.7975,9.97579245021207,0.695388373710637,0,-0.0606840835066969,0.870552118758965,0,0,0,3.9875
0.8,9.97564050259824,0.697564737441253,0,-0.0608740070707982,0.870538858828206,0,0,0,4
0.8025,9.97548808017913,0.699741067970249,0,-0.0610639277375114,0.870525557462869,0,0,0,4.0125
0.805,9.97533518296198,0.701917365194039,0,-0.0612538454977971,0.870512214663587,0,0,0,4.025
0.8075,9.97518181095407,0.704093629009039,0,-0.061443760342616,0.870498830430995,0,0,0,4.0375
0.81,9.9750279641627,0.706269859311667,0,-0.0616336722629286,0.87048540476573,0,0,0,4.05
0.8125,9.9748736425952,0.708446055998341,0,-0.0618235812496959,0.870471937668431,0,0,0,4.0625
0.815,9.9747188462589,0.710622218965483,0,-0.0620134872938788,0.87045842913974,0,0,0,4.075
0.8175,9.97456357516119,0.712798348109514,0,-0.0622033903864386,0.870444879180298,0,0,0,4.0875
0.82,9.97440782930944,0.714974443326859,0,-0.0623932905183365,0.870431287790751,0,0,0,4.1
0.8225,9.97425160871107,0.717150504513943,0,-0.0625831876805338,0.870417654971747,0,0,0,4.1125
0.825,9.97409491337352,0.719326531567194,0,-0.0627730818639923,0.870403980723933,0,0,0,4.125
0.8275,9.97393774330424,0.72150252438304,0,-0.0629629730596735,0.87039026504796,0,0,0,4.1375
0.83,9.97378009851072,0.723678482857911,0,-0.0631528612585394,0.870376507944482,0,0,0,4.15
0.8325,9.97362197900045,0.72585440688824,0,-0.063342746451552,0.870362709414153,0,0,0,4.1625
0.835,9.97346338478097,0.72803029637046,0,-0.0635326286296732,0.87034886945763,0,0,0,4.175
0.8375,9.97330431585983,0.730206151201007,0,-0.0637225077838656,0.870334988075572,0,0,0,4.1875
0.84,9.97314477224458,0.732381971276317,0,-0.0639123839050913,0.87032106526864,0,0,0,4.2
0.8425,9.97298475394284,0.73455775649283,0,-0.0641022569843132,0.870307101037495,0,0,0,4.2125
0.845,9.9728242609622,0.736733506746985,0,-0.0642921270124937,0.870293095382803,0,0,0,4.225
0.8475,9.97266329331032,0.738909221935225,0,-0.0644819939805959,0.870279048305231,0,0,0,4.2375
0.85,9.97250185099486,0.741084901953992,0,-0.0646718578795826,0.870264959805446,0,0,0,4.25
0.8525,9.97233993402349,0.743260546699734,0,-0.0648617187004171,0.87025082988412,0,0,0,4.2625
0.855,9.97217754240393,0.745436156068895,0,-0.0650515764340627,0.870236658541925,0,0,0,4.275
0.8575,9.9720146761439,0.747611729957927,0,-0.0652414310714827,0.870222445779535,0,0,0,4.2875
0.86,9.97185133525116,0.749787268263277,0,-0.0654312826036408,0.870208191597628,0,0,0,4.3
0.8625,9.97168751973348,0.751962770881399,0,-0.0656211310215008,0.870193895996881,0,0,0,4.3125
0.865,9.97152322959865,0.754138237708746,0,-0.0658109763160264,0.870179558977975,0,0,0,4.325
0.8675,9.97135846485451,0.756313668641774,0,-0.0660008184781818,0.870165180541592,0,0,0,4.3375
0.87,9.97119322550888,0.75848906357694,0,-0.066190657498931,0.870150760688417,0,0,0,4.35
0.8725,9.97102751156964,0.760664422410703,0,-0.0663804933692385,0.870136299419136,0,0,0,4.3625
0.875,9.97086132304467,0.762839745039523,0,-0.0665703260800688,0.870121796734437,0,0,0,4.375
0.8775,9.97069465994188,0.765015031359863,0,-0.0667601556223864,0.870107252635011,0,0,0,4.3875
0.88,9.9705275222692,0.767190281268186,0,-0.0669499819871561,0.870092667121549,0,0,0,4.4
0.8825,9.9703599100346,0.769365494660959,0,-0.067139805165343,0.870078040194747,0,0,0,4.4125
0.885,9.97019182324604,0.77154067143465,0,-0.067329625147912,0.870063371855299,0,0,0,4.425
0.8875,9.97002326191153,0.773715811485726,0,-0.0675194419258284,0.870048662103906,0,0,0,4.4375
0.89,9.96985422603909,0.77589091471066,0,-0.0677092554900576,0.870033910941265,0,0,0,4.45
0.8925,9.96968471563676,0.778065981005924,0,-0.0678990658315651,0.870019118368081,0,0,0,4.4625
0.895,9.96951473071262,0.780241010267992,0,-0.0680888729413167,0.870004284385056,0,0,0,4.475
0.8975,9.96934427127476,0.782416002393341,0,-0.0682786768102782,0.869989408992896,0,0,0,4.4875
0.9,9.96917333733128,0.784590957278449,0,-0.0684684774294156,0.869974492192311,0,0,0,4.5
0.9025,9.96900192889033,0.786765874819796,0,-0.068658274789695,0.869959533984009,0,0,0,4.5125
0.905,9.96883004596005,0.788940754913864,0,-0.0688480688820828,0.869944534368703,0,0,0,4.525
0.9075,9.96865768854865,0.791115597457135,0,-0.0690378596975454,0.869929493347107,0,0,0,4.5375
0.91,9.9684848566643,0.793290402346094,0,-0.0692276472270495,0.869914410919936,0,0,0,4.55
0.9125,9.96831155031526,0.79546516947723,0,-0.0694174314615618,0.869899287087908,0,0,0,4.5625
0.915,9.96813776950975,0.797639898747031,0,-0.0696072123920494,0.869884121851744,0,0,0,4.575
0.9175,9.96796351425606,0.799814590051986,0,-0.0697969900094792,0.869868915212165,0,0,0,4.5875
0.92,9.96778878456247,0.801989243288589,0,-0.0699867643048186,0.869853667169894,0,0,0,4.6
0.9225,9.96761358043731,0.804163858353334,0,-0.0701765352690349,0.869838377725658,0,0,0,4.6125
0.925,9.96743790188891,0.806338435142717,0,-0.0703663028930958,0.869823046880185,0,0,0,4.625
0.9275,9.96726174892563,0.808512973553235,0,-0.0705560671679689,0.869807674634204,0,0,0,4.6375
0.93,9.96708512155587,0.810687473481388,0,-0.0707458280846222,0.869792260988446,0,0,0,4.65
0.9325,9.96690801978802,0.812861934823678,0,-0.0709355856340236,0.869776805943645,0,0,0,4.6625
0.935,9.96673044363051,0.815036357476607,0,-0.0711253398071415,0.869761309500538,0,0,0,4.675
0.9375,9.9665523930918,0.817210741336682,0,-0.0713150905949441,0.869745771659861,0,0,0,4.6875
0.94,9.96637386818037,0.819385086300409,0,-0.0715048379884001,0.869730192422353,0,0,0,4.7
0.9425,9.9661948689047,0.821559392264297,0,-0.0716945819784781,0.869714571788758,0,0,0,4.7125
0.945,9.96601539527332,0.823733659124857,0,-0.0718843225561469,0.869698909759818,0,0,0,4.725
0.9475,9.96583544729477,0.825907886778601,0,-0.0720740597123756,0.869683206336277,0,0,0,4.7375
0.95,9.96565502497761,0.828082075122043,0,-0.0722637934381334,0.869667461518886,0,0,0,4.75
0.9525,9.96547412833044,0.830256224051701,0,-0.0724535237243896,0.869651675308391,0,0,0,4.7625
0.955,9.96529275736187,0.832430333464092,0,-0.0726432505621137,0.869635847705545,0,0,0,4.775
0.9575,9.96511091208051,0.834604403255736,0,-0.0728329739422754,0.869619978711101,0,0,0,4.7875
0.96,9.96492859249504,0.836778433323155,0,-0.0730226938558444,0.869604068325814,0,0,0,4.8
0.9625,9.96474579861413,0.838952423562873,0,-0.073212410293791,0.869588116550442,0,0,0,4.8125
0.965,9.96456253044648,0.841126373871416,0,-0.073402123247085,0.869572123385744,0,0,0,4.825
0.9675,9.96437878800081,0.843300284145311,0,-0.0735918327066971,0.869556088832481,0,0,0,4.8375
0.97,9.96419457128586,0.845474154281089,0,-0.0737815386635975,0.869540012891416,0,0,0,4.85
0.9725,9.96400988031042,0.847647984175279,0,-0.0739712411087571,0.869523895563314,0,0,0,4.8625
0.975,9.96382471508325,0.849821773724416,0,-0.0741609400331465,0.869507736848943,0,0,0,4.875
0.9775,9.96363907561319,0.851995522825036,0,-0.0743506354277369,0.869491536749072,0,0,0,4.8875
0.98,9.96345296190906,0.854169231373675,0,-0.0745403272834993,0.869475295264472,0,0,0,4.9
0.9825,9.96326637397973,0.856342899266872,0,-0.0747300155914052,0.869459012395915,0,0,0,4.9125
0.985,9.96307931183407,0.858516526401168,0,-0.0749197003424261,0.869442688144177,0,0,0,4.925
0.9875,9.96289177548099,0.860690112673107,0,-0.0751093815275335,0.869426322510035,0,0,0,4.9375
0.99,9.96270376492941,0.862863657979234,0,-0.0752990591376994,0.869409915494267,0,0,0,4.95
0.9925,9.96251528018829,0.865037162216095,0,-0.0754887331638957,0.869393467097655,0,0,0,4.9625
0.995,9.96232632126659,0.867210625280239,0,-0.0756784035970947,0.869376977320982,0,0,0,4.975
0.9975,9.9621368881733,0.869384047068217,0,-0.0758680704282687,0.869360446165031,0,0,0,4.9875
1,9.96194698091746,0.871557427476582,0,-0.0760577336483902,0.869343873630592,0,0,0,5
1.0025,9.96175659950808,0.873730766401888,0,-0.076247393248432,0.869327259718451,0,0,0,5.0125
1.005,9.96156574395424,0.875904063740693,0,-0.0764370492193669,0.869310604429399,0,0,0,5.025
1.0075,9.96137441426501,0.878077319389555,0,-0.0766267015521679,0.86929390776423,0,0,0,5.0375
1.01,9.96118261044952,0.880250533245035,0,-0.0768163502378083,0.869277169723739,0,0,0,5.05
1.0125,9.96099033251687,0.882423705203695,0,-0.0770059952672615,0.869260390308721,0,0,0,5.0625
1.015,9.96079758047623,0.884596835162101,0,-0.077195636631501,0.869243569519976,0,0,0,5.075
1.0175,9.96060435433678,0.886769923016818,0,-0.0773852743215006,0.869226707358303,0,0,0,5.0875
1.02,9.9604106541077,0.888942968664415,0,-0.0775749083282341,0.869209803824507,0,0,0,5.1
1.0225,9.96021647979821,0.891115972001464,0,-0.0777645386426758,0.86919285891939,0,0,0,5.1125
1.025,9.96002183141757,0.893288932924536,0,-0.0779541652557997,0.869175872643761,0,0,0,5.125
1.0275,9.95982670897502,0.895461851330208,0,-0.0781437881585805,0.869158844998426,0,0,0,5.1375
1.03,9.95963111247987,0.897634727115055,0,-0.0783334073419926,0.869141775984197,0,0,0,5.15
1.0325,9.95943504194142,0.899807560175656,0,-0.078523022797011,0.869124665601887,0,0,0,5.1625
1.035,9.959238497369,0.901980350408591,0,-0.0787126345146105,0.869107513852309,0,0,0,5.175
1.0375,9.95904147877197,0.904153097710445,0,-0.0789022424857664,0.869090320736279,0,0,0,5.1875
1.04,9.9588439861597,0.906325801977802,0,-0.0790918467014539,0.869073086254617,0,0,0,5.2
1.0425,9.9586460195416,0.908498463107247,0,-0.0792814471526485,0.869055810408142,0,0,0,5.2125
1.045,9.95844757892709,0.910671080995372,0,-0.079471043830326,0.869038493197678,0,0,0,5.225
1.0475,9.9582486643256,0.912843655538767,0,-0.0796606367254622,0.869021134624047,0,0,0,5.2375
1.05,9.95804927574662,0.915016186634024,0,-0.0798502258290332,0.869003734688076,0,0,0,5.25
1.0525,9.95784941319962,0.917188674177739,0,-0.0800398111320152,0.868986293390594,0,0,0,5.2625
1.055,9.95764907669413,0.919361118066509,0,-0.0802293926253846,0.86896881073243,0,0,0,5.275
1.0575,9.95744826623968,0.921533518196935,0,-0.080418970300118,0.868951286714417,0,0,0,5.2875
1.06,9.95724698184582,0.923705874465616,0,-0.0806085441471921,0.868933721337388,0,0,0,5.3
1.0625,9.95704522352214,0.925878186769156,0,-0.0807981141575839,0.86891611460218,0,0,0,5.3125
1.065,9.95684299127824,0.928050455004162,0,-0.0809876803222706,0.868898466509631,0,0,0,5.325
1.0675,9.95664028512374,0.930222679067241,0,-0.0811772426322294,0.868880777060581,0,0,0,5.3375
1.07,9.9564371050683,0.932394858855002,0,-0.081366801078438,0.868863046255872,0,0,0,5.35
1.0725,9.95623345112157,0.934566994264058,0,-0.0815563556518738,0.868845274096347,0,0,0,5.3625
1.075,9.95602932329327,0.936739085191022,0,-0.081745906343515,0.868827460582853,0,0,0,5.375
1.0775,9.9558247215931,0.938911131532511,0,-0.0819354531443394,0.868809605716237,0,0,0,5.3875
1.08,9.9556196460308,0.941083133185143,0,-0.0821249960453253,0.868791709497349,0,0,0,5.4
1.0825,9.95541409661613,0.943255090045538,0,-0.0823145350374512,0.868773771927042,0,0,0,5.4125
1.085,9.95520807335888,0.945427002010319,0,-0.0825040701116956,0.868755793006168,0,0,0,5.425
1.0875,9.95500157626885,0.947598868976111,0,-0.0826936012590374,0.868737772735584,0,0,0,5.4375
1.09,9.95479460535586,0.94977069083954,0,-0.0828831284704556,0.868719711116147,0,0,0,5.45
1.0925,9.95458716062978,0.951942467497235,0,-0.0830726517369293,0.868701608148717,0,0,0,5.4625
1.095,9.95437924210047,0.954114198845828,0,-0.0832621710494379,0.868683463834155,0,0,0,5.475
1.0975,9.95417084977784,0.956285884781951,0,-0.0834516863989609,0.868665278173326,0,0,0,5.4875
1.1,9.95396198367179,0.95845752520224,0,-0.0836411977764781,0.868647051167094,0,0,0,5.5
1.1025,9.95375264379227,0.960629120003332,0,-0.0838307051729694,0.868628782816327,0,0,0,5.5125
1.105,9.95354283014925,0.962800669081868,0,-0.0840202085794149,0.868610473121895,0,0,0,5.525
1.1075,9.95333254275271,0.96497217233449,0,-0.0842097079867949,0.86859212208467,0,0,0,5.5375
1.11,9.95312178161265,0.96714362965784,0,-0.08439920338609,0.868573729705524,0,0,0,5.55
1.1125,9.95291054673912,0.969315040948566,0,-0.0845886947682807,0.868555295985333,0,0,0,5.5625
1.115,9.95269883814217,0.971486406103317,0,-0.0847781821243481,0.868536820924975,0,0,0,5.575
1.1175,9.95248665583187,0.973657725018742,0,-0.0849676654452731,0.868518304525329,0,0,0,5.5875
1.12,9.95227399981831,0.975828997591495,0,-0.085157144722037,0.868499746787275,0,0,0,5.6
1.1225,9.95206087011163,0.97800022371823,0,-0.0853466199456213,0.868481147711699,0,0,0,5.6125
1.125,9.95184726672197,0.980171403295606,0,-0.0855360911070076,0.868462507299483,0,0,0,5.625
1.1275,9.95163318965949,0.982342536220281,0,-0.0857255581971778,0.868443825551517,0,0,0,5.6375
1.13,9.95141863893438,0.984513622388918,0,-0.0859150212071139,0.868425102468689,0,0,0,5.65
1.1325,9.95120361455686,0.98668466169818,0,-0.0861044801277981,0.86840633805189,0,0,0,5.6625
1.135,9.95098811653716,0.988855654044733,0,-0.0862939349502129,0.868387532302013,0,0,0,5.675
1.1375,9.95077214488553,0.991026599325246,0,-0.0864833856653408,0.868368685219954,0,0,0,5.6875
1.14,9.95055569961226,0.99319749743639,0,-0.0866728322641648,0.868349796806609,0,0,0,5.7
1.1425,9.95033878072765,0.995368348274837,0,-0.0868622747376677,0.868330867062878,0,0,0,5.7125
1.145,9.95012138824202,0.997539151737263,0,-0.0870517130768328,0.868311895989661,0,0,0,5.725
1.1475,9.94990352216572,0.999709907720345,0,-0.0872411472726435,0.868292883587862,0,0,0,5.7375
1.15,9.94968518250912,1.00188061612076,0,-0.0874305773160835,0.868273829858385,0,0,0,5.75
1.1525,9.94946636928261,1.0040512768352,0,-0.0876200031981364,0.868254734802137,0,0,0,5.7625
1.155,9.9492470824966,1.00622188976034,0,-0.0878094249097863,0.868235598420028,0,0,0,5.775
1.1575,9.94902732216154,1.00839245479286,0,-0.0879988424420175,0.868216420712967,0,0,0,5.7875
1.16,9.94880708828788,1.01056297182946,0,-0.0881882557858142,0.868197201681869,0,0,0,5.8
1.1625,9.94858638088611,1.01273344076683,0,-0.0883776649321611,0.868177941327646,0,0,0,5.8125
1.165,9.94836519996673,1.01490386150167,0,-0.088567069872043,0.868158639651217,0,0,0,5.825
1.1675,9.94814354554026,1.01707423393066,0,-0.0887564705964449,0.8681392966535,0,0,0,5.8375
1.17,9.94792141761726,1.0192445579505,0,-0.0889458670963519,0.868119912335416,0,0,0,5.85
1.1725,9.94769881620831,1.0214148334579,0,-0.0891352593627495,0.868100486697886,0,0,0,5.8625
1.175,9.94747574132399,1.02358506034956,0,-0.0893246473866232,0.868081019741837,0,0,0,5.875
1.1775,9.94725219297492,1.02575523852218,0,-0.0895140311589589,0.868061511468193,0,0,0,5.8875
1.18,9.94702817117174,1.02792536787247,0,-0.0897034106707425,0.868041961877885,0,0,0,5.9
1.1825,9.94680367592512,1.03009544829714,0,-0.0898927859129603,0.868022370971842,0,0,0,5.9125
1.185,9.94657870724574,1.0322654796929,0,-0.0900821568765987,0.868002738750997,0,0,0,5.925
1.1875,9.94635326514431,1.03443546195646,0,-0.0902715235526442,0.867983065216284,0,0,0,5.9375
1.19,9.94612734963156,1.03660539498455,0,-0.0904608859320837,0.86796335036864,0,0,0,5.95
1.1925,9.94590096071824,1.03877527867388,0,-0.0906502440059043,0.867943594209002,0,0,0,5.9625
1.195,9.94567409841513,1.04094511292117,0,-0.0908395977650931,0.867923796738312,0,0,0,5.975
1.1975,9.94544676273302,1.04311489762315,0,-0.0910289472006375,0.867903957957512,0,0,0,5.9875
1.2,9.94521895368273,1.04528463267653,0,-0.0912182923035252,0.867884077867546,0,0,0,6
1.2025,9.94499067127512,1.04745431797806,0,-0.091407633064744,0.867864156469359,0,0,0,6.0125
1.205,9.94476191552103,1.04962395342446,0,-0.0915969694752821,0.867844193763901,0,0,0,6.025
1.2075,9.94453268643137,1.05179353891246,0,-0.0917863015261275,0.867824189752121,0,0,0,6.0375
1.21,9.94430298401704,1.0539630743388,0,-0.0919756292082689,0.867804144434972,0,0,0,6.05
1.2125,9.94407280828898,1.05613255960021,0,-0.0921649525126949,0.867784057813408,0,0,0,6.0625
1.215,9.94384215925814,1.05830199459345,0,-0.0923542714303943,0.867763929888384,0,0,0,6.075
1.2175,9.94361103693549,1.06047137921524,0,-0.0925435859523562,0.867743760660859,0,0,0,6.0875
1.22,9.94337944133205,1.06264071336233,0,-0.09273289606957,0.867723550131793,0,0,0,6.1
1.2225,9.94314737245882,1.06480999693148,0,-0.0929222017730251,0.867703298302147,0,0,0,6.1125
1.225,9.94291483032687,1.06697922981943,0,-0.0931115030537113,0.867683005172886,0,0,0,6.125
1.2275,9.94268181494725,1.06914841192293,0,-0.0933007999026184,0.867662670744975,0,0,0,6.1375
1.23,9.94244832633105,1.07131754313874,0,-0.0934900923107367,0.867642295019383,0,0,0,6.15
1.2325,9.9422143644894,1.07348662336361,0,-0.0936793802690564,0.867621877997078,0,0,0,6.1625
1.235,9.94197992943342,1.07565565249431,0,-0.0938686637685682,0.867601419679034,0,0,0,6.175
1.2375,9.94174502117428,1.07782463042759,0,-0.0940579428002628,0.867580920066223,0,0,0,6.1875
1.24,9.94150963972315,1.07999355706023,0,-0.0942472173551312,0.867560379159621,0,0,0,6.2
1.2425,9.94127378509124,1.08216243228898,0,-0.0944364874241646,0.867539796960207,0,0,0,6.2125
1.245,9.94103745728978,1.08433125601062,0,-0.0946257529983543,0.867519173468959,0,0,0,6.225
1.2475,9.94080065633,1.08650002812192,0,-0.0948150140686921,0.867498508686859,0,0,0,6.2375
1.25,9.9405633822232,1.08866874851965,0,-0.0950042706261698,0.867477802614892,0,0,0,6.25
1.2525,9.94032563498064,1.09083741710058,0,-0.0951935226617794,0.867457055254041,0,0,0,6.2625
1.255,9.94008741461366,1.09300603376151,0,-0.0953827701665132,0.867436266605296,0,0,0,6.275
1.2575,9.93984872113359,1.0951745983992,0,-0.0955720131313637,0.867415436669644,0,0,0,6.2875
1.26,9.9396095545518,1.09734311091045,0,-0.0957612515473236,0.867394565448079,0,0,0,6.3
1.2625,9.93936991487966,1.09951157119204,0,-0.0959504854053857,0.867373652941593,0,0,0,6.3125
1.265,9.93912980212858,1.10167997914076,0,-0.0961397146965433,0.867352699151181,0,0,0,6.325
1.2675,9.93888921630999,1.10384833465339,0,-0.0963289394117897,0.867331704077841,0,0,0,6.3375
1.27,9.93864815743534,1.10601663762675,0,-0.0965181595421185,0.867310667722572,0,0,0,6.35
1.2725,9.9384066255161,1.10818488795761,0,-0.0967073750785234,0.867289590086376,0,0,0,6.3625
1.275,9.93816462056378,1.11035308554278,0,-0.0968965860119985,0.867268471170255,0,0,0,6.375
1.2775,9.93792214258989,1.11252123027906,0,-0.097085792333538,0.867247310975215,0,0,0,6.3875
1.28,9.93767919160596,1.11468932206325,0,-0.0972749940341363,0.867226109502263,0,0,0,6.4
1.2825,9.93743576762357,1.11685736079217,0,-0.0974641911047882,0.867204866752407,0,0,0,6.4125
1.285,9.93719187065431,1.11902534636262,0,-0.0976533835364884,0.867183582726661,0,0,0,6.425
1.2875,9.93694750070977,1.12119327867141,0,-0.0978425713202321,0.867162257426035,0,0,0,6.4375
1.29,9.93670265780158,1.12336115761536,0,-0.0980317544470146,0.867140890851545,0,0,0,6.45
1.2925,9.93645734194142,1.12552898309127,0,-0.0982209329078315,0.867119483004209,0,0,0,6.4625
1.295,9.93621155314094,1.12769675499598,0,-0.0984101066936786,0.867098033885045,0,0,0,6.475
1.2975,9.93596529141185,1.12986447322631,0,-0.0985992757955518,0.867076543495074,0,0,0,6.4875
1.3,9.93571855676587,1.13203213767907,0,-0.0987884402044474,0.867055011835318,0,0,0,6.5
1.3025,9.93547134921475,1.13419974825109,0,-0.0989775999113618,0.867033438906804,0,0,0,6.5125
1.305,9.93522366877025,1.13636730483921,0,-0.0991667549072916,0.867011824710556,0,0,0,6.525
1.3075,9.93497551544415,1.13853480734026,0,-0.0993559051832339,0.866990169247606,0,0,0,6.5375
1.31,9.93472688924827,1.14070225565106,0,-0.0995450507301856,0.866968472518982,0,0,0,6.55
1.3125,9.93447779019444,1.14286964966846,0,-0.0997341915391441,0.866946734525717,0,0,0,6.5625
1.315,9.93422821829453,1.1450369892893,0,-0.099923327601107,0.866924955268847,0,0,0,6.575
1.3175,9.9339781735604,1.14720427441042,0,-0.100112458907072,0.866903134749409,0,0,0,6.5875
1.32,9.93372765600397,1.14937150492867,0,-0.100301585448037,0.866881272968439,0,0,0,6.6
1.3225,9.93347666563714,1.15153868074088,0,-0.100490707215001,0.86685936992698,0,0,0,6.6125
1.325,9.93322520247187,1.15370580174392,0,-0.100679824198962,0.866837425626073,0,0,0,6.625
1.3275,9.93297326652014,1.15587286783463,0,-0.100868936390918,0.866815440066763,0,0,0,6.6375
1.33,9.93272085779392,1.15803987890987,0,-0.101058043781868,0.866793413250097,0,0,0,6.65
1.3325,9.93246797630524,1.1602068348665,0,-0.101247146362813,0.866771345177123,0,0,0,6.6625
1.335,9.93221462206612,1.16237373560138,0,-0.10143624412475,0.866749235848891,0,0,0,6.675
1.3375,9.93196079508864,1.16454058101137,0,-0.10162533705868,0.866727085266453,0,0,0,6.6875
1.34,9.93170649538486,1.16670737099333,0,-0.101814425155603,0.866704893430864,0,0,0,6.7
1.3425,9.9314517229669,1.16887410544414,0,-0.102003508406518,0.866682660343181,0,0,0,6.7125
1.345,9.93119647784687,1.17104078426067,0,-0.102192586802427,0.86666038600446,0,0,0,6.725
1.3475,9.93094076003694,1.17320740733979,0,-0.102381660334328,0.866638070415763,0,0,0,6.7375
1.35,9.93068456954926,1.17537397457838,0,-0.102570728993224,0.866615713578152,0,0,0,6.75
1.3525,9.93042790639604,1.17754048587331,0,-0.102759792770115,0.866593315492691,0,0,0,6.7625
1.355,9.93017077058949,1.17970694112147,0,-0.102948851656002,0.866570876160445,0,0,0,6.775
1.3575,9.92991316214184,1.18187334021974,0,-0.103137905641888,0.866548395582484,0,0,0,6.7875
1.36,9.92965508106537,1.18403968306501,0,-0.103326954718773,0.866525873759876,0,0,0,6.8
1.3625,9.92939652737235,1.18620596955417,0,-0.103515998877659,0.866503310693694,0,0,0,6.8125
1.365,9.92913750107509,1.18837219958411,0,-0.103705038109549,0.866480706385011,0,0,0,6.825
1.3675,9.92887800218591,1.19053837305173,0,-0.103894072405446,0.866458060834905,0,0,0,6.8375
1.37,9.92861803071718,1.19270448985392,0,-0.104083101756351,0.866435374044452,0,0,0,6.85
1.3725,9.92835758668126,1.19487054988758,0,-0.104272126153267,0.866412646014732,0,0,0,6.8625
1.375,9.92809667009055,1.19703655304963,0,-0.104461145587199,0.866389876746827,0,0,0,6.875
1.3775,9.92783528095747,1.19920249923695,0,-0.104650160049148,0.866367066241821,0,0,0,6.8875
1.38,9.92757341929446,1.20136838834647,0,-0.104839169530119,0.866344214500799,0,0,0,6.9
1.3825,9.92731108511398,1.20353422027509,0,-0.105028174021115,0.86632132152485,0,0,0,6.9125
1.385,9.92704827842852,1.20569999491973,0,-0.105217173513141,0.866298387315062,0,0,0,6.925
1.3875,9.92678499925058,1.20786571217731,0,-0.105406167997201,0.866275411872528,0,0,0,6.9375
1.39,9.92652124759271,1.21003137194474,0,-0.105595157464299,0.86625239519834,0,0,0,6.95
1.3925,9.92625702346745,1.21219697411894,0,-0.10578414190544,0.866229337293595,0,0,0,6.9625
1.395,9.92599232688738,1.21436251859685,0,-0.105973121311629,0.86620623815939,0,0,0,6.975
1.3975,9.9257271578651,1.21652800527538,0,-0.106162095673872,0.866183097796824,0,0,0,6.9875
1.4,9.92546151641322,1.21869343405147,0,-0.106351064983173,0.866159916206999,0,0,0,7
1.4025,9.9251954025444,1.22085880482206,0,-0.106540029230539,0.866136693391019,0,0,0,7.0125
1.405,9.92492881627129,1.22302411748408,0,-0.106728988406975,0.866113429349987,0,0,0,7.025
1.4075,9.9246617576066,1.22518937193446,0,-0.106917942503488,0.866090124085012,0,0,0,7.0375
1.41,9.92439422656302,1.22735456807015,0,-0.107106891511085,0.866066777597204,0,0,0,7.05
1.4125,9.92412622315329,1.22951970578809,0,-0.107295835420771,0.866043389887672,0,0,0,7.0625
1.415,9.92385774739017,1.23168478498524,0,-0.107484774223554,0.866019960957531,0,0,0,7.075
1.4175,9.92358879928643,1.23384980555853,0,-0.107673707910441,0.865996490807895,0,0,0,7.0875
1.42,9.92331937885489,1.23601476740493,0,-0.107862636472439,0.865972979439882,0,0,0,7.1
1.4225,9.92304948610835,1.23817967042138,0,-0.108051559900557,0.86594942685461,0,0,0,7.1125
1.425,9.92277912105967,1.24034451450485,0,-0.108240478185801,0.865925833053201,0,0,0,7.125
1.4275,9.92250828372172,1.2425092995523,0,-0.108429391319181,0.865902198036778,0,0,0,7.1375
1.43,9.92223697410737,1.24467402546069,0,-0.108618299291704,0.865878521806465,0,0,0,7.15
1.4325,9.92196519222956,1.24683869212699,0,-0.108807202094379,0.86585480436339,0,0,0,7.1625
1.435,9.92169293810122,1.24900329944817,0,-0.108996099718216,0.865831045708681,0,0,0,7.175
1.4375,9.9214202117353,1.25116784732119,0,-0.109184992154223,0.865807245843469,0,0,0,7.1875
1.44,9.92114701314478,1.25333233564304,0,-0.109373879393409,0.865783404768888,0,0,0,7.2
1.4425,9.92087334234267,1.2554967643107,0,-0.109562761426784,0.865759522486071,0,0,0,7.2125
1.445,9.92059919934199,1.25766113322113,0,-0.109751638245359,0.865735598996155,0,0,0,7.225
1.4475,9.92032458415579,1.25982544227134,0,-0.109940509840143,0.86571163430028,0,0,0,7.2375
1.45,9.92004949679715,1.2619896913583,0,-0.110129376202147,0.865687628399585,0,0,0,7.25
1.4525,9.91977393727915,1.264153880379,0,-0.11031823732238,0.865663581295213,0,0,0,7.2625
1.455,9.91949790561491,1.26631800923044,0,-0.110507093191855,0.86563949298831,0,0,0,7.275
1.4575,9.91922140181758,1.26848207780961,0,-0.110695943801583,0.865615363480021,0,0,0,7.2875
1.46,9.9189444259003,1.2706460860135,0,-0.110884789142574,0.865591192771494,0,0,0,7.3
1.4625,9.91866697787626,1.27281003373913,0,-0.11107362920584,0.865566980863882,0,0,0,7.3125
1.465,9.91838905775867,1.27497392088349,0,-0.111262463982393,0.865542727758334,0,0,0,7.325
1.4675,9.91811066556076,1.27713774734359,0,-0.111451293463246,0.865518433456007,0,0,0,7.3375
1.47,9.91783180129578,1.27930151301644,0,-0.11164011763941,0.865494097958057,0,0,0,7.35
1.4725,9.91755246497699,1.28146521779905,0,-0.111828936501899,0.865469721265641,0,0,0,7.3625
1.475,9.9172726566177,1.28362886158844,0,-0.112017750041725,0.86544530337992,0,0,0,7.375
1.4775,9.91699237623123,1.28579244428163,0,-0.112206558249901,0.865420844302056,0,0,0,7.3875
1.48,9.9167116238309,1.28795596577563,0,-0.112395361117441,0.865396344033213,0,0,0,7.4
1.4825,9.9164303994301,1.29011942596747,0,-0.112584158635358,0.865371802574558,0,0,0,7.4125
1.485,9.91614870304219,1.29228282475418,0,-0.112772950794666,0.865347219927258,0,0,0,7.425
1.4875,9.9158665346806,1.29444616203278,0,-0.11296173758638,0.865322596092485,0,0,0,7.4375
1.49,9.91558389435874,1.29660943770032,0,-0.113150519001514,0.865297931071408,0,0,0,7.45
1.4925,9.91530078209008,1.29877265165382,0,-0.113339295031083,0.865273224865203,0,0,0,7.4625
1.495,9.91501719788808,1.30093580379032,0,-0.1135280656661,0.865248477475046,0,0,0,7.475
1.4975,9.91473314176625,1.30309889400687,0,-0.113716830897583,0.865223688902114,0,0,0,7.4875
1.5,9.9144486137381,1.30526192220052,0,-0.113905590716545,0.865198859147587,0,0,0,7.5
1.5025,9.91416361381719,1.3074248882683,0,-0.114094345114004,0.865173988212647,0,0,0,7.5125
1.505,9.91387814201706,1.30958779210726,0,-0.114283094080974,0.865149076098478,0,0,0,7.525
1.5075,9.91359219835131,1.31175063361447,0,-0.114471837608472,0.865124122806266,0,0,0,7.5375
1.51,9.91330578283356,1.31391341268698,0,-0.114660575687514,0.865099128337198,0,0,0,7.55
1.5125,9.91301889547742,1.31607612922185,0,-0.114849308309118,0.865074092692463,0,0,0,7.5625
1.515,9.91273153629657,1.31823878311613,0,-0.1150380354643,0.865049015873254,0,0,0,7.575
1.5175,9.91244370530467,1.3204013742669,0,-0.115226757144077,0.865023897880765,0,0,0,7.5875
1.52,9.91215540251542,1.32256390257122,0,-0.115415473339467,0.864998738716189,0,0,0,7.6
1.5225,9.91186662794255,1.32472636792617,0,-0.115604184041488,0.864973538380726,0,0,0,7.6125
1.525,9.91157738159979,1.32688877022882,0,-0.115792889241157,0.864948296875574,0,0,0,7.625
1.5275,9.91128766350093,1.32905110937624,0,-0.115981588929494,0.864923014201935,0,0,0,7.6375
1.53,9.91099747365975,1.33121338526552,0,-0.116170283097516,0.864897690361013,0,0,0,7.65
1.5325,9.91070681209005,1.33337559779374,0,-0.116358971736242,0.864872325354012,0,0,0,7.6625
1.535,9.91041567880568,1.33553774685799,0,-0.116547654836692,0.86484691918214,0,0,0,7.675
1.5375,9.91012407382049,1.33769983235535,0,-0.116736332389885,0.864821471846606,0,0,0,7.6875
1.54,9.90983199714836,1.33986185418292,0,-0.116925004386841,0.864795983348621,0,0,0,7.7
1.5425,9.90953944880319,1.34202381223779,0,-0.117113670818578,0.864770453689399,0,0,0,7.7125
1.545,9.90924642879891,1.34418570641707,0,-0.117302331676119,0.864744882870154,0,0,0,7.725
1.5475,9.90895293714947,1.34634753661785,0,-0.117490986950482,0.864719270892105,0,0,0,7.7375
1.55,9.90865897386882,1.34850930273723,0,-0.117679636632688,0.864693617756469,0,0,0,7.75
1.5525,9.90836453897097,1.35067100467233,0,-0.117868280713759,0.864667923464467,0,0,0,7.7625
1.555,9.90806963246993,1.35283264232026,0,-0.118056919184716,0.864642188017324,0,0,0,7.775
1.5575,9.90777425437973,1.35499421557812,0,-0.11824555203658,0.864616411416263,0,0,0,7.7875
1.56,9.90747840471444,1.35715572434304,0,-0.118434179260373,0.864590593662511,0,0,0,7.8
1.5625,9.90718208348813,1.35931716851214,0,-0.118622800847117,0.864564734757298,0,0,0,7.8125
1.565,9.90688529071491,1.36147854798254,0,-0.118811416787834,0.864538834701854,0,0,0,7.825
1.5675,9.9065880264089,1.36363986265136,0,-0.119000027073547,0.864512893497411,0,0,0,7.8375
1.57,9.90629029058426,1.36580111241574,0,-0.119188631695279,0.864486911145206,0,0,0,7.85
1.5725,9.90599208325515,1.3679622971728,0,-0.119377230644052,0.864460887646473,0,0,0,7.8625
1.575,9.90569340443577,1.37012341681968,0,-0.11956582391089,0.864434823002453,0,0,0,7.875
1.5775,9.90539425414034,1.37228447125352,0,-0.119754411486817,0.864408717214384,0,0,0,7.8875
1.58,9.90509463238309,1.37444546037147,0,-0.119942993362857,0.864382570283511,0,0,0,7.9
1.5825,9.90479453917828,1.37660638407066,0,-0.120131569530033,0.864356382211078,0,0,0,7.9125
1.585,9.9044939745402,1.37876724224824,0,-0.12032013997937,0.86433015299833,0,0,0,7.925
1.5875,9.90419293848316,1.38092803480137,0,-0.120508704701893,0.864303882646516,0,0,0,7.9375
1.59,9.90389143102147,1.38308876162719,0,-0.120697263688627,0.864277571156888,0,0,0,7.95
1.5925,9.9035894521695,1.38524942262287,0,-0.120885816930597,0.864251218530696,0,0,0,7.9625
1.595,9.90328700194162,1.38741001768556,0,-0.121074364418829,0.864224824769196,0,0,0,7.975
1.5975,9.90298408035221,1.38957054671244,0,-0.121262906144348,0.864198389873644,0,0,0,7.9875
1.6,9.9026806874157,1.39173100960065,0,-0.121451442098181,0.864171913845297,0,0,0,8
1.6025,9.90237682314654,1.39389140624739,0,-0.121639972271354,0.864145396685416,0,0,0,8.0125
1.605,9.90207248755917,1.39605173654981,0,-0.121828496654893,0.864118838395264,0,0,0,8.025
1.6075,9.90176768066809,1.39821200040509,0,-0.122017015239825,0.864092238976104,0,0,0,8.0375
1.61,9.90146240248781,1.40037219771041,0,-0.122205528017179,0.864065598429201,0,0,0,8.05
1.6125,9.90115665303285,1.40253232836296,0,-0.12239403497798,0.864038916755826,0,0,0,8.0625
1.615,9.90085043231778,1.40469239225992,0,-0.122582536113257,0.864012193957246,0,0,0,8.075
1.6175,9.90054374035715,1.40685238929848,0,-0.122771031414037,0.863985430034734,0,0,0,8.0875
